time ;e1;e2;ctrlpitch;ctrlroll;ctrlthrust;ctrlyaw;edx;edy;edz;cumulx;cumuly;cumulz;x;y;z;dxr;dyr;dzr;dxrT;dyrT;dzrT;dxrUn;dyrUn;dzrUn;x_pred;y_pred;z_pred;dx_pred;dy_pred;dz_pred;ux;uy;uz;dxd;dyd;dzd;Perpx;Tangx;Perpy;Tangy;Perpz;Tanz;ax;ay;az;pitch;roll;yaw;yawd;eyaw;kpvx;kpvy;kpvz;kpyaw;kivx;kivy;kivz;kdvx;kdvy;kdvz;kdyaw;ktg;veld;pitchoff;ke1;ke2;gravity;thr_vel;gps_accuracy;height_accuracy;gps_sat_num;gps_status
13,6819;-5,424;-0;50;-50;1450;0;-0,0796491;-0,183453;-0,00106216;-0,000283869;-0,000653825;-3,78554e-06;0;0;0;0;0;0;0;0;0;0;0;0;0;0;0;0;0;0;0;0;0;-0,0796491;-0,183453;-0,00106216;-0,194476;0,00391142;-0,0176796;-0,0430257;-0;0;0;-0;9,81;-0,0123918;-0,0111701;0;0;0;-1080;1080;-600;1700;-10;10;-10;-0;0;-0;250;1,2;0,2;177;-1,2;-1;2555;0,07;4294967295;3750000128;0;16384;
13,6884;-5,424;-0;100;-100;1500;0;-0,079649;-0,183453;-0,00104826;-0,000801747;-0,00184664;-1,06013e-05;0;0;0;0;0;0;0;0;0;0;0;0;0;0;0;0;0;0;0;0;0;-0,079649;-0,183453;-0,00104826;-0,194476;0,00391142;-0,0176796;-0,0430257;-0;0;0,550192;-0,0685024;3,67722;-0,0125664;-0,0111701;0;0;0;-1080;1080;-600;1700;-10;10;-10;-0;0;-0;250;1,2;0,2;177;-1,2;-1;2555;0,07;4294967295;3750000128;0;16384;
13,6983;-5,424;-0;150;-150;1550;0;-0,079681;-0,183439;-0,00107972;-0,0015925;-0,00366708;-2,13164e-05;0;0;0;0;0;0;0;0;0;0;0;0;0;0;0;0;0;0;0;0;0;-0,079681;-0,183439;-0,00107972;-0,194476;0,00391142;-0,0176796;-0,0430257;-0;0;0,550191;-0,0695725;3,67724;-0,0125664;-0,0113446;0;0;0;-1080;1080;-600;1700;-10;10;-10;-0;0;-0;250;1,2;0,2;177;-1,2;-1;2555;0,07;4294967295;3750000128;0;16384;
13,7083;-5,424;-0;200;-198;1600;0;-0,079681;-0,183439;-0,00107972;-0,00239067;-0,00550459;-3,2132e-05;0;0;0;0;0;0;0;0;0;0;0;0;0;0;0;0;0;0;0;0;0;-0,079681;-0,183439;-0,00107972;-0,194476;0,00391142;-0,0176796;-0,0430257;-0;0;0,550195;-0,069573;3,67719;-0,0125664;-0,0113446;0;0;0;-1080;1080;-600;1700;-10;10;-10;-0;0;-0;250;1,2;0,2;177;-1,2;-1;2555;0,07;4294967295;3750000128;0;16384;
13,7182;-5,424;-0;250;-198;1650;0;-0,079681;-0,183439;-0,00107972;-0,00317959;-0,00732082;-4,28223e-05;0;0;0;0;0;0;0;0;0;0;0;0;0;0;0;0;0;0;0;0;0;-0,079681;-0,183439;-0,00107972;-0,194476;0,00391142;-0,0176796;-0,0430257;-0;0;0,550195;-0,069573;3,67719;-0,0125664;-0,0113446;0;0;0;-1080;1080;-600;1700;-10;10;-10;-0;0;-0;250;1,2;0,2;177;-1,2;-1;2555;0,07;4294967295;3750000128;0;16384;
13,7282;-5,424;-0;263;-198;1700;0;-0,0796811;-0,183439;-0,00109362;-0,00397735;-0,0091574;-5,37716e-05;0;0;0;0;0;0;0;0;0;0;0;0;0;0;0;0;0;0;0;0;0;-0,0796811;-0,183439;-0,00109362;-0,194476;0,00391142;-0,0176796;-0,0430257;-0;0;0,549129;-0,069573;3,67719;-0,0123918;-0,0113446;0;0;0;-1080;1080;-600;1700;-10;10;-10;-0;0;-0;250;1,2;0,2;177;-1,2;-1;2555;0,07;4294967295;3750000128;0;16384;
13,7382;-5,424;-0;263;-198;1750;0;-0,0796811;-0,183439;-0,00109362;-0,00477425;-0,010992;-6,4709e-05;0;0;0;0;0;0;0;0;0;0;0;0;0;0;0;0;0;0;0;0;0;-0,0796811;-0,183439;-0,00109362;-0,194476;0,00391142;-0,0176796;-0,0430257;-0;0;0,549131;-0,0695732;3,67717;-0,0123918;-0,0113446;0;0;0;-1080;1080;-600;1700;-10;10;-10;-0;0;-0;250;1,2;0,2;177;-1,2;-1;2555;0,07;4294967295;3750000128;0;16384;
13,7483;-5,424;-0;263;-198;1800;0;-0,0796813;-0,183438;-0,00110753;-0,00557711;-0,0128403;-7,58685e-05;0;0;0;0;0;0;0;0;0;0;0;0;0;0;0;0;0;0;0;0;0;-0,0796813;-0,183438;-0,00110753;-0,194476;0,00391142;-0,0176796;-0,0430257;-0;0;0,548065;-0,0695732;3,67717;-0,0122173;-0,0113446;0;0;0;-1080;1080;-600;1700;-10;10;-10;-0;0;-0;250;1,2;0,2;177;-1,2;-1;2555;0,07;4294967295;3750000128;0;16384;
13,7583;-5,424;-0;263;-198;1850;0;-0,0796811;-0,183439;-0,00106161;-0,00637536;-0,014678;-8,65036e-05;0;0;0;0;0;0;0;0;0;0;0;0;0;0;0;0;0;0;0;0;0;-0,0796811;-0,183439;-0,00106161;-0,194476;0,00391142;-0,0176796;-0,0430257;-0;0;0,549132;-0,0685031;3,67715;-0,0123918;-0,0111701;0;0;0;-1080;1080;-600;1700;-10;10;-10;-0;0;-0;250;1,2;0,2;177;-1,2;-1;2555;0,07;4294967295;3750000128;0;16384;
13,7683;-5,424;-0;263;-198;1900;0;-0,0796811;-0,183439;-0,00106161;-0,00717106;-0,0165098;-9,71049e-05;0;0;0;0;0;0;0;0;0;0;0;0;0;0;0;0;0;0;0;0;0;-0,0796811;-0,183439;-0,00106161;-0,194476;0,00391142;-0,0176796;-0,0430257;-0;0;0,549127;-0,0685024;3,67722;-0,0123918;-0,0111701;0;0;0;-1080;1080;-600;1700;-10;10;-10;-0;0;-0;250;1,2;0,2;177;-1,2;-1;2555;0,07;4294967295;3750000128;0;16384;
13,7783;-5,424;-0;263;-198;1950;0;-0,079681;-0,183439;-0,00101569;-0,00796826;-0,0183451;-0,000107267;0;0;0;0;0;0;0;0;0;0;0;0;0;0;0;0;0;0;0;0;0;-0,079681;-0,183439;-0,00101569;-0,194476;0,00391142;-0,0176796;-0,0430257;-0;0;0,550193;-0,0674321;3,67722;-0,0125664;-0,0109956;0;0;0;-1080;1080;-600;1700;-10;10;-10;-0;0;-0;250;1,2;0,2;177;-1,2;-1;2555;0,07;4294967295;3750000128;0;16384;
13,7883;-5,424;-0;263;-198;2000;0;-0,0796811;-0,183439;-0,00102959;-0,00876531;-0,0201801;-0,000117566;0;0;0;0;0;0;0;0;0;0;0;0;0;0;0;0;0;0;0;0;0;-0,0796811;-0,183439;-0,00102959;-0,194476;0,00391142;-0,0176796;-0,0430257;-0;0;0,549121;-0,0674314;3,67729;-0,0123918;-0,0109956;0;0;0;-1080;1080;-600;1700;-10;10;-10;-0;0;-0;250;1,2;0,2;177;-1,2;-1;2555;0,07;4294967295;3750000128;0;16384;
13,7984;-5,424;-0;263;-198;2050;0;-0,0796811;-0,183439;-0,00102959;-0,00956515;-0,0220214;-0,000127901;0;0;0;0;0;0;0;0;0;0;0;0;0;0;0;0;0;0;0;0;0;-0,0796811;-0,183439;-0,00102959;-0,194476;0,00391142;-0,0176796;-0,0430257;-0;0;0,549122;-0,0674316;3,67726;-0,0123918;-0,0109956;0;0;0;-1080;1080;-600;1700;-10;10;-10;-0;0;-0;250;1,2;0,2;177;-1,2;-1;2555;0,07;4294967295;3750000128;0;16384;
13,8082;-5,424;-0;263;-198;2100;0;-0,0796813;-0,183439;-0,0010435;-0,0103511;-0,0238309;-0,000138194;0;0;0;0;0;0;0;0;0;0;0;0;0;0;0;0;0;0;0;0;0;-0,0796813;-0,183439;-0,0010435;-0,194476;0,00391142;-0,0176796;-0,0430257;-0;0;0,548056;-0,0674316;3,67726;-0,0122173;-0,0109956;0;0;0;-1080;1080;-600;1700;-10;10;-10;-0;0;-0;250;1,2;0,2;177;-1,2;-1;2555;0,07;4294967295;3750000128;0;16384;
13,8182;-5,424;-0;263;-198;2150;0;-0,0796813;-0,183439;-0,00107551;-0,0111485;-0,0256665;-0,000148957;0;0;0;0;0;0;0;0;0;0;0;0;0;0;0;0;0;0;0;0;0;-0,0796813;-0,183439;-0,00107551;-0,194476;0,00391142;-0,0176796;-0,0430257;-0;0;0,548058;-0,0685021;3,67724;-0,0122173;-0,0111701;0;0;0;-1080;1080;-600;1700;-10;10;-10;-0;0;-0;250;1,2;0,2;177;-1,2;-1;2555;0,07;4294967295;3750000128;0;16384;
13,8283;-5,424;-0;263;-198;2200;0;-0,0796813;-0,183439;-0,00107551;-0,0119483;-0,0275079;-0,000159753;0;0;0;0;0;0;0;0;0;0;0;0;0;0;0;0;0;0;0;0;0;-0,0796813;-0,183439;-0,00107551;-0,194476;0,00391142;-0,0176796;-0,0430257;-0;0;0,548062;-0,0685026;3,6772;-0,0122173;-0,0111701;0;0;0;-1080;1080;-600;1700;-10;10;-10;-0;0;-0;250;1,2;0,2;177;-1,2;-1;2555;0,07;4294967295;3750000128;0;16384;
13,8384;-5,424;-0;263;-198;2250;0;-0,0796815;-0,183439;-0,00102539;-0,0127521;-0,0293582;-0,000170096;0;0;0;0;0;0;0;0;0;0;0;0;0;0;0;0;0;0;0;0;0;-0,0796815;-0,183439;-0,00102539;-0,194476;0,00391142;-0,0176796;-0,0430257;-0;0;0,546996;-0,066362;3,6772;-0,0120428;-0,010821;0;0;0;-1080;1080;-600;1700;-10;10;-10;-0;0;-0;250;1,2;0,2;177;-1,2;-1;2555;0,07;4294967295;3750000128;0;16384;
13,8482;-5,424;-0;263;-198;2300;0;-0,0796815;-0,183439;-0,00102539;-0,0135378;-0,0311671;-0,000180207;0;0;0;0;0;0;0;0;0;0;0;0;0;0;0;0;0;0;0;0;0;-0,0796815;-0,183439;-0,00102539;-0,194476;0,00391142;-0,0176796;-0,0430257;-0;0;0,54699;-0,0663612;3,67727;-0,0120428;-0,010821;0;0;0;-1080;1080;-600;1700;-10;10;-10;-0;0;-0;250;1,2;0,2;177;-1,2;-1;2555;0,07;4294967295;3750000128;0;16384;
13,8583;-5,424;-0;263;-198;2350;0;-0,0796813;-0,183439;-0,0010435;-0,0143413;-0,0330167;-0,000190729;0;0;0;0;0;0;0;0;0;0;0;0;0;0;0;0;0;0;0;0;0;-0,0796813;-0,183439;-0,0010435;-0,194476;0,00391142;-0,0176796;-0,0430257;-0;0;0,548056;-0,0674315;3,67727;-0,0122173;-0,0109956;0;0;0;-1080;1080;-600;1700;-10;10;-10;-0;0;-0;250;1,2;0,2;177;-1,2;-1;2555;0,07;4294967295;3750000128;0;16384;
13,8683;-5,424;-0;263;-198;2400;0;-0,0796491;-0,183453;-0,00106216;-0,0151355;-0,0348461;-0,000201321;0;0;0;0;0;0;0;0;0;0;0;0;0;0;0;0;0;0;0;0;0;-0,0796491;-0,183453;-0,00106216;-0,194476;0,00391142;-0,0176796;-0,0430257;-0;0;0,549124;-0,0685021;3,67724;-0,0123918;-0,0111701;0;0;0;-1080;1080;-600;1700;-10;10;-10;-0;0;-0;250;1,2;0,2;177;-1,2;-1;2555;0,07;4294967295;3750000128;0;16384;
13,8782;-5,424;-0;263;-198;2450;0;-0,0796491;-0,183453;-0,00106216;-0,0159245;-0,0366634;-0,000211842;0;0;0;0;0;0;0;0;0;0;0;0;0;0;0;0;0;0;0;0;0;-0,0796491;-0,183453;-0,00106216;-0,194476;0,00391142;-0,0176796;-0,0430257;-0;0;0,549127;-0,0685024;3,67722;-0,0123918;-0,0111701;0;0;0;-1080;1080;-600;1700;-10;10;-10;-0;0;-0;250;1,2;0,2;177;-1,2;-1;2555;0,07;4294967295;3750000128;0;16384;
13,8883;-5,424;-0;263;-198;2500;0;-0,079649;-0,183453;-0,00104826;-0,0167318;-0,0385227;-0,000222466;0;0;0;0;0;0;0;0;0;0;0;0;0;0;0;0;0;0;0;0;0;-0,079649;-0,183453;-0,00104826;-0,194476;0,00391142;-0,0176796;-0,0430257;-0;0;0,550193;-0,0685024;3,67722;-0,0125664;-0,0111701;0;0;0;-1080;1080;-600;1700;-10;10;-10;-0;0;-0;250;1,2;0,2;177;-1,2;-1;2555;0,07;4294967295;3750000128;0;16384;
13,8984;-5,424;-0;263;-198;2550;0;-0,079649;-0,183453;-0,00104826;-0,0175316;-0,0403649;-0,000232993;0;0;0;0;0;0;0;0;0;0;0;0;0;0;0;0;0;0;0;0;0;-0,079649;-0,183453;-0,00104826;-0,194476;0,00391142;-0,0176796;-0,0430257;-0;0;0,550191;-0,0685022;3,67724;-0,0125664;-0,0111701;0;0;0;-1080;1080;-600;1700;-10;10;-10;-0;0;-0;250;1,2;0,2;177;-1,2;-1;2555;0,07;4294967295;3750000128;0;16384;
13,9083;-5,424;-0;263;-198;2555;0;-0,079649;-0,183453;-0,00104826;-0,0183254;-0,0421932;-0,00024344;0;0;0;0;0;0;0;0;0;0;0;0;0;0;0;0;0;0;0;0;0;-0,079649;-0,183453;-0,00104826;-0,194476;0,00391142;-0,0176796;-0,0430257;-0;0;0,550191;-0,0685022;3,67724;-0,0125664;-0,0111701;0;0;0;-1080;1080;-600;1700;-10;10;-10;-0;0;-0;250;1,2;0,2;177;-1,2;-1;2555;0,07;4294967295;3750000128;0;16384;
13,9182;-5,424;-0;263;-198;2555;0;-0,0796168;-0,183467;-0,00106694;-0,0191134;-0,0440092;-0,000254001;0;0;0;0;0;0;0;0;0;0;0;0;0;0;0;0;0;0;0;0;0;-0,0796168;-0,183467;-0,00106694;-0,194476;0,00391142;-0,0176796;-0,0430257;-0;0;0,551257;-0,0695725;3,67723;-0,0127409;-0,0113446;0;0;0;-1080;1080;-600;1700;-10;10;-10;-0;0;-0;250;1,2;0,2;177;-1,2;-1;2555;0,07;4294967295;3750000128;0;16384;
13,9283;-5,424;-0;263;-198;2555;0;-0,0795527;-0,183494;-0,0011001;-0,0199136;-0,0458548;-0,000265065;0;0;0;0;0;0;0;0;0;0;0;0;0;0;0;0;0;0;0;0;0;-0,0795527;-0,183494;-0,0011001;-0,194476;0,00391142;-0,0176796;-0,0430257;-0;0;0,55126;-0,0706431;3,67721;-0,0127409;-0,0115192;0;0;0;-1080;1080;-600;1700;-10;10;-10;-0;0;-0;250;1,2;0,2;177;-1,2;-1;2555;0,07;4294967295;3750000128;0;16384;
13,9382;-5,424;-0;263;-198;2555;0;-0,0795527;-0,183494;-0,0011001;-0,0207047;-0,0476796;-0,000276006;0;0;0;0;0;0;0;0;0;0;0;0;0;0;0;0;0;0;0;0;0;-0,0795527;-0,183494;-0,0011001;-0,194476;0,00391142;-0,0176796;-0,0430257;-0;0;0,551264;-0,0706437;3,67716;-0,0127409;-0,0115192;0;0;0;-1080;1080;-600;1700;-10;10;-10;-0;0;-0;250;1,2;0,2;177;-1,2;-1;2555;0,07;4294967295;3750000128;0;16384;
13,9483;-5,424;-0;263;-198;2555;0;-0,0795207;-0,183508;-0,0011327;-0,021506;-0,0495288;-0,00028742;0;0;0;0;0;0;0;0;0;0;0;0;0;0;0;0;0;0;0;0;0;-0,0795207;-0,183508;-0,0011327;-0,194476;0,00391142;-0,0176796;-0,0430257;-0;0;0,551264;-0,071714;3,67716;-0,0127409;-0,0116937;0;0;0;-1080;1080;-600;1700;-10;10;-10;-0;0;-0;250;1,2;0,2;177;-1,2;-1;2555;0,07;4294967295;3750000128;0;16384;
13,9583;-5,424;-0;263;-198;2555;0;-0,0795209;-0,183508;-0,0011786;-0,0223006;-0,0513624;-0,000299197;0;0;0;0;0;0;0;0;0;0;0;0;0;0;0;0;0;0;0;0;0;-0,0795209;-0,183508;-0,0011786;-0,194476;0,00391142;-0,0176796;-0,0430257;-0;0;0,550202;-0,0727849;3,67711;-0,0125664;-0,0118682;0;0;0;-1080;1080;-600;1700;-10;10;-10;-0;0;-0;250;1,2;0,2;177;-1,2;-1;2555;0,07;4294967295;3750000128;0;16384;
13,9683;-5,424;-0;263;-198;2555;0;-0,0795209;-0,183508;-0,0011786;-0,023099;-0,0532049;-0,00031103;0;0;0;0;0;0;0;0;0;0;0;0;0;0;0;0;0;0;0;0;0;-0,0795209;-0,183508;-0,0011786;-0,194476;0,00391142;-0,0176796;-0,0430257;-0;0;0,550208;-0,0727857;3,67705;-0,0125664;-0,0118682;0;0;0;-1080;1080;-600;1700;-10;10;-10;-0;0;-0;250;1,2;0,2;177;-1,2;-1;2555;0,07;4294967295;3750000128;0;16384;
13,9784;-5,424;-0;263;-198;2555;0;-0,079521;-0,183507;-0,00119248;-0,0238993;-0,0550517;-0,000323031;0;0;0;0;0;0;0;0;0;0;0;0;0;0;0;0;0;0;0;0;0;-0,079521;-0,183507;-0,00119248;-0,194476;0,00391142;-0,0176796;-0,0430257;-0;0;0,549142;-0,0727857;3,67705;-0,0123918;-0,0118682;0;0;0;-1080;1080;-600;1700;-10;10;-10;-0;0;-0;250;1,2;0,2;177;-1,2;-1;2555;0,07;4294967295;3750000128;0;16384;
13,9883;-5,424;-0;263;-198;2555;0;-0,079521;-0,183507;-0,00119248;-0,0246864;-0,056868;-0,000334834;0;0;0;0;0;0;0;0;0;0;0;0;0;0;0;0;0;0;0;0;0;-0,079521;-0,183507;-0,00119248;-0,194476;0,00391142;-0,0176796;-0,0430257;-0;0;0,549144;-0,0727859;3,67703;-0,0123918;-0,0118682;0;0;0;-1080;1080;-600;1700;-10;10;-10;-0;0;-0;250;1,2;0,2;177;-1,2;-1;2555;0,07;4294967295;3750000128;0;16384;
13,9983;-5,424;-0;263;-198;2555;0;-0,0795212;-0,183507;-0,00120636;-0,0254835;-0,0587075;-0,000346927;0;0;0;0;0;0;0;0;0;0;0;0;0;0;0;0;0;0;0;0;0;-0,0795212;-0,183507;-0,00120636;-0,194476;0,00391142;-0,0176796;-0,0430257;-0;0;0,548078;-0,0727859;3,67703;-0,0122173;-0,0118682;0;0;0;-1080;1080;-600;1700;-10;10;-10;-0;0;-0;250;1,2;0,2;177;-1,2;-1;2555;0,07;4294967295;3750000128;0;16384;
14,0083;-5,424;-0;263;-198;2555;0;-0,0795212;-0,183507;-0,00120636;-0,0262784;-0,0605418;-0,000358985;0;0;0;0;0;0;0;0;0;0;0;0;0;0;0;0;0;0;0;0;0;-0,0795212;-0,183507;-0,00120636;-0,194476;0,00391142;-0,0176796;-0,0430257;-0;0;0,54808;-0,0727861;3,677;-0,0122173;-0,0118682;0;0;0;-1080;1080;-600;1700;-10;10;-10;-0;0;-0;250;1,2;0,2;177;-1,2;-1;2555;0,07;4294967295;3750000128;0;16384;
14,0182;-5,424;-0;263;-198;2555;0;-0,0795212;-0,183507;-0,00120636;-0,0270677;-0,0623632;-0,000370959;0;0;0;0;0;0;0;0;0;0;0;0;0;0;0;0;0;0;0;0;0;-0,0795212;-0,183507;-0,00120636;-0,194476;0,00391142;-0,0176796;-0,0430257;-0;0;0,54808;-0,0727861;3,677;-0,0122173;-0,0118682;0;0;0;-1080;1080;-600;1700;-10;10;-10;-0;0;-0;250;1,2;0,2;177;-1,2;-1;2555;0,07;4294967295;3750000128;0;16384;
14,0282;-5,424;-0;263;-198;2555;0;-0,0795214;-0,183507;-0,00118821;-0,0278623;-0,0641968;-0,000382831;0;0;0;0;0;0;0;0;0;0;0;0;0;0;0;0;0;0;0;0;0;-0,0795214;-0,183507;-0,00118821;-0,194476;0,00391142;-0,0176796;-0,0430257;-0;0;0,547014;-0,0717158;3,677;-0,0120428;-0,0116937;0;0;0;-1080;1080;-600;1700;-10;10;-10;-0;0;-0;250;1,2;0,2;177;-1,2;-1;2555;0,07;4294967295;3750000128;0;16384;
14,0383;-5,424;-0;263;-198;2555;0;-0,0795216;-0,183507;-0,00117006;-0,0286588;-0,066035;-0,000394552;0;0;0;0;0;0;0;0;0;0;0;0;0;0;0;0;0;0;0;0;0;-0,0795216;-0,183507;-0,00117006;-0,194476;0,00391142;-0,0176796;-0,0430257;-0;0;0,545945;-0,0706452;3,67703;-0,0118682;-0,0115192;0;0;0;-1080;1080;-600;1700;-10;10;-10;-0;0;-0;250;1,2;0,2;177;-1,2;-1;2555;0,07;4294967295;3750000128;0;16384;
14,0482;-5,424;-0;263;-198;2555;0;-0,0795216;-0,183507;-0,00117006;-0,029451;-0,0678631;-0,000406208;0;0;0;0;0;0;0;0;0;0;0;0;0;0;0;0;0;0;0;0;0;-0,0795216;-0,183507;-0,00117006;-0,194476;0,00391142;-0,0176796;-0,0430257;-0;0;0,545943;-0,0706449;3,67706;-0,0118682;-0,0115192;0;0;0;-1080;1080;-600;1700;-10;10;-10;-0;0;-0;250;1,2;0,2;177;-1,2;-1;2555;0,07;4294967295;3750000128;0;16384;
14,0583;-5,424;-0;263;-198;2555;0;-0,0795217;-0,183507;-0,00118394;-0,0302537;-0,0697154;-0,000418158;0;0;0;0;0;0;0;0;0;0;0;0;0;0;0;0;0;0;0;0;0;-0,0795217;-0,183507;-0,00118394;-0,194476;0,00391142;-0,0176796;-0,0430257;-0;0;0,544877;-0,0706449;3,67706;-0,0116937;-0,0115192;0;0;0;-1080;1080;-600;1700;-10;10;-10;-0;0;-0;250;1,2;0,2;177;-1,2;-1;2555;0,07;4294967295;3750000128;0;16384;
14,0683;-5,424;-0;263;-198;2555;0;-0,0795219;-0,183507;-0,00116579;-0,0310511;-0,0715554;-0,000429848;0;0;0;0;0;0;0;0;0;0;0;0;0;0;0;0;0;0;0;0;0;-0,0795219;-0,183507;-0,00116579;-0,194476;0,00391142;-0,0176796;-0,0430257;-0;0;0,543812;-0,0695748;3,67704;-0,0115192;-0,0113446;0;0;0;-1080;1080;-600;1700;-10;10;-10;-0;0;-0;250;1,2;0,2;177;-1,2;-1;2555;0,07;4294967295;3750000128;0;16384;
14,0783;-5,424;-0;263;-198;2555;0;-0,0795219;-0,183507;-0,00116579;-0,0318445;-0,0733864;-0,00044148;0;0;0;0;0;0;0;0;0;0;0;0;0;0;0;0;0;0;0;0;0;-0,0795219;-0,183507;-0,00116579;-0,194476;0,00391142;-0,0176796;-0,0430257;-0;0;0,54381;-0,0695745;3,67706;-0,0115192;-0,0113446;0;0;0;-1080;1080;-600;1700;-10;10;-10;-0;0;-0;250;1,2;0,2;177;-1,2;-1;2555;0,07;4294967295;3750000128;0;16384;
14,0883;-5,424;-0;263;-198;2555;0;-0,0795219;-0,183507;-0,00116579;-0,0326404;-0,075223;-0,000453147;0;0;0;0;0;0;0;0;0;0;0;0;0;0;0;0;0;0;0;0;0;-0,0795219;-0,183507;-0,00116579;-0,194476;0,00391142;-0,0176796;-0,0430257;-0;0;0,54381;-0,0695745;3,67706;-0,0115192;-0,0113446;0;0;0;-1080;1080;-600;1700;-10;10;-10;-0;0;-0;250;1,2;0,2;177;-1,2;-1;2555;0,07;4294967295;3750000128;0;16384;
14,0982;-5,424;-0;263;-198;2555;0;-0,0795217;-0,183508;-0,00111988;-0,0334282;-0,077041;-0,000464242;0;0;0;0;0;0;0;0;0;0;0;0;0;0;0;0;0;0;0;0;0;-0,0795217;-0,183508;-0,00111988;-0,194476;0,00391142;-0,0176796;-0,0430257;-0;0;0,544876;-0,0685042;3,67706;-0,0116937;-0,0111701;0;0;0;-1080;1080;-600;1700;-10;10;-10;-0;0;-0;250;1,2;0,2;177;-1,2;-1;2555;0,07;4294967295;3750000128;0;16384;
14,1082;-5,424;-0;263;-198;2555;0;-0,0795217;-0,183508;-0,00111988;-0,0342222;-0,0788731;-0,000475423;0;0;0;0;0;0;0;0;0;0;0;0;0;0;0;0;0;0;0;0;0;-0,0795217;-0,183508;-0,00111988;-0,194476;0,00391142;-0,0176796;-0,0430257;-0;0;0,54487;-0,0685034;3,67713;-0,0116937;-0,0111701;0;0;0;-1080;1080;-600;1700;-10;10;-10;-0;0;-0;250;1,2;0,2;177;-1,2;-1;2555;0,07;4294967295;3750000128;0;16384;
14,1182;-5,424;-0;263;-198;2555;0;-0,0795216;-0,183508;-0,00107397;-0,0350202;-0,0807146;-0,0004862;0;0;0;0;0;0;0;0;0;0;0;0;0;0;0;0;0;0;0;0;0;-0,0795216;-0,183508;-0,00107397;-0,194476;0,00391142;-0,0176796;-0,0430257;-0;0;0,545937;-0,0674331;3,67713;-0,0118682;-0,0109956;0;0;0;-1080;1080;-600;1700;-10;10;-10;-0;0;-0;250;1,2;0,2;177;-1,2;-1;2555;0,07;4294967295;3750000128;0;16384;
14,1283;-5,424;-0;263;-199;2555;0;-0,0795214;-0,183508;-0,00102807;-0,0358166;-0,0825525;-0,000496496;0;0;0;0;0;0;0;0;0;0;0;0;0;0;0;0;0;0;0;0;0;-0,0795214;-0,183508;-0,00102807;-0,194476;0,00391142;-0,0176796;-0,0430257;-0;0;0,546997;-0,0663621;3,67719;-0,0120428;-0,010821;0;0;0;-1080;1080;-600;1700;-10;10;-10;-0;0;-0;250;1,2;0,2;177;-1,2;-1;2555;0,07;4294967295;3750000128;0;16384;
14,1383;-5,424;-0;263;-199;2555;0;-0,0795214;-0,183508;-0,00102807;-0,0366124;-0,084389;-0,000506785;0;0;0;0;0;0;0;0;0;0;0;0;0;0;0;0;0;0;0;0;0;-0,0795214;-0,183508;-0,00102807;-0,194476;0,00391142;-0,0176796;-0,0430257;-0;0;0,546991;-0,0663614;3,67726;-0,0120428;-0,010821;0;0;0;-1080;1080;-600;1700;-10;10;-10;-0;0;-0;250;1,2;0,2;177;-1,2;-1;2555;0,07;4294967295;3750000128;0;16384;
14,1482;-5,424;-0;263;-199;2555;0;-0,0795214;-0,183508;-0,0010601;-0,0374056;-0,0862193;-0,000517358;0;0;0;0;0;0;0;0;0;0;0;0;0;0;0;0;0;0;0;0;0;-0,0795214;-0,183508;-0,0010601;-0,194476;0,00391142;-0,0176796;-0,0430257;-0;0;0,546991;-0,0674317;3,67726;-0,0120428;-0,0109956;0;0;0;-1080;1080;-600;1700;-10;10;-10;-0;0;-0;250;1,2;0,2;177;-1,2;-1;2555;0,07;4294967295;3750000128;0;16384;
14,1583;-5,424;-0;263;-199;2555;0;-0,0795214;-0,183508;-0,0010601;-0,0382044;-0,0880627;-0,000528007;0;0;0;0;0;0;0;0;0;0;0;0;0;0;0;0;0;0;0;0;0;-0,0795214;-0,183508;-0,0010601;-0,194476;0,00391142;-0,0176796;-0,0430257;-0;0;0,546995;-0,0674322;3,67721;-0,0120428;-0,0109956;0;0;0;-1080;1080;-600;1700;-10;10;-10;-0;0;-0;250;1,2;0,2;177;-1,2;-1;2555;0,07;4294967295;3750000128;0;16384;
14,1683;-5,424;-0;263;-199;2555;0;-0,0795216;-0,183508;-0,001106;-0,0390028;-0,0899051;-0,000539111;0;0;0;0;0;0;0;0;0;0;0;0;0;0;0;0;0;0;0;0;0;-0,0795216;-0,183508;-0,001106;-0,194476;0,00391142;-0,0176796;-0,0430257;-0;0;0,545929;-0,0685025;3,67721;-0,0118682;-0,0111701;0;0;0;-1080;1080;-600;1700;-10;10;-10;-0;0;-0;250;1,2;0,2;177;-1,2;-1;2555;0,07;4294967295;3750000128;0;16384;
14,1782;-5,424;-0;263;-199;2555;0;-0,0795214;-0,183508;-0,00112415;-0,03979;-0,0917218;-0,00055024;0;0;0;0;0;0;0;0;0;0;0;0;0;0;0;0;0;0;0;0;0;-0,0795214;-0,183508;-0,00112415;-0,194476;0,00391142;-0,0176796;-0,0430257;-0;0;0,547001;-0,0695735;3,67714;-0,0120428;-0,0113446;0;0;0;-1080;1080;-600;1700;-10;10;-10;-0;0;-0;250;1,2;0,2;177;-1,2;-1;2555;0,07;4294967295;3750000128;0;16384;
14,1884;-5,424;-0;263;-199;2555;0;-0,0795214;-0,183508;-0,00112415;-0,0405983;-0,0935872;-0,000561668;0;0;0;0;0;0;0;0;0;0;0;0;0;0;0;0;0;0;0;0;0;-0,0795214;-0,183508;-0,00112415;-0,194476;0,00391142;-0,0176796;-0,0430257;-0;0;0,547003;-0,0695738;3,67712;-0,0120428;-0,0113446;0;0;0;-1080;1080;-600;1700;-10;10;-10;-0;0;-0;250;1,2;0,2;177;-1,2;-1;2555;0,07;4294967295;3750000128;0;16384;
14,1984;-5,424;-0;263;-199;2555;0;-0,0795212;-0,183508;-0,0011423;-0,0413905;-0,0954151;-0,000573046;0;0;0;0;0;0;0;0;0;0;0;0;0;0;0;0;0;0;0;0;0;-0,0795212;-0,183508;-0,0011423;-0,194476;0,00391142;-0,0176796;-0,0430257;-0;0;0,548069;-0,0706442;3,67712;-0,0122173;-0,0115192;0;0;0;-1080;1080;-600;1700;-10;10;-10;-0;0;-0;250;1,2;0,2;177;-1,2;-1;2555;0,07;4294967295;3750000128;0;16384;
14,2083;-5,424;-0;263;-199;2555;0;-0,079521;-0,183508;-0,00112842;-0,0421833;-0,0972447;-0,000584296;0;0;0;0;0;0;0;0;0;0;0;0;0;0;0;0;0;0;0;0;0;-0,079521;-0,183508;-0,00112842;-0,194476;0,00391142;-0,0176796;-0,0430257;-0;0;0,549138;-0,0706445;3,67709;-0,0123918;-0,0115192;0;0;0;-1080;1080;-600;1700;-10;10;-10;-0;0;-0;250;1,2;0,2;177;-1,2;-1;2555;0,07;4294967295;3750000128;0;16384;
14,2182;-5,424;-0;263;-199;2555;0;-0,079521;-0,183508;-0,00112842;-0,0429697;-0,0990595;-0,000595456;0;0;0;0;0;0;0;0;0;0;0;0;0;0;0;0;0;0;0;0;0;-0,079521;-0,183508;-0,00112842;-0,194476;0,00391142;-0,0176796;-0,0430257;-0;0;0,549136;-0,0706442;3,67711;-0,0123918;-0,0115192;0;0;0;-1080;1080;-600;1700;-10;10;-10;-0;0;-0;250;1,2;0,2;177;-1,2;-1;2555;0,07;4294967295;3750000128;0;16384;
14,2282;-5,424;-0;263;-199;2555;0;-0,0795531;-0,183494;-0,00115989;-0,0437646;-0,100893;-0,000607046;0;0;0;0;0;0;0;0;0;0;0;0;0;0;0;0;0;0;0;0;0;-0,0795531;-0,183494;-0,00115989;-0,194476;0,00391142;-0,0176796;-0,0430257;-0;0;0,549136;-0,0717146;3,67711;-0,0123918;-0,0116937;0;0;0;-1080;1080;-600;1700;-10;10;-10;-0;0;-0;250;1,2;0,2;177;-1,2;-1;2555;0,07;4294967295;3750000128;0;16384;
14,2383;-5,424;-0;263;-199;2555;0;-0,0795529;-0,183494;-0,00117804;-0,0445651;-0,102739;-0,0006189;0;0;0;0;0;0;0;0;0;0;0;0;0;0;0;0;0;0;0;0;0;-0,0795529;-0,183494;-0,00117804;-0,194476;0,00391142;-0,0176796;-0,0430257;-0;0;0,550206;-0,0727854;3,67707;-0,0125664;-0,0118682;0;0;0;-1080;1080;-600;1700;-10;10;-10;-0;0;-0;250;1,2;0,2;177;-1,2;-1;2555;0,07;4294967295;3750000128;0;16384;
14,2483;-5,424;-0;263;-199;2555;0;-0,0795529;-0,183494;-0,00117804;-0,0453624;-0,104578;-0,000630706;0;0;0;0;0;0;0;0;0;0;0;0;0;0;0;0;0;0;0;0;0;-0,0795529;-0,183494;-0,00117804;-0,194476;0,00391142;-0,0176796;-0,0430257;-0;0;0,550209;-0,0727857;3,67704;-0,0125664;-0,0118682;0;0;0;-1080;1080;-600;1700;-10;10;-10;-0;0;-0;250;1,2;0,2;177;-1,2;-1;2555;0,07;4294967295;3750000128;0;16384;
14,2582;-5,424;-0;263;-199;2555;0;-0,0795529;-0,183494;-0,00117804;-0,0461537;-0,106404;-0,000642424;0;0;0;0;0;0;0;0;0;0;0;0;0;0;0;0;0;0;0;0;0;-0,0795529;-0,183494;-0,00117804;-0,194476;0,00391142;-0,0176796;-0,0430257;-0;0;0,550209;-0,0727857;3,67704;-0,0125664;-0,0118682;0;0;0;-1080;1080;-600;1700;-10;10;-10;-0;0;-0;250;1,2;0,2;177;-1,2;-1;2555;0,07;4294967295;3750000128;0;16384;
14,2683;-5,424;-0;263;-199;2555;0;-0,0795531;-0,183494;-0,00115989;-0,0469538;-0,108249;-0,000654089;0;0;0;0;0;0;0;0;0;0;0;0;0;0;0;0;0;0;0;0;0;-0,0795531;-0,183494;-0,00115989;-0,194476;0,00391142;-0,0176796;-0,0430257;-0;0;0,549143;-0,0717154;3,67704;-0,0123918;-0,0116937;0;0;0;-1080;1080;-600;1700;-10;10;-10;-0;0;-0;250;1,2;0,2;177;-1,2;-1;2555;0,07;4294967295;3750000128;0;16384;
14,2783;-5,424;-0;263;-199;2555;0;-0,0795531;-0,183494;-0,00115989;-0,0477511;-0,110088;-0,000665714;0;0;0;0;0;0;0;0;0;0;0;0;0;0;0;0;0;0;0;0;0;-0,0795531;-0,183494;-0,00115989;-0,194476;0,00391142;-0,0176796;-0,0430257;-0;0;0,54914;-0,0717151;3,67706;-0,0123918;-0,0116937;0;0;0;-1080;1080;-600;1700;-10;10;-10;-0;0;-0;250;1,2;0,2;177;-1,2;-1;2555;0,07;4294967295;3750000128;0;16384;
14,2882;-5,424;-0;263;-199;2555;0;-0,0795532;-0,183494;-0,00114175;-0,0485377;-0,111902;-0,000677004;0;0;0;0;0;0;0;0;0;0;0;0;0;0;0;0;0;0;0;0;0;-0,0795532;-0,183494;-0,00114175;-0,194476;0,00391142;-0,0176796;-0,0430257;-0;0;0,548074;-0,0706448;3,67706;-0,0122173;-0,0115192;0;0;0;-1080;1080;-600;1700;-10;10;-10;-0;0;-0;250;1,2;0,2;177;-1,2;-1;2555;0,07;4294967295;3750000128;0;16384;
14,2984;-5,424;-0;263;-199;2555;0;-0,0795532;-0,183494;-0,00114175;-0,0493451;-0,113765;-0,000688592;0;0;0;0;0;0;0;0;0;0;0;0;0;0;0;0;0;0;0;0;0;-0,0795532;-0,183494;-0,00114175;-0,194476;0,00391142;-0,0176796;-0,0430257;-0;0;0,548072;-0,0706445;3,67709;-0,0122173;-0,0115192;0;0;0;-1080;1080;-600;1700;-10;10;-10;-0;0;-0;250;1,2;0,2;177;-1,2;-1;2555;0,07;4294967295;3750000128;0;16384;
14,3083;-5,424;-0;263;-199;2555;0;-0,0795534;-0,183494;-0,00115564;-0,0501379;-0,115593;-0,000700108;0;0;0;0;0;0;0;0;0;0;0;0;0;0;0;0;0;0;0;0;0;-0,0795534;-0,183494;-0,00115564;-0,194476;0,00391142;-0,0176796;-0,0430257;-0;0;0,547006;-0,0706445;3,67709;-0,0120428;-0,0115192;0;0;0;-1080;1080;-600;1700;-10;10;-10;-0;0;-0;250;1,2;0,2;177;-1,2;-1;2555;0,07;4294967295;3750000128;0;16384;
14,3182;-5,424;-0;263;-199;2555;0;-0,0795534;-0,183494;-0,00115564;-0,0509258;-0,117411;-0,000711553;0;0;0;0;0;0;0;0;0;0;0;0;0;0;0;0;0;0;0;0;0;-0,0795534;-0,183494;-0,00115564;-0,194476;0,00391142;-0,0176796;-0,0430257;-0;0;0,547008;-0,0706447;3,67707;-0,0120428;-0,0115192;0;0;0;-1080;1080;-600;1700;-10;10;-10;-0;0;-0;250;1,2;0,2;177;-1,2;-1;2555;0,07;4294967295;3750000128;0;16384;
14,3282;-5,424;-0;263;-199;2555;0;-0,0795534;-0,183494;-0,00115564;-0,0517231;-0,11925;-0,000723135;0;0;0;0;0;0;0;0;0;0;0;0;0;0;0;0;0;0;0;0;0;-0,0795534;-0,183494;-0,00115564;-0,194476;0,00391142;-0,0176796;-0,0430257;-0;0;0,547008;-0,0706447;3,67707;-0,0120428;-0,0115192;0;0;0;-1080;1080;-600;1700;-10;10;-10;-0;0;-0;250;1,2;0,2;177;-1,2;-1;2555;0,07;4294967295;3750000128;0;16384;
14,3383;-5,424;-0;263;-199;2555;0;-0,0795534;-0,183493;-0,00118766;-0,0525243;-0,121098;-0,000735097;0;0;0;0;0;0;0;0;0;0;0;0;0;0;0;0;0;0;0;0;0;-0,0795534;-0,183493;-0,00118766;-0,194476;0,00391142;-0,0176796;-0,0430257;-0;0;0,547008;-0,0717151;3,67707;-0,0120428;-0,0116937;0;0;0;-1080;1080;-600;1700;-10;10;-10;-0;0;-0;250;1,2;0,2;177;-1,2;-1;2555;0,07;4294967295;3750000128;0;16384;
14,3483;-5,424;-0;263;-199;2555;0;-0,0795532;-0,183493;-0,0012058;-0,0533212;-0,122936;-0,000747175;0;0;0;0;0;0;0;0;0;0;0;0;0;0;0;0;0;0;0;0;0;-0,0795532;-0,183493;-0,0012058;-0,194476;0,00391142;-0,0176796;-0,0430257;-0;0;0,548078;-0,0727859;3,67702;-0,0122173;-0,0118682;0;0;0;-1080;1080;-600;1700;-10;10;-10;-0;0;-0;250;1,2;0,2;177;-1,2;-1;2555;0,07;4294967295;3750000128;0;16384;
14,3582;-5,424;-0;263;-199;2555;0;-0,0795532;-0,183493;-0,0012058;-0,054105;-0,124744;-0,000759055;0;0;0;0;0;0;0;0;0;0;0;0;0;0;0;0;0;0;0;0;0;-0,0795532;-0,183493;-0,0012058;-0,194476;0,00391142;-0,0176796;-0,0430257;-0;0;0,54808;-0,0727862;3,677;-0,0122173;-0,0118682;0;0;0;-1080;1080;-600;1700;-10;10;-10;-0;0;-0;250;1,2;0,2;177;-1,2;-1;2555;0,07;4294967295;3750000128;0;16384;
14,3682;-5,424;-0;263;-199;2555;0;-0,0795534;-0,183493;-0,00125171;-0,0549038;-0,126586;-0,000771625;0;0;0;0;0;0;0;0;0;0;0;0;0;0;0;0;0;0;0;0;0;-0,0795534;-0,183493;-0,00125171;-0,194476;0,00391142;-0,0176796;-0,0430257;-0;0;0,547014;-0,0738566;3,677;-0,0120428;-0,0120428;0;0;0;-1080;1080;-600;1700;-10;10;-10;-0;0;-0;250;1,2;0,2;177;-1,2;-1;2555;0,07;4294967295;3750000128;0;16384;
14,3783;-5,424;-0;263;-199;2555;0;-0,0795534;-0,183493;-0,00128374;-0,0557036;-0,128431;-0,00078453;0;0;0;0;0;0;0;0;0;0;0;0;0;0;0;0;0;0;0;0;0;-0,0795534;-0,183493;-0,00128374;-0,194476;0,00391142;-0,0176796;-0,0430257;-0;0;0,54702;-0,0749277;3,67693;-0,0120428;-0,0122173;0;0;0;-1080;1080;-600;1700;-10;10;-10;-0;0;-0;250;1,2;0,2;177;-1,2;-1;2555;0,07;4294967295;3750000128;0;16384;
14,3882;-5,424;-0;263;-199;2555;0;-0,0795534;-0,183493;-0,00128374;-0,0564967;-0,13026;-0,000797328;0;0;0;0;0;0;0;0;0;0;0;0;0;0;0;0;0;0;0;0;0;-0,0795534;-0,183493;-0,00128374;-0,194476;0,00391142;-0,0176796;-0,0430257;-0;0;0,547024;-0,0749283;3,67688;-0,0120428;-0,0122173;0;0;0;-1080;1080;-600;1700;-10;10;-10;-0;0;-0;250;1,2;0,2;177;-1,2;-1;2555;0,07;4294967295;3750000128;0;16384;
14,3983;-5,424;-0;263;-199;2555;0;-0,0795536;-0,183493;-0,00129762;-0,0572975;-0,132107;-0,000810391;0;0;0;0;0;0;0;0;0;0;0;0;0;0;0;0;0;0;0;0;0;-0,0795536;-0,183493;-0,00129762;-0,194476;0,00391142;-0,0176796;-0,0430257;-0;0;0,545958;-0,0749283;3,67688;-0,0118682;-0,0122173;0;0;0;-1080;1080;-600;1700;-10;10;-10;-0;0;-0;250;1,2;0,2;177;-1,2;-1;2555;0,07;4294967295;3750000128;0;16384;
14,4083;-5,424;-0;263;-199;2555;0;-0,0795534;-0,183493;-0,00131576;-0,0580935;-0,133943;-0,000823556;0;0;0;0;0;0;0;0;0;0;0;0;0;0;0;0;0;0;0;0;0;-0,0795534;-0,183493;-0,00131576;-0,194476;0,00391142;-0,0176796;-0,0430257;-0;0;0,547026;-0,0759989;3,67686;-0,0120428;-0,0123918;0;0;0;-1080;1080;-600;1700;-10;10;-10;-0;0;-0;250;1,2;0,2;177;-1,2;-1;2555;0,07;4294967295;3750000128;0;16384;
14,4182;-5,424;-0;263;-199;2555;0;-0,0795534;-0,183493;-0,00131576;-0,0588805;-0,135758;-0,000836572;0;0;0;0;0;0;0;0;0;0;0;0;0;0;0;0;0;0;0;0;0;-0,0795534;-0,183493;-0,00131576;-0,194476;0,00391142;-0,0176796;-0,0430257;-0;0;0,547029;-0,0759992;3,67684;-0,0120428;-0,0123918;0;0;0;-1080;1080;-600;1700;-10;10;-10;-0;0;-0;250;1,2;0,2;177;-1,2;-1;2555;0,07;4294967295;3750000128;0;16384;
14,4282;-5,424;-0;263;-199;2555;0;-0,0795532;-0,183493;-0,00133391;-0,0596782;-0,137598;-0,000849948;0;0;0;0;0;0;0;0;0;0;0;0;0;0;0;0;0;0;0;0;0;-0,0795532;-0,183493;-0,00133391;-0,194476;0,00391142;-0,0176796;-0,0430257;-0;0;0,548095;-0,0770696;3,67684;-0,0122173;-0,0125664;0;0;0;-1080;1080;-600;1700;-10;10;-10;-0;0;-0;250;1,2;0,2;177;-1,2;-1;2555;0,07;4294967295;3750000128;0;16384;
14,4382;-5,424;-0;263;-199;2555;0;-0,0795531;-0,183493;-0,001288;-0,0604721;-0,13943;-0,000862801;0;0;0;0;0;0;0;0;0;0;0;0;0;0;0;0;0;0;0;0;0;-0,0795531;-0,183493;-0,001288;-0,194476;0,00391142;-0,0176796;-0,0430257;-0;0;0,549163;-0,0759996;3,67681;-0,0123918;-0,0123918;0;0;0;-1080;1080;-600;1700;-10;10;-10;-0;0;-0;250;1,2;0,2;177;-1,2;-1;2555;0,07;4294967295;3750000128;0;16384;
14,4483;-5,424;-0;263;-199;2555;0;-0,0795531;-0,183493;-0,001288;-0,0612752;-0,141282;-0,000875803;0;0;0;0;0;0;0;0;0;0;0;0;0;0;0;0;0;0;0;0;0;-0,0795531;-0,183493;-0,001288;-0,194476;0,00391142;-0,0176796;-0,0430257;-0;0;0,549157;-0,0759987;3,67687;-0,0123918;-0,0123918;0;0;0;-1080;1080;-600;1700;-10;10;-10;-0;0;-0;250;1,2;0,2;177;-1,2;-1;2555;0,07;4294967295;3750000128;0;16384;
14,4583;-5,424;-0;263;-199;2555;0;-0,0795531;-0,183493;-0,00125597;-0,0620732;-0,143123;-0,000888402;0;0;0;0;0;0;0;0;0;0;0;0;0;0;0;0;0;0;0;0;0;-0,0795531;-0,183493;-0,00125597;-0,194476;0,00391142;-0,0176796;-0,0430257;-0;0;0,549157;-0,0749284;3,67687;-0,0123918;-0,0122173;0;0;0;-1080;1080;-600;1700;-10;10;-10;-0;0;-0;250;1,2;0,2;177;-1,2;-1;2555;0,07;4294967295;3750000128;0;16384;
14,4683;-5,424;-0;263;-199;2555;0;-0,0795531;-0,183493;-0,00125597;-0,0628656;-0,14495;-0,000900913;0;0;0;0;0;0;0;0;0;0;0;0;0;0;0;0;0;0;0;0;0;-0,0795531;-0,183493;-0,00125597;-0,194476;0,00391142;-0,0176796;-0,0430257;-0;0;0,549153;-0,0749278;3,67692;-0,0123918;-0,0122173;0;0;0;-1080;1080;-600;1700;-10;10;-10;-0;0;-0;250;1,2;0,2;177;-1,2;-1;2555;0,07;4294967295;3750000128;0;16384;
14,4783;-5,424;-0;263;-199;2555;0;-0,0795529;-0,183493;-0,00124209;-0,0636601;-0,146783;-0,000913318;0;0;0;0;0;0;0;0;0;0;0;0;0;0;0;0;0;0;0;0;0;-0,0795529;-0,183493;-0,00124209;-0,194476;0,00391142;-0,0176796;-0,0430257;-0;0;0,550219;-0,0749278;3,67692;-0,0125664;-0,0122173;0;0;0;-1080;1080;-600;1700;-10;10;-10;-0;0;-0;250;1,2;0,2;177;-1,2;-1;2555;0,07;4294967295;3750000128;0;16384;
14,4883;-5,424;-0;263;-199;2555;0;-0,0795527;-0,183494;-0,00119618;-0,0644556;-0,148618;-0,000925279;0;0;0;0;0;0;0;0;0;0;0;0;0;0;0;0;0;0;0;0;0;-0,0795527;-0,183494;-0,00119618;-0,194476;0,00391142;-0,0176796;-0,0430257;-0;0;0,551284;-0,0738573;3,67694;-0,0127409;-0,0120428;0;0;0;-1080;1080;-600;1700;-10;10;-10;-0;0;-0;250;1,2;0,2;177;-1,2;-1;2555;0,07;4294967295;3750000128;0;16384;
14,4984;-5,424;-0;263;-199;2555;0;-0,0795527;-0,183494;-0,00119618;-0,0652559;-0,150464;-0,000937312;0;0;0;0;0;0;0;0;0;0;0;0;0;0;0;0;0;0;0;0;0;-0,0795527;-0,183494;-0,00119618;-0,194476;0,00391142;-0,0176796;-0,0430257;-0;0;0,551278;-0,0738565;3,67701;-0,0127409;-0,0120428;0;0;0;-1080;1080;-600;1700;-10;10;-10;-0;0;-0;250;1,2;0,2;177;-1,2;-1;2555;0,07;4294967295;3750000128;0;16384;
14,5083;-5,424;-0;263;-199;2555;0;-0,0795525;-0,183494;-0,00115027;-0,0660497;-0,152295;-0,00094879;0;0;0;0;0;0;0;0;0;0;0;0;0;0;0;0;0;0;0;0;0;-0,0795525;-0,183494;-0,00115027;-0,194476;0,00391142;-0,0176796;-0,0430257;-0;0;0,552344;-0,0727861;3,67701;-0,0129154;-0,0118682;0;0;0;-1080;1080;-600;1700;-10;10;-10;-0;0;-0;250;1,2;0,2;177;-1,2;-1;2555;0,07;4294967295;3750000128;0;16384;
14,5182;-5,424;-0;263;-199;2555;0;-0,0795527;-0,183494;-0,00116415;-0,0668357;-0,154108;-0,000960292;0;0;0;0;0;0;0;0;0;0;0;0;0;0;0;0;0;0;0;0;0;-0,0795527;-0,183494;-0,00116415;-0,194476;0,00391142;-0,0176796;-0,0430257;-0;0;0,551272;-0,0727854;3,67707;-0,0127409;-0,0118682;0;0;0;-1080;1080;-600;1700;-10;10;-10;-0;0;-0;250;1,2;0,2;177;-1,2;-1;2555;0,07;4294967295;3750000128;0;16384;
14,5283;-5,424;-0;263;-199;2555;0;-0,0795527;-0,183494;-0,00116415;-0,0676342;-0,155949;-0,000971978;0;0;0;0;0;0;0;0;0;0;0;0;0;0;0;0;0;0;0;0;0;-0,0795527;-0,183494;-0,00116415;-0,194476;0,00391142;-0,0176796;-0,0430257;-0;0;0,551274;-0,0727856;3,67705;-0,0127409;-0,0118682;0;0;0;-1080;1080;-600;1700;-10;10;-10;-0;0;-0;250;1,2;0,2;177;-1,2;-1;2555;0,07;4294967295;3750000128;0;16384;
14,5383;-5,424;-0;263;-199;2555;0;-0,0795527;-0,183494;-0,00119618;-0,0684357;-0,157798;-0,000984029;0;0;0;0;0;0;0;0;0;0;0;0;0;0;0;0;0;0;0;0;0;-0,0795527;-0,183494;-0,00119618;-0,194476;0,00391142;-0,0176796;-0,0430257;-0;0;0,551274;-0,0738559;3,67705;-0,0127409;-0,0120428;0;0;0;-1080;1080;-600;1700;-10;10;-10;-0;0;-0;250;1,2;0,2;177;-1,2;-1;2555;0,07;4294967295;3750000128;0;16384;
14,5483;-5,424;-0;263;-199;2555;0;-0,0795527;-0,183493;-0,0012282;-0,0692319;-0,159635;-0,000996321;0;0;0;0;0;0;0;0;0;0;0;0;0;0;0;0;0;0;0;0;0;-0,0795527;-0,183493;-0,0012282;-0,194476;0,00391142;-0,0176796;-0,0430257;-0;0;0,551278;-0,0749268;3,677;-0,0127409;-0,0122173;0;0;0;-1080;1080;-600;1700;-10;10;-10;-0;0;-0;250;1,2;0,2;177;-1,2;-1;2555;0,07;4294967295;3750000128;0;16384;
14,5583;-5,424;-0;263;-199;2555;0;-0,0795527;-0,183493;-0,0012282;-0,070025;-0,161464;-0,00100857;0;0;0;0;0;0;0;0;0;0;0;0;0;0;0;0;0;0;0;0;0;-0,0795527;-0,183493;-0,0012282;-0,194476;0,00391142;-0,0176796;-0,0430257;-0;0;0,551282;-0,0749274;3,67696;-0,0127409;-0,0122173;0;0;0;-1080;1080;-600;1700;-10;10;-10;-0;0;-0;250;1,2;0,2;177;-1,2;-1;2555;0,07;4294967295;3750000128;0;16384;
14,5683;-5,424;-0;263;-199;2555;0;-0,0795529;-0,183494;-0,00121006;-0,0708215;-0,163301;-0,00102068;0;0;0;0;0;0;0;0;0;0;0;0;0;0;0;0;0;0;0;0;0;-0,0795529;-0,183494;-0,00121006;-0,194476;0,00391142;-0,0176796;-0,0430257;-0;0;0,550216;-0,073857;3,67696;-0,0125664;-0,0120428;0;0;0;-1080;1080;-600;1700;-10;10;-10;-0;0;-0;250;1,2;0,2;177;-1,2;-1;2555;0,07;4294967295;3750000128;0;16384;
14,5783;-5,424;-0;263;-199;2555;0;-0,0795531;-0,183493;-0,00122394;-0,0716164;-0,165135;-0,00103291;0;0;0;0;0;0;0;0;0;0;0;0;0;0;0;0;0;0;0;0;0;-0,0795531;-0,183493;-0,00122394;-0,194476;0,00391142;-0,0176796;-0,0430257;-0;0;0,549148;-0,0738567;3,67698;-0,0123918;-0,0120428;0;0;0;-1080;1080;-600;1700;-10;10;-10;-0;0;-0;250;1,2;0,2;177;-1,2;-1;2555;0,07;4294967295;3750000128;0;16384;
14,5882;-5,424;-0;263;-199;2555;0;-0,0795531;-0,183493;-0,00122394;-0,0724062;-0,166956;-0,00104506;0;0;0;0;0;0;0;0;0;0;0;0;0;0;0;0;0;0;0;0;0;-0,0795531;-0,183493;-0,00122394;-0,194476;0,00391142;-0,0176796;-0,0430257;-0;0;0,549149;-0,073857;3,67696;-0,0123918;-0,0120428;0;0;0;-1080;1080;-600;1700;-10;10;-10;-0;0;-0;250;1,2;0,2;177;-1,2;-1;2555;0,07;4294967295;3750000128;0;16384;
14,5984;-5,424;-0;263;-199;2555;0;-0,0795532;-0,183493;-0,00126985;-0,073215;-0,168822;-0,00105797;0;0;0;0;0;0;0;0;0;0;0;0;0;0;0;0;0;0;0;0;0;-0,0795532;-0,183493;-0,00126985;-0,194476;0,00391142;-0,0176796;-0,0430257;-0;0;0,548083;-0,0749273;3,67696;-0,0122173;-0,0122173;0;0;0;-1080;1080;-600;1700;-10;10;-10;-0;0;-0;250;1,2;0,2;177;-1,2;-1;2555;0,07;4294967295;3750000128;0;16384;
14,6083;-5,424;-0;263;-199;2555;0;-0,0795532;-0,183493;-0,00126985;-0,0740034;-0,17064;-0,00107056;0;0;0;0;0;0;0;0;0;0;0;0;0;0;0;0;0;0;0;0;0;-0,0795532;-0,183493;-0,00126985;-0,194476;0,00391142;-0,0176796;-0,0430257;-0;0;0,548089;-0,0749281;3,6769;-0,0122173;-0,0122173;0;0;0;-1080;1080;-600;1700;-10;10;-10;-0;0;-0;250;1,2;0,2;177;-1,2;-1;2555;0,07;4294967295;3750000128;0;16384;
14,6182;-5,424;-0;263;-199;2555;0;-0,0795531;-0,183493;-0,00125597;-0,0747931;-0,172462;-0,00108303;0;0;0;0;0;0;0;0;0;0;0;0;0;0;0;0;0;0;0;0;0;-0,0795531;-0,183493;-0,00125597;-0,194476;0,00391142;-0,0176796;-0,0430257;-0;0;0,549155;-0,0749281;3,6769;-0,0123918;-0,0122173;0;0;0;-1080;1080;-600;1700;-10;10;-10;-0;0;-0;250;1,2;0,2;177;-1,2;-1;2555;0,07;4294967295;3750000128;0;16384;
14,6282;-5,424;-0;263;-199;2555;0;-0,0795849;-0,183479;-0,00127354;-0,0755879;-0,174294;-0,00109574;0;0;0;0;0;0;0;0;0;0;0;0;0;0;0;0;0;0;0;0;0;-0,0795849;-0,183479;-0,00127354;-0,194476;0,00391142;-0,0176796;-0,0430257;-0;0;0,55022;-0,0759982;3,67692;-0,0125664;-0,0123918;0;0;0;-1080;1080;-600;1700;-10;10;-10;-0;0;-0;250;1,2;0,2;177;-1,2;-1;2555;0,07;4294967295;3750000128;0;16384;
14,6383;-5,424;-0;263;-199;2555;0;-0,0795849;-0,183479;-0,00127354;-0,0763913;-0,176146;-0,0011086;0;0;0;0;0;0;0;0;0;0;0;0;0;0;0;0;0;0;0;0;0;-0,0795849;-0,183479;-0,00127354;-0,194476;0,00391142;-0,0176796;-0,0430257;-0;0;0,550222;-0,0759986;3,67689;-0,0125664;-0,0123918;0;0;0;-1080;1080;-600;1700;-10;10;-10;-0;0;-0;250;1,2;0,2;177;-1,2;-1;2555;0,07;4294967295;3750000128;0;16384;
14,6483;-5,424;-0;263;-199;2555;0;-0,0795847;-0,183479;-0,00125965;-0,077182;-0,177969;-0,00112112;0;0;0;0;0;0;0;0;0;0;0;0;0;0;0;0;0;0;0;0;0;-0,0795847;-0,183479;-0,00125965;-0,194476;0,00391142;-0,0176796;-0,0430257;-0;0;0,551288;-0,0759986;3,67689;-0,0127409;-0,0123918;0;0;0;-1080;1080;-600;1700;-10;10;-10;-0;0;-0;250;1,2;0,2;177;-1,2;-1;2555;0,07;4294967295;3750000128;0;16384;
14,6582;-5,424;-0;263;-199;2555;0;-0,0795849;-0,183479;-0,00130556;-0,0779716;-0,17979;-0,00113407;0;0;0;0;0;0;0;0;0;0;0;0;0;0;0;0;0;0;0;0;0;-0,0795849;-0,183479;-0,00130556;-0,194476;0,00391142;-0,0176796;-0,0430257;-0;0;0,55022;-0,0770687;3,67691;-0,0125664;-0,0125664;0;0;0;-1080;1080;-600;1700;-10;10;-10;-0;0;-0;250;1,2;0,2;177;-1,2;-1;2555;0,07;4294967295;3750000128;0;16384;
14,6683;-5,424;-0;263;-199;2555;0;-0,0795849;-0,183479;-0,00130556;-0,0787766;-0,181646;-0,00114727;0;0;0;0;0;0;0;0;0;0;0;0;0;0;0;0;0;0;0;0;0;-0,0795849;-0,183479;-0,00130556;-0,194476;0,00391142;-0,0176796;-0,0430257;-0;0;0,550226;-0,0770695;3,67684;-0,0125664;-0,0125664;0;0;0;-1080;1080;-600;1700;-10;10;-10;-0;0;-0;250;1,2;0,2;177;-1,2;-1;2555;0,07;4294967295;3750000128;0;16384;
14,6783;-5,424;-0;263;-199;2555;0;-0,0795851;-0,183479;-0,00128743;-0,0795736;-0,183483;-0,00116017;0;0;0;0;0;0;0;0;0;0;0;0;0;0;0;0;0;0;0;0;0;-0,0795851;-0,183479;-0,00128743;-0,194476;0,00391142;-0,0176796;-0,0430257;-0;0;0,54916;-0,0759991;3,67684;-0,0123918;-0,0123918;0;0;0;-1080;1080;-600;1700;-10;10;-10;-0;0;-0;250;1,2;0,2;177;-1,2;-1;2555;0,07;4294967295;3750000128;0;16384;
14,6883;-5,424;-0;263;-200;2555;0;-0,0795851;-0,183479;-0,0012554;-0,0803716;-0,185323;-0,00117275;0;0;0;0;0;0;0;0;0;0;0;0;0;0;0;0;0;0;0;0;0;-0,0795851;-0,183479;-0,0012554;-0,194476;0,00391142;-0,0176796;-0,0430257;-0;0;0,549158;-0,0749285;3,67687;-0,0123918;-0,0122173;0;0;0;-1080;1080;-600;1700;-10;10;-10;-0;0;-0;250;1,2;0,2;177;-1,2;-1;2555;0,07;4294967295;3750000128;0;16384;
14,6984;-5,424;-0;263;-200;2555;0;-0,0795851;-0,183479;-0,0012554;-0,0811693;-0,187162;-0,00118534;0;0;0;0;0;0;0;0;0;0;0;0;0;0;0;0;0;0;0;0;0;-0,0795851;-0,183479;-0,0012554;-0,194476;0,00391142;-0,0176796;-0,0430257;-0;0;0,549154;-0,0749279;3,67691;-0,0123918;-0,0122173;0;0;0;-1080;1080;-600;1700;-10;10;-10;-0;0;-0;250;1,2;0,2;177;-1,2;-1;2555;0,07;4294967295;3750000128;0;16384;
14,7083;-5,424;-0;263;-200;2555;0;-0,0795853;-0,183479;-0,00126929;-0,0819613;-0,188988;-0,00119797;0;0;0;0;0;0;0;0;0;0;0;0;0;0;0;0;0;0;0;0;0;-0,0795853;-0,183479;-0,00126929;-0,194476;0,00391142;-0,0176796;-0,0430257;-0;0;0,548088;-0,0749279;3,67691;-0,0122173;-0,0122173;0;0;0;-1080;1080;-600;1700;-10;10;-10;-0;0;-0;250;1,2;0,2;177;-1,2;-1;2555;0,07;4294967295;3750000128;0;16384;
14,7182;-5,424;-0;263;-200;2555;0;-0,0795854;-0,183479;-0,00128318;-0,0827496;-0,190805;-0,00121068;0;0;0;0;0;0;0;0;0;0;0;0;0;0;0;0;0;0;0;0;0;-0,0795854;-0,183479;-0,00128318;-0,194476;0,00391142;-0,0176796;-0,0430257;-0;0;0,547023;-0,0749282;3,67689;-0,0120428;-0,0122173;0;0;0;-1080;1080;-600;1700;-10;10;-10;-0;0;-0;250;1,2;0,2;177;-1,2;-1;2555;0,07;4294967295;3750000128;0;16384;
14,7282;-5,424;-0;263;-200;2555;0;-0,0795854;-0,183479;-0,00128318;-0,0835473;-0,192644;-0,00122354;0;0;0;0;0;0;0;0;0;0;0;0;0;0;0;0;0;0;0;0;0;-0,0795854;-0,183479;-0,00128318;-0,194476;0,00391142;-0,0176796;-0,0430257;-0;0;0,547025;-0,0749284;3,67687;-0,0120428;-0,0122173;0;0;0;-1080;1080;-600;1700;-10;10;-10;-0;0;-0;250;1,2;0,2;177;-1,2;-1;2555;0,07;4294967295;3750000128;0;16384;
14,7383;-5,424;-0;263;-200;2555;0;-0,0795854;-0,183479;-0,00125116;-0,0843481;-0,19449;-0,00123613;0;0;0;0;0;0;0;0;0;0;0;0;0;0;0;0;0;0;0;0;0;-0,0795854;-0,183479;-0,00125116;-0,194476;0,00391142;-0,0176796;-0,0430257;-0;0;0,547025;-0,0738581;3,67687;-0,0120428;-0,0120428;0;0;0;-1080;1080;-600;1700;-10;10;-10;-0;0;-0;250;1,2;0,2;177;-1,2;-1;2555;0,07;4294967295;3750000128;0;16384;
14,7483;-5,424;-0;263;-200;2555;0;-0,0795854;-0,183479;-0,00121914;-0,0851429;-0,196323;-0,00124831;0;0;0;0;0;0;0;0;0;0;0;0;0;0;0;0;0;0;0;0;0;-0,0795854;-0,183479;-0,00121914;-0,194476;0,00391142;-0,0176796;-0,0430257;-0;0;0,547021;-0,0727872;3,67692;-0,0120428;-0,0118682;0;0;0;-1080;1080;-600;1700;-10;10;-10;-0;0;-0;250;1,2;0,2;177;-1,2;-1;2555;0,07;4294967295;3750000128;0;16384;
14,7583;-5,424;-0;263;-200;2555;0;-0,0795854;-0,183479;-0,00121914;-0,0859415;-0,198164;-0,00126054;0;0;0;0;0;0;0;0;0;0;0;0;0;0;0;0;0;0;0;0;0;-0,0795854;-0,183479;-0,00121914;-0,194476;0,00391142;-0,0176796;-0,0430257;-0;0;0,547017;-0,0727866;3,67696;-0,0120428;-0,0118682;0;0;0;-1080;1080;-600;1700;-10;10;-10;-0;0;-0;250;1,2;0,2;177;-1,2;-1;2555;0,07;4294967295;3750000128;0;16384;
14,7683;-5,424;-0;263;-200;2555;0;-0,0795853;-0,18348;-0,00120525;-0,0867378;-0,2;-0,0012726;0;0;0;0;0;0;0;0;0;0;0;0;0;0;0;0;0;0;0;0;0;-0,0795853;-0,18348;-0,00120525;-0,194476;0,00391142;-0,0176796;-0,0430257;-0;0;0,548083;-0,0727866;3,67696;-0,0122173;-0,0118682;0;0;0;-1080;1080;-600;1700;-10;10;-10;-0;0;-0;250;1,2;0,2;177;-1,2;-1;2555;0,07;4294967295;3750000128;0;16384;
14,7783;-5,424;-0;263;-200;2555;0;-0,0795853;-0,18348;-0,00120525;-0,0875338;-0,201835;-0,00128465;0;0;0;0;0;0;0;0;0;0;0;0;0;0;0;0;0;0;0;0;0;-0,0795853;-0,18348;-0,00120525;-0,194476;0,00391142;-0,0176796;-0,0430257;-0;0;0,548081;-0,0727864;3,67698;-0,0122173;-0,0118682;0;0;0;-1080;1080;-600;1700;-10;10;-10;-0;0;-0;250;1,2;0,2;177;-1,2;-1;2555;0,07;4294967295;3750000128;0;16384;
14,7883;-5,424;-0;263;-200;2555;0;-0,0795853;-0,183479;-0,00123727;-0,0883265;-0,203662;-0,00129698;0;0;0;0;0;0;0;0;0;0;0;0;0;0;0;0;0;0;0;0;0;-0,0795853;-0,183479;-0,00123727;-0,194476;0,00391142;-0,0176796;-0,0430257;-0;0;0,548081;-0,0738567;3,67698;-0,0122173;-0,0120428;0;0;0;-1080;1080;-600;1700;-10;10;-10;-0;0;-0;250;1,2;0,2;177;-1,2;-1;2555;0,07;4294967295;3750000128;0;16384;
14,7982;-5,424;-0;263;-200;2555;0;-0,0796173;-0,183465;-0,00123671;-0,0891188;-0,205488;-0,00130928;0;0;0;0;0;0;0;0;0;0;0;0;0;0;0;0;0;0;0;0;0;-0,0796173;-0,183465;-0,00123671;-0,194476;0,00391142;-0,0176796;-0,0430257;-0;0;0,548086;-0,0738573;3,67694;-0,0122173;-0,0120428;0;0;0;-1080;1080;-600;1700;-10;10;-10;-0;0;-0;250;1,2;0,2;177;-1,2;-1;2555;0,07;4294967295;3750000128;0;16384;
14,8083;-5,424;-0;263;-200;2555;0;-0,0796173;-0,183465;-0,00123671;-0,0899215;-0,207338;-0,00132175;0;0;0;0;0;0;0;0;0;0;0;0;0;0;0;0;0;0;0;0;0;-0,0796173;-0,183465;-0,00123671;-0,194476;0,00391142;-0,0176796;-0,0430257;-0;0;0,548086;-0,0738573;3,67694;-0,0122173;-0,0120428;0;0;0;-1080;1080;-600;1700;-10;10;-10;-0;0;-0;250;1,2;0,2;177;-1,2;-1;2555;0,07;4294967295;3750000128;0;16384;
14,8182;-5,424;-0;263;-200;2555;0;-0,0796813;-0,183437;-0,00126761;-0,0907094;-0,209151;-0,00133429;0;0;0;0;0;0;0;0;0;0;0;0;0;0;0;0;0;0;0;0;0;-0,0796813;-0,183437;-0,00126761;-0,194476;0,00391142;-0,0176796;-0,0430257;-0;0;0,548086;-0,0749276;3,67694;-0,0122173;-0,0122173;0;0;0;-1080;1080;-600;1700;-10;10;-10;-0;0;-0;250;1,2;0,2;177;-1,2;-1;2555;0,07;4294967295;3750000128;0;16384;
14,8282;-5,424;-0;264;-200;2555;0;-0,0797133;-0,183423;-0,00126705;-0,0915091;-0,210992;-0,001347;0;0;0;0;0;0;0;0;0;0;0;0;0;0;0;0;0;0;0;0;0;-0,0797133;-0,183423;-0,00126705;-0,194476;0,00391142;-0,0176796;-0,0430257;-0;0;0,54809;-0,0749282;3,67689;-0,0122173;-0,0122173;0;0;0;-1080;1080;-600;1700;-10;10;-10;-0;0;-0;250;1,2;0,2;177;-1,2;-1;2555;0,07;4294967295;3750000128;0;16384;
14,8383;-5,424;-0;264;-200;2555;0;-0,0797133;-0,183423;-0,00126705;-0,0923075;-0,212829;-0,00135969;0;0;0;0;0;0;0;0;0;0;0;0;0;0;0;0;0;0;0;0;0;-0,0797133;-0,183423;-0,00126705;-0,194476;0,00391142;-0,0176796;-0,0430257;-0;0;0,54809;-0,0749282;3,67689;-0,0122173;-0,0122173;0;0;0;-1080;1080;-600;1700;-10;10;-10;-0;0;-0;250;1,2;0,2;177;-1,2;-1;2555;0,07;4294967295;3750000128;0;16384;
14,8484;-5,424;-0;264;-200;2555;0;-0,0797773;-0,183396;-0,00126593;-0,093116;-0,214687;-0,00137252;0;0;0;0;0;0;0;0;0;0;0;0;0;0;0;0;0;0;0;0;0;-0,0797773;-0,183396;-0,00126593;-0,194476;0,00391142;-0,0176796;-0,0430257;-0;0;0,54809;-0,0749282;3,67689;-0,0122173;-0,0122173;0;0;0;-1080;1080;-600;1700;-10;10;-10;-0;0;-0;250;1,2;0,2;177;-1,2;-1;2555;0,07;4294967295;3750000128;0;16384;
14,8583;-5,424;-0;264;-200;2555;0;-0,0797772;-0,183396;-0,00122;-0,0939052;-0,216502;-0,00138459;0;0;0;0;0;0;0;0;0;0;0;0;0;0;0;0;0;0;0;0;0;-0,0797772;-0,183396;-0,00122;-0,194476;0,00391142;-0,0176796;-0,0430257;-0;0;0,549156;-0,0738578;3,67689;-0,0123918;-0,0120428;0;0;0;-1080;1080;-600;1700;-10;10;-10;-0;0;-0;250;1,2;0,2;177;-1,2;-1;2555;0,07;4294967295;3750000128;0;16384;
14,8683;-5,424;-0;264;-200;2555;0;-0,0797772;-0,183396;-0,00122;-0,0947047;-0,21834;-0,00139681;0;0;0;0;0;0;0;0;0;0;0;0;0;0;0;0;0;0;0;0;0;-0,0797772;-0,183396;-0,00122;-0,194476;0,00391142;-0,0176796;-0,0430257;-0;0;0,54915;-0,073857;3,67696;-0,0123918;-0,0120428;0;0;0;-1080;1080;-600;1700;-10;10;-10;-0;0;-0;250;1,2;0,2;177;-1,2;-1;2555;0,07;4294967295;3750000128;0;16384;
14,8783;-5,424;-0;264;-200;2555;0;-0,079809;-0,183383;-0,0011735;-0,0955013;-0,22017;-0,00140853;0;0;0;0;0;0;0;0;0;0;0;0;0;0;0;0;0;0;0;0;0;-0,079809;-0,183383;-0,0011735;-0,194476;0,00391142;-0,0176796;-0,0430257;-0;0;0,550216;-0,0727867;3,67696;-0,0125664;-0,0118682;0;0;0;-1080;1080;-600;1700;-10;10;-10;-0;0;-0;250;1,2;0,2;177;-1,2;-1;2555;0,07;4294967295;3750000128;0;16384;
14,8882;-5,424;-0;264;-200;2555;0;-0,0798088;-0,183383;-0,00115957;-0,0962927;-0,221989;-0,00142002;0;0;0;0;0;0;0;0;0;0;0;0;0;0;0;0;0;0;0;0;0;-0,0798088;-0,183383;-0,00115957;-0,194476;0,00391142;-0,0176796;-0,0430257;-0;0;0,551276;-0,0727859;3,67703;-0,0127409;-0,0118682;0;0;0;-1080;1080;-600;1700;-10;10;-10;-0;0;-0;250;1,2;0,2;177;-1,2;-1;2555;0,07;4294967295;3750000128;0;16384;
14,8983;-5,424;-0;264;-200;2555;0;-0,0798088;-0,183383;-0,00115957;-0,0970997;-0,223843;-0,00143175;0;0;0;0;0;0;0;0;0;0;0;0;0;0;0;0;0;0;0;0;0;-0,0798088;-0,183383;-0,00115957;-0,194476;0,00391142;-0,0176796;-0,0430257;-0;0;0,551274;-0,0727857;3,67705;-0,0127409;-0,0118682;0;0;0;-1080;1080;-600;1700;-10;10;-10;-0;0;-0;250;1,2;0,2;177;-1,2;-1;2555;0,07;4294967295;3750000128;0;16384;
14,9083;-5,424;-0;264;-200;2555;0;-0,0798088;-0,183383;-0,00112756;-0,097896;-0,225673;-0,001443;0;0;0;0;0;0;0;0;0;0;0;0;0;0;0;0;0;0;0;0;0;-0,0798088;-0,183383;-0,00112756;-0,194476;0,00391142;-0,0176796;-0,0430257;-0;0;0,551274;-0,0717153;3,67705;-0,0127409;-0,0116937;0;0;0;-1080;1080;-600;1700;-10;10;-10;-0;0;-0;250;1,2;0,2;177;-1,2;-1;2555;0,07;4294967295;3750000128;0;16384;
14,9182;-5,424;-0;264;-200;2555;0;-0,0798087;-0,183383;-0,00111363;-0,0986864;-0,227489;-0,00145403;0;0;0;0;0;0;0;0;0;0;0;0;0;0;0;0;0;0;0;0;0;-0,0798087;-0,183383;-0,00111363;-0,194476;0,00391142;-0,0176796;-0,0430257;-0;0;0,552336;-0,0717148;3,67709;-0,0129154;-0,0116937;0;0;0;-1080;1080;-600;1700;-10;10;-10;-0;0;-0;250;1,2;0,2;177;-1,2;-1;2555;0,07;4294967295;3750000128;0;16384;
14,9282;-5,424;-0;264;-200;2555;0;-0,0798087;-0,183383;-0,00111363;-0,0994884;-0,229331;-0,00146522;0;0;0;0;0;0;0;0;0;0;0;0;0;0;0;0;0;0;0;0;0;-0,0798087;-0,183383;-0,00111363;-0,194476;0,00391142;-0,0176796;-0,0430257;-0;0;0,552334;-0,0717146;3,67711;-0,0129154;-0,0116937;0;0;0;-1080;1080;-600;1700;-10;10;-10;-0;0;-0;250;1,2;0,2;177;-1,2;-1;2555;0,07;4294967295;3750000128;0;16384;
14,9382;-5,424;-0;264;-200;2555;0;-0,0798085;-0,183383;-0,00113171;-0,100282;-0,231155;-0,00147647;0;0;0;0;0;0;0;0;0;0;0;0;0;0;0;0;0;0;0;0;0;-0,0798085;-0,183383;-0,00113171;-0,194476;0,00391142;-0,0176796;-0,0430257;-0;0;0,5534;-0,0727849;3,67711;-0,01309;-0,0118682;0;0;0;-1080;1080;-600;1700;-10;10;-10;-0;0;-0;250;1,2;0,2;177;-1,2;-1;2555;0,07;4294967295;3750000128;0;16384;
14,9483;-5,424;-0;264;-200;2555;0;-0,0798085;-0,183383;-0,00113171;-0,101091;-0,233014;-0,00148795;0;0;0;0;0;0;0;0;0;0;0;0;0;0;0;0;0;0;0;0;0;-0,0798085;-0,183383;-0,00113171;-0,194476;0,00391142;-0,0176796;-0,0430257;-0;0;0,553403;-0,0727852;3,67709;-0,01309;-0,0118682;0;0;0;-1080;1080;-600;1700;-10;10;-10;-0;0;-0;250;1,2;0,2;177;-1,2;-1;2555;0,07;4294967295;3750000128;0;16384;
14,9582;-5,424;-0;264;-200;2555;0;-0,0798083;-0,183383;-0,00114979;-0,10188;-0,234827;-0,00149931;0;0;0;0;0;0;0;0;0;0;0;0;0;0;0;0;0;0;0;0;0;-0,0798083;-0,183383;-0,00114979;-0,194476;0,00391142;-0,0176796;-0,0430257;-0;0;0,554469;-0,0738555;3,67708;-0,0132645;-0,0120428;0;0;0;-1080;1080;-600;1700;-10;10;-10;-0;0;-0;250;1,2;0,2;177;-1,2;-1;2555;0,07;4294967295;3750000128;0;16384;
14,9684;-5,424;-0;264;-200;2555;0;-0,0798083;-0,183383;-0,00111778;-0,102691;-0,236689;-0,00151066;0;0;0;0;0;0;0;0;0;0;0;0;0;0;0;0;0;0;0;0;0;-0,0798083;-0,183383;-0,00111778;-0,194476;0,00391142;-0,0176796;-0,0430257;-0;0;0,554471;-0,0727855;3,67706;-0,0132645;-0,0118682;0;0;0;-1080;1080;-600;1700;-10;10;-10;-0;0;-0;250;1,2;0,2;177;-1,2;-1;2555;0,07;4294967295;3750000128;0;16384;
14,9783;-5,424;-0;264;-200;2555;0;-0,0798083;-0,183383;-0,00111778;-0,103487;-0,238519;-0,00152182;0;0;0;0;0;0;0;0;0;0;0;0;0;0;0;0;0;0;0;0;0;-0,0798083;-0,183383;-0,00111778;-0,194476;0,00391142;-0,0176796;-0,0430257;-0;0;0,554467;-0,072785;3,6771;-0,0132645;-0,0118682;0;0;0;-1080;1080;-600;1700;-10;10;-10;-0;0;-0;250;1,2;0,2;177;-1,2;-1;2555;0,07;4294967295;3750000128;0;16384;
14,9883;-5,424;-0;264;-200;2555;0;-0,0798081;-0,183383;-0,00110386;-0,104281;-0,240343;-0,00153279;0;0;0;0;0;0;0;0;0;0;0;0;0;0;0;0;0;0;0;0;0;-0,0798081;-0,183383;-0,00110386;-0,194476;0,00391142;-0,0176796;-0,0430257;-0;0;0,555533;-0,072785;3,6771;-0,013439;-0,0118682;0;0;0;-1080;1080;-600;1700;-10;10;-10;-0;0;-0;250;1,2;0,2;177;-1,2;-1;2555;0,07;4294967295;3750000128;0;16384;
14,9983;-5,424;-0;264;-200;2555;0;-0,0798083;-0,183383;-0,00114979;-0,10508;-0,24218;-0,00154432;0;0;0;0;0;0;0;0;0;0;0;0;0;0;0;0;0;0;0;0;0;-0,0798083;-0,183383;-0,00114979;-0,194476;0,00391142;-0,0176796;-0,0430257;-0;0;0,554465;-0,073855;3,67712;-0,0132645;-0,0120428;0;0;0;-1080;1080;-600;1700;-10;10;-10;-0;0;-0;250;1,2;0,2;177;-1,2;-1;2555;0,07;4294967295;3750000128;0;16384;
15,0083;-5,424;-0;264;-200;2555;0;-0,0798083;-0,183383;-0,00114979;-0,105878;-0,244013;-0,00155581;0;0;0;0;0;0;0;0;0;0;0;0;0;0;0;0;0;0;0;0;0;-0,0798083;-0,183383;-0,00114979;-0,194476;0,00391142;-0,0176796;-0,0430257;-0;0;0,554471;-0,0738558;3,67706;-0,0132645;-0,0120428;0;0;0;-1080;1080;-600;1700;-10;10;-10;-0;0;-0;250;1,2;0,2;177;-1,2;-1;2555;0,07;4294967295;3750000128;0;16384;
15,0182;-5,424;-0;264;-200;2555;0;-0,0798083;-0,183383;-0,0011818;-0,106668;-0,245828;-0,0015675;0;0;0;0;0;0;0;0;0;0;0;0;0;0;0;0;0;0;0;0;0;-0,0798083;-0,183383;-0,0011818;-0,194476;0,00391142;-0,0176796;-0,0430257;-0;0;0,554471;-0,0749262;3,67706;-0,0132645;-0,0122173;0;0;0;-1080;1080;-600;1700;-10;10;-10;-0;0;-0;250;1,2;0,2;177;-1,2;-1;2555;0,07;4294967295;3750000128;0;16384;
15,0282;-5,424;-0;264;-200;2555;0;-0,0798081;-0,183383;-0,00119987;-0,107469;-0,247668;-0,00157954;0;0;0;0;0;0;0;0;0;0;0;0;0;0;0;0;0;0;0;0;0;-0,0798081;-0,183383;-0,00119987;-0,194476;0,00391142;-0,0176796;-0,0430257;-0;0;0,555542;-0,0759971;3,67701;-0,013439;-0,0123918;0;0;0;-1080;1080;-600;1700;-10;10;-10;-0;0;-0;250;1,2;0,2;177;-1,2;-1;2555;0,07;4294967295;3750000128;0;16384;
15,0382;-5,424;-0;264;-200;2555;0;-0,0798081;-0,183383;-0,00119987;-0,108266;-0,2495;-0,00159153;0;0;0;0;0;0;0;0;0;0;0;0;0;0;0;0;0;0;0;0;0;-0,0798081;-0,183383;-0,00119987;-0,194476;0,00391142;-0,0176796;-0,0430257;-0;0;0,555544;-0,0759974;3,67698;-0,013439;-0,0123918;0;0;0;-1080;1080;-600;1700;-10;10;-10;-0;0;-0;250;1,2;0,2;177;-1,2;-1;2555;0,07;4294967295;3750000128;0;16384;
15,0483;-5,424;-0;264;-200;2555;0;-0,0798081;-0,183383;-0,00123188;-0,10907;-0,251348;-0,00160394;0;0;0;0;0;0;0;0;0;0;0;0;0;0;0;0;0;0;0;0;0;-0,0798081;-0,183383;-0,00123188;-0,194476;0,00391142;-0,0176796;-0,0430257;-0;0;0,555544;-0,0770677;3,67698;-0,013439;-0,0125664;0;0;0;-1080;1080;-600;1700;-10;10;-10;-0;0;-0;250;1,2;0,2;177;-1,2;-1;2555;0,07;4294967295;3750000128;0;16384;
15,0583;-5,424;-0;264;-200;2555;0;-0,0798079;-0,183383;-0,00121795;-0,109867;-0,25318;-0,00161611;0;0;0;0;0;0;0;0;0;0;0;0;0;0;0;0;0;0;0;0;0;-0,0798079;-0,183383;-0,00121795;-0,194476;0,00391142;-0,0176796;-0,0430257;-0;0;0,556614;-0,0770683;3,67694;-0,0136136;-0,0125664;0;0;0;-1080;1080;-600;1700;-10;10;-10;-0;0;-0;250;1,2;0,2;177;-1,2;-1;2555;0,07;4294967295;3750000128;0;16384;
15,0682;-5,424;-0;264;-200;2555;0;-0,0798079;-0,183383;-0,00121795;-0,110659;-0,254998;-0,00162819;0;0;0;0;0;0;0;0;0;0;0;0;0;0;0;0;0;0;0;0;0;-0,0798079;-0,183383;-0,00121795;-0,194476;0,00391142;-0,0176796;-0,0430257;-0;0;0,556612;-0,0770681;3,67696;-0,0136136;-0,0125664;0;0;0;-1080;1080;-600;1700;-10;10;-10;-0;0;-0;250;1,2;0,2;177;-1,2;-1;2555;0,07;4294967295;3750000128;0;16384;
15,0783;-5,424;-0;264;-200;2555;0;-0,0798077;-0,183383;-0,00120402;-0,111464;-0,25685;-0,00164034;0;0;0;0;0;0;0;0;0;0;0;0;0;0;0;0;0;0;0;0;0;-0,0798077;-0,183383;-0,00120402;-0,194476;0,00391142;-0,0176796;-0,0430257;-0;0;0,557678;-0,0770681;3,67696;-0,0137881;-0,0125664;0;0;0;-1080;1080;-600;1700;-10;10;-10;-0;0;-0;250;1,2;0,2;177;-1,2;-1;2555;0,07;4294967295;3750000128;0;16384;
15,0883;-5,424;-0;264;-200;2555;0;-0,0798077;-0,183383;-0,00120402;-0,112262;-0,258683;-0,00165238;0;0;0;0;0;0;0;0;0;0;0;0;0;0;0;0;0;0;0;0;0;-0,0798077;-0,183383;-0,00120402;-0,194476;0,00391142;-0,0176796;-0,0430257;-0;0;0,557677;-0,0770678;3,67698;-0,0137881;-0,0125664;0;0;0;-1080;1080;-600;1700;-10;10;-10;-0;0;-0;250;1,2;0,2;177;-1,2;-1;2555;0,07;4294967295;3750000128;0;16384;
15,0983;-5,424;-0;264;-200;2555;0;-0,0798075;-0,183383;-0,00115809;-0,113063;-0,260522;-0,001664;0;0;0;0;0;0;0;0;0;0;0;0;0;0;0;0;0;0;0;0;0;-0,0798075;-0,183383;-0,00115809;-0,194476;0,00391142;-0,0176796;-0,0430257;-0;0;0,558743;-0,0759975;3,67698;-0,0139626;-0,0123918;0;0;0;-1080;1080;-600;1700;-10;10;-10;-0;0;-0;250;1,2;0,2;177;-1,2;-1;2555;0,07;4294967295;3750000128;0;16384;
15,1083;-5,424;-0;264;-200;2555;0;-0,0798075;-0,183383;-0,00115809;-0,113859;-0,262352;-0,00167555;0;0;0;0;0;0;0;0;0;0;0;0;0;0;0;0;0;0;0;0;0;-0,0798075;-0,183383;-0,00115809;-0,194476;0,00391142;-0,0176796;-0,0430257;-0;0;0,558737;-0,0759967;3,67704;-0,0139626;-0,0123918;0;0;0;-1080;1080;-600;1700;-10;10;-10;-0;0;-0;250;1,2;0,2;177;-1,2;-1;2555;0,07;4294967295;3750000128;0;16384;
15,1182;-5,424;-0;264;-200;2555;0;-0,0798075;-0,183383;-0,00115809;-0,114649;-0,264167;-0,00168701;0;0;0;0;0;0;0;0;0;0;0;0;0;0;0;0;0;0;0;0;0;-0,0798075;-0,183383;-0,00115809;-0,194476;0,00391142;-0,0176796;-0,0430257;-0;0;0,558737;-0,0759967;3,67704;-0,0139626;-0,0123918;0;0;0;-1080;1080;-600;1700;-10;10;-10;-0;0;-0;250;1,2;0,2;177;-1,2;-1;2555;0,07;4294967295;3750000128;0;16384;
15,1282;-5,424;-0;264;-200;2555;0;-0,0798073;-0,183383;-0,00114416;-0,115448;-0,266004;-0,00169847;0;0;0;0;0;0;0;0;0;0;0;0;0;0;0;0;0;0;0;0;0;-0,0798073;-0,183383;-0,00114416;-0,194476;0,00391142;-0,0176796;-0,0430257;-0;0;0,559803;-0,0759967;3,67704;-0,0141372;-0,0123918;0;0;0;-1080;1080;-600;1700;-10;10;-10;-0;0;-0;250;1,2;0,2;177;-1,2;-1;2555;0,07;4294967295;3750000128;0;16384;
15,1382;-5,424;-0;264;-200;2555;0;-0,0798073;-0,183383;-0,00114416;-0,116245;-0,267836;-0,0017099;0;0;0;0;0;0;0;0;0;0;0;0;0;0;0;0;0;0;0;0;0;-0,0798073;-0,183383;-0,00114416;-0,194476;0,00391142;-0,0176796;-0,0430257;-0;0;0,559801;-0,0759964;3,67706;-0,0141372;-0,0123918;0;0;0;-1080;1080;-600;1700;-10;10;-10;-0;0;-0;250;1,2;0,2;177;-1,2;-1;2555;0,07;4294967295;3750000128;0;16384;
15,1483;-5,424;-0;264;-200;2555;0;-0,0798073;-0,183383;-0,00114416;-0,117051;-0,269688;-0,00172146;0;0;0;0;0;0;0;0;0;0;0;0;0;0;0;0;0;0;0;0;0;-0,0798073;-0,183383;-0,00114416;-0,194476;0,00391142;-0,0176796;-0,0430257;-0;0;0,559801;-0,0759964;3,67706;-0,0141372;-0,0123918;0;0;0;-1080;1080;-600;1700;-10;10;-10;-0;0;-0;250;1,2;0,2;177;-1,2;-1;2555;0,07;4294967295;3750000128;0;16384;
15,1583;-5,424;-0;264;-200;2555;0;-0,0798075;-0,183383;-0,0011901;-0,117846;-0,271515;-0,00173331;0;0;0;0;0;0;0;0;0;0;0;0;0;0;0;0;0;0;0;0;0;-0,0798075;-0,183383;-0,0011901;-0,194476;0,00391142;-0,0176796;-0,0430257;-0;0;0,558735;-0,0770668;3,67706;-0,0139626;-0,0125664;0;0;0;-1080;1080;-600;1700;-10;10;-10;-0;0;-0;250;1,2;0,2;177;-1,2;-1;2555;0,07;4294967295;3750000128;0;16384;
15,1682;-5,424;-0;264;-200;2555;0;-0,0798077;-0,183383;-0,00120402;-0,118638;-0,273334;-0,00174526;0;0;0;0;0;0;0;0;0;0;0;0;0;0;0;0;0;0;0;0;0;-0,0798077;-0,183383;-0,00120402;-0,194476;0,00391142;-0,0176796;-0,0430257;-0;0;0,557675;-0,0770676;3,67699;-0,0137881;-0,0125664;0;0;0;-1080;1080;-600;1700;-10;10;-10;-0;0;-0;250;1,2;0,2;177;-1,2;-1;2555;0,07;4294967295;3750000128;0;16384;
15,1783;-5,424;-0;264;-200;2555;0;-0,0798077;-0,183383;-0,00120402;-0,119443;-0,275182;-0,00175739;0;0;0;0;0;0;0;0;0;0;0;0;0;0;0;0;0;0;0;0;0;-0,0798077;-0,183383;-0,00120402;-0,194476;0,00391142;-0,0176796;-0,0430257;-0;0;0,557677;-0,0770678;3,67697;-0,0137881;-0,0125664;0;0;0;-1080;1080;-600;1700;-10;10;-10;-0;0;-0;250;1,2;0,2;177;-1,2;-1;2555;0,07;4294967295;3750000128;0;16384;
15,1882;-5,424;-0;264;-200;2555;0;-0,0798079;-0,183382;-0,00124996;-0,120237;-0,277008;-0,00176984;0;0;0;0;0;0;0;0;0;0;0;0;0;0;0;0;0;0;0;0;0;-0,0798079;-0,183382;-0,00124996;-0,194476;0,00391142;-0,0176796;-0,0430257;-0;0;0,556611;-0,0781382;3,67697;-0,0136136;-0,0127409;0;0;0;-1080;1080;-600;1700;-10;10;-10;-0;0;-0;250;1,2;0,2;177;-1,2;-1;2555;0,07;4294967295;3750000128;0;16384;
15,1982;-5,424;-0;264;-200;2555;0;-0,0798081;-0,183383;-0,00123188;-0,121035;-0,278842;-0,00178216;0;0;0;0;0;0;0;0;0;0;0;0;0;0;0;0;0;0;0;0;0;-0,0798081;-0,183383;-0,00123188;-0,194476;0,00391142;-0,0176796;-0,0430257;-0;0;0,555551;-0,0770687;3,67691;-0,013439;-0,0125664;0;0;0;-1080;1080;-600;1700;-10;10;-10;-0;0;-0;250;1,2;0,2;177;-1,2;-1;2555;0,07;4294967295;3750000128;0;16384;
15,2083;-5,424;-0;264;-200;2555;0;-0,0798081;-0,183383;-0,00123188;-0,121841;-0,280693;-0,00179459;0;0;0;0;0;0;0;0;0;0;0;0;0;0;0;0;0;0;0;0;0;-0,0798081;-0,183383;-0,00123188;-0,194476;0,00391142;-0,0176796;-0,0430257;-0;0;0,555549;-0,0770684;3,67693;-0,013439;-0,0125664;0;0;0;-1080;1080;-600;1700;-10;10;-10;-0;0;-0;250;1,2;0,2;177;-1,2;-1;2555;0,07;4294967295;3750000128;0;16384;
15,2182;-5,424;-0;264;-200;2555;0;-0,0798081;-0,183383;-0,00123188;-0,12263;-0,282507;-0,00180677;0;0;0;0;0;0;0;0;0;0;0;0;0;0;0;0;0;0;0;0;0;-0,0798081;-0,183383;-0,00123188;-0,194476;0,00391142;-0,0176796;-0,0430257;-0;0;0,555549;-0,0770684;3,67693;-0,013439;-0,0125664;0;0;0;-1080;1080;-600;1700;-10;10;-10;-0;0;-0;250;1,2;0,2;177;-1,2;-1;2555;0,07;4294967295;3750000128;0;16384;
