time 	e1	e2	ctrlpitch	ctrlroll	ctrlthrust	ctrlyaw	edx	edy	edz	cumulx	cumuly	cumulz	x_pred	y_pred	z_pred	dxr_pred	dyr_pred	dzr_pred	dxrT	dyrT	dzrT	dxrUn	dyrUn	dzrUn	x	y	z	dx	dy	dz	ux	uy	uz	dxd	dyd	dzd	Perpx	Tangx	Perpy	Tangy	Perpz	Tanz	ax	ay	az	pitch	roll	yaw	yawd	eyaw	kpvx	kpvy	kpvz	kpyaw	kivx	kivy	kivz	kdvx	kdvy	kdvz	kdyaw	ktg	veld	pitchoff	ke1	ke2	gravity	thr_vel	gps_accuracy	height_accuracy	gps_sat_num	gps_status
6.5401	-5.44133	0	50	-50	1450	0	-0.142157	-0.140682	0	-0.000295543	-0.000292479	0	0	0	-0	0	0	0	0	0	0	0	0	0	0	0	0	0	0	0	0.205665	-0.0810057	2.82845	-0.142157	-0.140682	0	-0.16515	0.0229932	-0.104261	-0.0364212	0	0	0	0	9.81	0	0	0	0	0	-1080	1080	-500	1700	-10	10	-10	-0	0	-0	250	1.2	0.2	177	-1.2	-1	2555	0.07	0	0	0	0	
6.54798	-5.44133	0	100	-100	1500	0	-0.142157	-0.140682	0	-0.00141631	-0.00140162	0	0	0	-0	0	0	0	0	0	0	0	0	0	0	0	0	0	0	0	0.129036	-0.167558	2.70047	-0.142157	-0.140682	0	-0.16515	0.0229932	-0.104261	-0.0364212	0	0	0.473277	0	3.67875	0	0	0	0	0	-1080	1080	-500	1700	-10	10	-10	-0	0	-0	250	1.2	0.2	177	-1.2	-1	2555	0.07	0	0	0	0	
6.5579	-5.44133	0	150	-150	1550	0	-0.144051	-0.139936	0	-0.00284457	-0.00278908	0	0	0	-0	0.0018948	-0.000746306	0	0.0018948	-0.000746306	0	0.0018948	-0.000746306	0	0	0	0	0	0	0.0260585	0.0467625	-0.259612	2.57249	-0.142157	-0.140682	0	-0.16515	0.0229932	-0.104261	-0.0364212	0	0	0.473277	0	3.67875	0	0	0	0	0	-1080	1080	-500	1700	-10	10	-10	-0	0	-0	250	1.2	0.2	177	-1.2	-1	2555	0.07	0	0	0	0	
6.56792	-5.4414	0	200	-149	1600	50	-0.145171	-0.138443	0	-0.00429992	-0.00417698	0	1.66652e-05	-6.56394e-06	-0	0.00301289	-0.0022375	0	0.00301289	-0.0022375	0	0.00301289	-0.0022375	0	0	0	0.000229191	0	0	0.0497697	-0.04112	-0.266203	2.4445	-0.142158	-0.140681	0	-0.165151	0.0229925	-0.10426	-0.0364209	0	0	0.473277	0	3.67875	0	0	0	2.76638	0.36647	-1080	1080	-500	1700	-10	10	-10	-0	0	-0	250	1.2	0.2	177	-1.2	-1	2555	0.07	0	0	0	0	
6.57799	-5.44148	0	250	-147	1650	100	-0.145591	-0.136109	0	-0.00576558	-0.00554719	0	4.3658e-05	-2.6627e-05	-0	0.00342879	-0.00456774	0	0.00342879	-0.00456774	0	0.00342879	-0.00456774	0	0	0	0.000675219	0	0	0.0728195	-0.134569	-0.270842	2.31652	-0.142162	-0.140677	0	-0.165153	0.0229914	-0.104256	-0.036421	0	0	0.473277	0	3.67875	0	0	0	2.59393	0.520696	-1080	1080	-500	1700	-10	10	-10	-0	0	-0	250	1.2	0.2	177	-1.2	-1	2555	0.07	0	0	0	0	
6.58796	-5.4415	0	300	-144	1700	150	-0.145231	-0.133701	0	-0.00721295	-0.00687965	0	7.46717e-05	-6.78604e-05	-0	0.00306317	-0.00696956	0	0.00306317	-0.00696956	0	0.00306317	-0.00696956	0	0	0	0.00133322	0	0	0.0949153	-0.233538	-0.273362	2.18853	-0.142168	-0.140671	0	-0.165158	0.0229897	-0.104249	-0.0364218	0	0	0.473277	0	3.67875	0	0	0	2.40395	0.672548	-1080	1080	-500	1700	-10	10	-10	-0	0	-0	250	1.2	0.2	177	-1.2	-1	2555	0.07	0	0	0	0	
6.598	-5.44144	0	332	-141	1750	200	-0.144029	-0.131252	0	-0.00866016	-0.00819847	0	0.000102307	-0.000130672	-0	0.00185262	-0.00941022	0	0.00185262	-0.00941022	0	0.00185262	-0.00941022	0	0	0	0.00218889	0	0	0.115802	-0.302866	-0.275547	2.06055	-0.142177	-0.140662	0	-0.165164	0.0229877	-0.104238	-0.0364237	0	0	0.473277	0	3.67875	0	0	0	2.23504	0.787383	-1080	1080	-500	1700	-10	10	-10	-0	0	-0	250	1.2	0.2	177	-1.2	-1	2555	0.07	0	0	0	0	
6.60796	-5.44124	0	330	-139	1800	250	-0.141937	-0.128789	0	-0.0100727	-0.00948018	0	0.000118812	-0.000215077	-0	-0.000249767	-0.0118626	0	-0.000249767	-0.0118626	0	-0.000249767	-0.0118626	0	0	0	0.00322673	0	0	0.135406	-0.307506	-0.279404	1.93256	-0.142187	-0.140652	0	-0.165172	0.0229856	-0.104225	-0.0364267	0	0	0.473277	0	3.67875	0	0	0	2.07549	0.875322	-1080	1080	-500	1700	-10	10	-10	-0	0	-0	250	1.2	0.2	177	-1.2	-1	2555	0.07	0	0	0	0	
6.61797	-5.44088	0	327	-136	1850	300	-0.139222	-0.12629	0	-0.011467	-0.010745	0	0.000116702	-0.000322179	-0	-0.00297625	-0.01435	0	-0.00297625	-0.01435	0	-0.00297625	-0.01435	0	0	0	0.00445014	0	0	0.154034	-0.309859	-0.280975	1.80458	-0.142198	-0.14064	0	-0.165182	0.0229835	-0.104209	-0.0364313	0	0	0.473277	0	3.67875	0	0	0	1.91832	0.940218	-1080	1080	-500	1700	-10	10	-10	-0	0	-0	250	1.2	0.2	177	-1.2	-1	2555	0.07	0	0	0	0	
6.62795	-5.4403	0	324	-133	1900	350	-0.136468	-0.123765	0	-0.0128284	-0.0119797	0	8.98784e-05	-0.000451194	-0	-0.00574334	-0.0168622	0	-0.00574334	-0.0168622	0	-0.00574334	-0.0168622	0	0	0	0.00583466	0	0	0.1714	-0.311878	-0.282211	1.67659	-0.142211	-0.140627	0	-0.165193	0.0229818	-0.10419	-0.0364375	0	0	0.473277	0	3.67875	0	0	0	1.76742	0.980731	-1080	1080	-500	1700	-10	10	-10	-0	0	-0	250	1.2	0.2	177	-1.2	-1	2555	0.07	0	0	0	0	
6.63796	-5.44012	0	323	-130	1950	400	-0.135555	-0.120469	0	-0.0141861	-0.0131863	0	0.0001883	-0.000662631	-0	-0.00668422	-0.0201295	0	-0.00668422	-0.0201295	0	-0.00668422	-0.0201295	0	0	0	0.00732507	0	0	0.187	-0.317911	-0.283111	1.54861	-0.14224	-0.140598	0	-0.165214	0.0229748	-0.104155	-0.0364435	0	0	0.473277	0	3.67875	0	0	0	1.84767	0.961915	-1080	1080	-500	1700	-10	10	-10	-0	0	-0	250	1.2	0.2	177	-1.2	-1	2555	0.07	0	0	0	0	
6.64793	-5.43804	0	317	-127	2000	450	-0.130224	-0.117904	0	-0.0154838	-0.0143612	0	-9.43114e-05	-0.000839179	-0	-0.0120188	-0.022691	0	-0.0120188	-0.022691	0	-0.0120188	-0.022691	0	0	0	0.00687046	0	0	0.175621	-0.31268	-0.283677	1.42063	-0.142243	-0.140595	0	-0.165222	0.0229795	-0.104136	-0.0364592	0	0	0.473277	0	3.67875	0	0	0	1.45888	0.993744	-1080	1080	-500	1700	-10	10	-10	-0	0	-0	250	1.2	0.2	177	-1.2	-1	2555	0.07	0	0	0	0	
6.65797	-5.4352	0	311	-123	2050	500	-0.123999	-0.113855	0	-0.0167286	-0.0155042	0	-0.000434195	-0.00115438	-0	-0.0182587	-0.0267255	0	-0.0182587	-0.0267255	0	-0.0182587	-0.0267255	0	0	0	0.00761614	0	0	0.178947	-0.306777	-0.281619	1.29264	-0.142257	-0.14058	0	-0.16524	0.0229831	-0.104098	-0.0364823	0	0	0.473277	0	3.67875	0	0	0	1.21104	0.935982	-1080	1080	-500	1700	-10	10	-10	-0	0	-0	250	1.2	0.2	177	-1.2	-1	2555	0.07	0	0	0	0	
6.66792	-5.43322	0	305	-122	2100	550	-0.119128	-0.112992	0	-0.0179147	-0.0166291	0	-0.000764943	-0.00122338	-0	-0.0231177	-0.0276001	0	-0.0231177	-0.0276001	0	-0.0231177	-0.0276001	0	0	0	0.00747732	0	0	0.171175	-0.300203	-0.286145	1.16466	-0.142246	-0.140592	0	-0.165237	0.0229913	-0.104097	-0.0364948	0	0	0.473277	0	3.67875	0	0	0	1.012	0.847896	-1080	1080	-500	1700	-10	10	-10	-0	0	-0	250	1.2	0.2	177	-1.2	-1	2555	0.07	0	0	0	0	
6.67801	-5.43171	0	301	-121	2150	600	-0.115492	-0.112771	0	-0.0190801	-0.0177671	0	-0.00104151	-0.00124057	-0	-0.02674	-0.0278351	0	-0.02674	-0.0278351	0	-0.02674	-0.0278351	0	0	0	0.00703033	0	0	0.159814	-0.297756	-0.290559	1.03667	-0.142232	-0.140606	0	-0.165231	0.0229989	-0.104103	-0.0365036	0	0	0.473277	0	3.67875	0	0	0	0.872404	0.765877	-1080	1080	-500	1700	-10	10	-10	-0	0	-0	250	1.2	0.2	177	-1.2	-1	2555	0.07	0	0	0	0	
6.68794	-5.43052	0	299	-121	2200	650	-0.112852	-0.112624	0	-0.0202004	-0.0188851	0	-0.00126179	-0.00124844	-0	-0.0293676	-0.0279941	0	-0.0293676	-0.0279941	0	-0.0293676	-0.0279941	0	0	0	0.00655762	0	0	0.14816	-0.299771	-0.297316	0.908689	-0.14222	-0.140618	0	-0.165225	0.0230051	-0.104108	-0.0365103	0	0	0.473277	0	3.67875	0	0	0	0.78008	0.703336	-1080	1080	-500	1700	-10	10	-10	-0	0	-0	250	1.2	0.2	177	-1.2	-1	2555	0.07	0	0	0	0	
6.69882	-5.42984	0	297	-121	2250	700	-0.111503	-0.11243	0	-0.0214139	-0.0201087	0	-0.00138499	-0.00125759	-0	-0.0307104	-0.0281947	0	-0.0307104	-0.0281947	0	-0.0307104	-0.0281947	0	0	0	0.00609784	0	0	0.136652	-0.301562	-0.304073	0.780705	-0.142214	-0.140624	0	-0.165222	0.0230085	-0.10411	-0.0365143	0	0	0.473277	0	3.67875	0	0	0	0.737226	0.672237	-1080	1080	-500	1700	-10	10	-10	-0	0	-0	250	1.2	0.2	177	-1.2	-1	2555	0.07	0	0	0	0	
6.70798	-5.42977	0	297	-121	2300	750	-0.1115	-0.112184	0	-0.0224346	-0.0211356	0	-0.00139225	-0.00126641	-0	-0.0307139	-0.0284399	0	-0.0307139	-0.0284399	0	-0.0307139	-0.0284399	0	0	0	0.00562901	0	0	0.125044	-0.308264	-0.31083	0.65272	-0.142214	-0.140624	0	-0.165223	0.0230085	-0.104109	-0.0365149	0	0	0.473277	0	3.67875	0	0	0	0.738103	0.672886	-1080	1080	-500	1700	-10	10	-10	-0	0	-0	250	1.2	0.2	177	-1.2	-1	2555	0.07	0	0	0	0	
6.71795	-5.42954	0	297	-120	2350	800	-0.111282	-0.11168	0	-0.0235445	-0.0222495	0	-0.00141743	-0.00129421	-0	-0.0309342	-0.028942	0	-0.0309342	-0.028942	0	-0.0309342	-0.028942	0	0	0	0.00525365	0	0	0.114459	-0.314965	-0.314965	0.524736	-0.142216	-0.140622	0	-0.165225	0.0230087	-0.104106	-0.0365168	0	0	0.473277	0	3.67875	0	0	0	0.73999	0.674281	-1080	1080	-500	1700	-10	10	-10	-0	0	-0	250	1.2	0.2	177	-1.2	-1	2555	0.07	0	0	0	0	
6.72796	-5.42971	0	297	-120	2400	850	-0.111522	-0.111599	0	-0.02466	-0.0233658	0	-0.00139386	-0.00128101	-0	-0.0306936	-0.0290239	0	-0.0306936	-0.0290239	0	-0.0306936	-0.0290239	0	0	0	0.00470875	0	0	0.10202	-0.321667	-0.321667	0.396751	-0.142216	-0.140622	0	-0.165224	0.0230083	-0.104107	-0.0365155	0	0	0.473277	0	3.67875	0	0	0	0.743235	0.676673	-1080	1080	-500	1700	-10	10	-10	-0	0	-0	250	1.2	0.2	177	-1.2	-1	2555	0.07	0	0	0	0	
6.73797	-5.42969	0	297	-120	2450	900	-0.111445	-0.111273	0	-0.0257759	-0.02448	0	-0.00139314	-0.00128873	-0	-0.0307722	-0.0293485	0	-0.0307722	-0.0293485	0	-0.0307722	-0.0293485	0	0	0	0.00424352	0	0	0.0904523	-0.328368	-0.328368	0.268767	-0.142217	-0.140622	0	-0.165225	0.0230081	-0.104106	-0.0365159	0	0	0.473277	0	3.67875	0	0	0	0.746489	0.679065	-1080	1080	-500	1700	-10	10	-10	-0	0	-0	250	1.2	0.2	177	-1.2	-1	2555	0.07	0	0	0	0	
6.74798	-5.42973	0	297	-119	2500	950	-0.111453	-0.110872	0	-0.0268919	-0.0255902	0	-0.00137905	-0.00130037	-0	-0.0307657	-0.0297477	0	-0.0307657	-0.0297477	0	-0.0307657	-0.0297477	0	0	0	0.00378448	0	0	0.0789515	-0.335069	-0.33228	0.140783	-0.142219	-0.140619	0	-0.165226	0.0230075	-0.104103	-0.0365159	0	0	0.473277	0	3.67875	0	0	0	0.756043	0.686048	-1080	1080	-500	1700	-10	10	-10	-0	0	-0	250	1.2	0.2	177	-1.2	-1	2555	0.07	0	0	0	0	
6.75797	-5.42974	0	297	-119	2550	1000	-0.111358	-0.110444	0	-0.0280039	-0.0266931	0	-0.0013686	-0.00131222	-0	-0.0308626	-0.0301731	0	-0.0308626	-0.0301731	0	-0.0308626	-0.0301731	0	0	0	0.00332532	0	0	0.0674506	-0.341771	-0.338925	0.0127984	-0.142221	-0.140617	0	-0.165228	0.0230069	-0.104101	-0.0365161	0	0	0.473277	0	3.67875	0	0	0	0.764368	0.692081	-1080	1080	-500	1700	-10	10	-10	-0	0	-0	250	1.2	0.2	177	-1.2	-1	2555	0.07	0	0	0	0	
6.76798	-5.42967	0	297	-118	2555	1050	-0.111129	-0.109875	0	-0.0291169	-0.0277935	0	-0.00136583	-0.00133767	-0	-0.0310948	-0.0307398	0	-0.0310948	-0.0307398	0	-0.0310948	-0.0307398	0	0	0	0.0028632	0	0	0.055913	-0.342441	-0.336739	0	-0.142224	-0.140615	0	-0.16523	0.0230063	-0.104097	-0.0365171	0	0	0.473277	0	3.67875	0	0	0	0.774983	0.699704	-1080	1080	-500	1700	-10	10	-10	-0	0	-0	250	1.2	0.2	177	-1.2	-1	2555	0.07	0	0	0	0	
6.77796	-5.42956	0	296	-118	2555	1100	-0.110756	-0.109317	0	-0.0302224	-0.0288846	0	-0.00137276	-0.00136132	-0	-0.0314695	-0.0312954	0	-0.0314695	-0.0312954	0	-0.0314695	-0.0312954	0	0	0	0.00239545	0	0	0.0443206	-0.33959	-0.336739	0	-0.142226	-0.140612	0	-0.165232	0.0230061	-0.104094	-0.0365183	0	0	0.473277	0	3.67875	0	0	0	0.781213	0.704141	-1080	1080	-500	1700	-10	10	-10	-0	0	-0	250	1.2	0.2	177	-1.2	-1	2555	0.07	0	0	0	0	
6.78795	-5.42935	0	296	-117	2555	1150	-0.110273	-0.108767	0	-0.0313233	-0.0299705	0	-0.00139316	-0.00139144	-0	-0.0319553	-0.0318436	0	-0.0319553	-0.0318436	0	-0.0319553	-0.0318436	0	0	0	0.0019309	0	0	0.0339063	-0.33959	-0.333887	0	-0.142228	-0.14061	0	-0.165234	0.0230061	-0.10409	-0.0365202	0	0	0.473277	0	3.67875	0	0	0	0.78478	0.70667	-1080	1080	-500	1700	-10	10	-10	-0	0	-0	250	1.2	0.2	177	-1.2	-1	2555	0.07	0	0	0	0	
6.79793	-5.42917	0	296	-117	2555	1200	-0.109893	-0.108338	0	-0.0324199	-0.0310516	0	-0.00141128	-0.00141536	-0	-0.0323361	-0.0322701	0	-0.0323361	-0.0322701	0	-0.0323361	-0.0322701	0	0	0	0.00147182	0	0	0.0247193	-0.33959	-0.333887	0	-0.142229	-0.140609	0	-0.165236	0.0230061	-0.104087	-0.0365217	0	0	0.473277	0	3.67875	0	0	0	0.786843	0.708128	-1080	1080	-500	1700	-10	10	-10	-0	0	-0	250	1.2	0.2	177	-1.2	-1	2555	0.07	0	0	0	0	
6.80795	-5.42893	0	295	-116	2555	1202	-0.109429	-0.107953	0	-0.0335171	-0.0321339	0	-0.00144089	-0.00144186	-0	-0.0328019	-0.0326543	0	-0.0328019	-0.0326543	0	-0.0328019	-0.0326543	0	0	0	0.00104246	0	0	0.0168583	-0.336739	-0.331036	0	-0.142231	-0.140607	0	-0.165237	0.0230065	-0.104084	-0.0365237	0	0	0.473277	0	3.67875	0	0	0	0.785734	0.707344	-1080	1080	-500	1700	-10	10	-10	-0	0	-0	250	1.2	0.2	177	-1.2	-1	2555	0.07	0	0	0	0	
6.81795	-5.42895	0	295	-116	2555	1199	-0.109348	-0.10798	0	-0.0346107	-0.0332138	0	-0.00144026	-0.00143497	-0	-0.0328822	-0.0326286	0	-0.0328822	-0.0326286	0	-0.0328822	-0.0326286	0	0	0	0.000639181	0	0	0.0101963	-0.336739	-0.331036	0	-0.14223	-0.140608	0	-0.165237	0.0230066	-0.104085	-0.0365234	0	0	0.473277	0	3.67875	0	0	0	0.783559	0.705805	-1080	1080	-500	1700	-10	10	-10	-0	0	-0	250	1.2	0.2	177	-1.2	-1	2555	0.07	0	0	0	0	
6.82796	-5.42855	0	294	-116	2555	1198	-0.108776	-0.107463	0	-0.0356993	-0.0342893	0	-0.00148857	-0.00148063	-0	-0.0334562	-0.0331433	0	-0.0334562	-0.0331433	0	-0.0334562	-0.0331433	0	0	0	0.000306748	0	0	0.00497304	-0.333887	-0.331036	0	-0.142232	-0.140606	0	-0.165239	0.0230071	-0.104079	-0.0365267	0	0	0.473277	0	3.67875	0	0	0	0.782724	0.705214	-1080	1080	-500	1700	-10	10	-10	-0	0	-0	250	1.2	0.2	177	-1.2	-1	2555	0.07	0	0	0	0	
6.83796	-5.42839	0	294	-116	2555	1197	-0.10855	-0.107292	0	-0.0367847	-0.0353621	0	-0.00150839	-0.00149732	-0	-0.033683	-0.033313	0	-0.033683	-0.033313	0	-0.033683	-0.033313	0	0	0	2.571e-05	0	0	0.000939813	-0.333887	-0.331036	0	-0.142233	-0.140605	0	-0.16524	0.0230073	-0.104077	-0.036528	0	0	0.473277	0	3.67875	0	0	0	0.781714	0.704497	-1080	1080	-500	1700	-10	10	-10	-0	0	-0	250	1.2	0.2	177	-1.2	-1	2555	0.07	0	0	0	0	
6.84795	-5.42828	0	294	-116	2555	1195	-0.108426	-0.107225	0	-0.0378674	-0.0364329	0	-0.00152303	-0.00150575	-0	-0.0338069	-0.0333805	0	-0.0338069	-0.0333805	0	-0.0338069	-0.0333805	0	0	0	-0.000177488	0	0	-0.00178709	-0.333887	-0.331036	0	-0.142233	-0.140605	0	-0.16524	0.0230076	-0.104076	-0.0365288	0	0	0.473277	0	3.67875	0	0	0	0.779691	0.70306	-1080	1080	-500	1700	-10	10	-10	-0	0	-0	250	1.2	0.2	177	-1.2	-1	2555	0.07	0	0	0	0	
6.85791	-5.42821	0	294	-116	2555	1194	-0.108376	-0.107175	0	-0.0389478	-0.0375013	0	-0.00153162	-0.00151281	-0	-0.0338573	-0.0334298	0	-0.0338573	-0.0334298	0	-0.0338573	-0.0334298	0	0	0	-0.000294747	0	0	-0.00326101	-0.333887	-0.331036	0	-0.142233	-0.140605	0	-0.165241	0.0230077	-0.104076	-0.0365293	0	0	0.473277	0	3.67875	0	0	0	0.779221	0.702726	-1080	1080	-500	1700	-10	10	-10	-0	0	-0	250	1.2	0.2	177	-1.2	-1	2555	0.07	0	0	0	0	
6.86796	-5.42826	0	294	-116	2555	1193	-0.108456	-0.107285	0	-0.0400377	-0.0385794	0	-0.00152822	-0.00150543	-0	-0.0337761	-0.0333201	0	-0.0337761	-0.0333201	0	-0.0337761	-0.0333201	0	0	0	-0.000302853	0	0	-0.00336621	-0.333887	-0.331036	0	-0.142233	-0.140605	0	-0.16524	0.0230077	-0.104077	-0.0365289	0	0	0.473277	0	3.67875	0	0	0	0.777885	0.701774	-1080	1080	-500	1700	-10	10	-10	-0	0	-0	250	1.2	0.2	177	-1.2	-1	2555	0.07	0	0	0	0	
6.87798	-5.42831	0	294	-116	2555	1194	-0.108576	-0.107348	0	-0.0411247	-0.0396541	0	-0.00152058	-0.0015015	-0	-0.0336564	-0.0332574	0	-0.0336564	-0.0332574	0	-0.0336564	-0.0332574	0	0	0	-0.00030275	0	0	-0.00336564	-0.333887	-0.331036	0	-0.142233	-0.140605	0	-0.16524	0.0230076	-0.104077	-0.0365285	0	0	0.473277	0	3.67875	0	0	0	0.779084	0.702628	-1080	1080	-500	1700	-10	10	-10	-0	0	-0	250	1.2	0.2	177	-1.2	-1	2555	0.07	0	0	0	0	
6.88796	-5.42834	0	294	-116	2555	1192	-0.108621	-0.107423	0	-0.0422097	-0.0407271	0	-0.00151877	-0.00149597	-0	-0.0336108	-0.0331832	0	-0.0336108	-0.0331832	0	-0.0336108	-0.0331832	0	0	0	-0.000300391	0	0	-0.00333827	-0.333887	-0.331036	0	-0.142232	-0.140606	0	-0.16524	0.0230076	-0.104078	-0.0365282	0	0	0.473277	0	3.67875	0	0	0	0.777835	0.701739	-1080	1080	-500	1700	-10	10	-10	-0	0	-0	250	1.2	0.2	177	-1.2	-1	2555	0.07	0	0	0	0	
6.89802	-5.42835	0	294	-116	2555	1193	-0.108668	-0.107441	0	-0.0433023	-0.0418075	0	-0.00151626	-0.00149487	-0	-0.0335638	-0.0331646	0	-0.0335638	-0.0331646	0	-0.0335638	-0.0331646	0	0	0	-0.000300571	0	0	-0.00333928	-0.333887	-0.331036	0	-0.142232	-0.140606	0	-0.16524	0.0230076	-0.104078	-0.0365281	0	0	0.473277	0	3.67875	0	0	0	0.778295	0.702066	-1080	1080	-500	1700	-10	10	-10	-0	0	-0	250	1.2	0.2	177	-1.2	-1	2555	0.07	0	0	0	0	
6.90796	-5.4284	0	294	-116	2555	1194	-0.108752	-0.107497	0	-0.0443839	-0.0428765	0	-0.00150985	-0.00149017	-0	-0.03348	-0.0331092	0	-0.03348	-0.0331092	0	-0.03348	-0.0331092	0	0	0	-0.000298034	0	0	-0.00331092	-0.333887	-0.331036	0	-0.142232	-0.140606	0	-0.165239	0.0230075	-0.104078	-0.0365277	0	0	0.473277	0	3.67875	0	0	0	0.778838	0.702453	-1080	1080	-500	1700	-10	10	-10	-0	0	-0	250	1.2	0.2	177	-1.2	-1	2555	0.07	0	0	0	0	
6.91794	-5.4284	0	294	-116	2555	1194	-0.108755	-0.107471	0	-0.0454684	-0.0439482	0	-0.00151015	-0.00149243	-0	-0.0334769	-0.0331344	0	-0.0334769	-0.0331344	0	-0.0334769	-0.0331344	0	0	0	-0.000298487	0	0	-0.00331344	-0.333887	-0.331036	0	-0.142232	-0.140606	0	-0.16524	0.0230075	-0.104078	-0.0365278	0	0	0.473277	0	3.67875	0	0	0	0.7795	0.702924	-1080	1080	-500	1700	-10	10	-10	-0	0	-0	250	1.2	0.2	177	-1.2	-1	2555	0.07	0	0	0	0	
6.92796	-5.42844	0	295	-116	2555	1196	-0.10884	-0.107498	0	-0.0465594	-0.0450258	0	-0.00150285	-0.00149002	-0	-0.0333928	-0.0331076	0	-0.0333928	-0.0331076	0	-0.0333928	-0.0331076	0	0	0	-0.000298004	0	0	-0.00331076	-0.336739	-0.331036	0	-0.142232	-0.140606	0	-0.16524	0.0230073	-0.104078	-0.0365275	0	0	0.473277	0	3.67875	0	0	0	0.78111	0.704068	-1080	1080	-500	1700	-10	10	-10	-0	0	-0	250	1.2	0.2	177	-1.2	-1	2555	0.07	0	0	0	0	
6.93792	-5.42845	0	295	-116	2555	1196	-0.108849	-0.107508	0	-0.0476436	-0.0460967	0	-0.00150198	-0.00148916	-0	-0.0333831	-0.033098	0	-0.0333831	-0.033098	0	-0.0333831	-0.033098	0	0	0	-0.000297831	0	0	-0.0033098	-0.336739	-0.331036	0	-0.142232	-0.140606	0	-0.16524	0.0230073	-0.104078	-0.0365275	0	0	0.473277	0	3.67875	0	0	0	0.78111	0.704068	-1080	1080	-500	1700	-10	10	-10	-0	0	-0	250	1.2	0.2	177	-1.2	-1	2555	0.07	0	0	0	0	
6.94796	-5.42844	0	295	-116	2555	1196	-0.108815	-0.107502	0	-0.0487358	-0.0471757	0	-0.00150246	-0.00148963	-0	-0.0334169	-0.0331033	0	-0.0334169	-0.0331033	0	-0.0334169	-0.0331033	0	0	0	-0.000297927	0	0	-0.00331033	-0.336739	-0.331036	0	-0.142232	-0.140606	0	-0.16524	0.0230073	-0.104078	-0.0365275	0	0	0.473277	0	3.67875	0	0	0	0.78111	0.704068	-1080	1080	-500	1700	-10	10	-10	-0	0	-0	250	1.2	0.2	177	-1.2	-1	2555	0.07	0	0	0	0	
6.95799	-5.42845	0	295	-116	2555	1196	-0.1088	-0.107515	0	-0.0498269	-0.0482538	0	-0.00150161	-0.0014885	-0	-0.0334327	-0.0330907	0	-0.0334327	-0.0330907	0	-0.0334327	-0.0330907	0	0	0	-0.0002977	0	0	-0.00330907	-0.336739	-0.331036	0	-0.142232	-0.140606	0	-0.16524	0.0230073	-0.104078	-0.0365274	0	0	0.473277	0	3.67875	0	0	0	0.781015	0.704001	-1080	1080	-500	1700	-10	10	-10	-0	0	-0	250	1.2	0.2	177	-1.2	-1	2555	0.07	0	0	0	0	
6.96793	-5.42844	0	294	-116	2555	1196	-0.108754	-0.107498	0	-0.0509078	-0.0493223	0	-0.00150371	-0.00149002	-0	-0.0334783	-0.0331076	0	-0.0334783	-0.0331076	0	-0.0334783	-0.0331076	0	0	0	-0.000298004	0	0	-0.00331076	-0.333887	-0.331036	0	-0.142232	-0.140606	0	-0.16524	0.0230073	-0.104078	-0.0365276	0	0	0.473277	0	3.67875	0	0	0	0.780825	0.703866	-1080	1080	-500	1700	-10	10	-10	-0	0	-0	250	1.2	0.2	177	-1.2	-1	2555	0.07	0	0	0	0	
6.97795	-5.42842	0	294	-116	2555	1196	-0.108706	-0.107479	0	-0.0519978	-0.0503999	0	-0.00150634	-0.00149178	-0	-0.0335266	-0.0331271	0	-0.0335266	-0.0331271	0	-0.0335266	-0.0331271	0	0	0	-0.000298356	0	0	-0.00331271	-0.333887	-0.331036	0	-0.142232	-0.140606	0	-0.16524	0.0230074	-0.104078	-0.0365277	0	0	0.473277	0	3.67875	0	0	0	0.780541	0.703664	-1080	1080	-500	1700	-10	10	-10	-0	0	-0	250	1.2	0.2	177	-1.2	-1	2555	0.07	0	0	0	0	
6.98795	-5.42844	0	294	-116	2555	1195	-0.108742	-0.107515	0	-0.0530847	-0.0514747	0	-0.00150417	-0.0014885	-0	-0.0334897	-0.0330907	0	-0.0334897	-0.0330907	0	-0.0334897	-0.0330907	0	0	0	-0.0002977	0	0	-0.00330907	-0.333887	-0.331036	0	-0.142232	-0.140606	0	-0.165239	0.0230074	-0.104078	-0.0365275	0	0	0.473277	0	3.67875	0	0	0	0.780162	0.703395	-1080	1080	-500	1700	-10	10	-10	-0	0	-0	250	1.2	0.2	177	-1.2	-1	2555	0.07	0	0	0	0	
6.99802	-5.42843	0	294	-116	2555	1195	-0.108737	-0.10751	0	-0.0541794	-0.052557	0	-0.00150579	-0.00148898	-0	-0.0334951	-0.033096	0	-0.0334951	-0.033096	0	-0.0334951	-0.033096	0	0	0	-0.000297796	0	0	-0.0033096	-0.333887	-0.331036	0	-0.142232	-0.140606	0	-0.165239	0.0230074	-0.104078	-0.0365276	0	0	0.473277	0	3.67875	0	0	0	0.779784	0.703125	-1080	1080	-500	1700	-10	10	-10	-0	0	-0	250	1.2	0.2	177	-1.2	-1	2555	0.07	0	0	0	0	
7.00798	-5.42842	0	294	-116	2555	1194	-0.108735	-0.107508	0	-0.0552633	-0.0536286	0	-0.00150714	-0.00148919	-0	-0.0334974	-0.0330983	0	-0.0334974	-0.0330983	0	-0.0334974	-0.0330983	0	0	0	-0.000297837	0	0	-0.00330983	-0.333887	-0.331036	0	-0.142232	-0.140606	0	-0.165239	0.0230074	-0.104078	-0.0365276	0	0	0.473277	0	3.67875	0	0	0	0.779405	0.702856	-1080	1080	-500	1700	-10	10	-10	-0	0	-0	250	1.2	0.2	177	-1.2	-1	2555	0.07	0	0	0	0	
7.01794	-5.42841	0	294	-116	2555	1194	-0.10873	-0.107504	0	-0.0563459	-0.054699	0	-0.00150865	-0.00148954	-0	-0.0335015	-0.0331023	0	-0.0335015	-0.0331023	0	-0.0335015	-0.0331023	0	0	0	-0.000297909	0	0	-0.00331023	-0.333887	-0.331036	0	-0.142232	-0.140606	0	-0.165239	0.0230075	-0.104078	-0.0365277	0	0	0.473277	0	3.67875	0	0	0	0.779027	0.702587	-1080	1080	-500	1700	-10	10	-10	-0	0	-0	250	1.2	0.2	177	-1.2	-1	2555	0.07	0	0	0	0	
7.02794	-5.42839	0	294	-116	2555	1192	-0.108694	-0.107496	0	-0.0574333	-0.0557744	0	-0.00151305	-0.00149023	-0	-0.0335377	-0.0331099	0	-0.0335377	-0.0331099	0	-0.0335377	-0.0331099	0	0	0	-0.000298046	0	0	-0.00331099	-0.333887	-0.331036	0	-0.142232	-0.140606	0	-0.165239	0.0230076	-0.104078	-0.0365278	0	0	0.473277	0	3.67875	0	0	0	0.7778	0.701714	-1080	1080	-500	1700	-10	10	-10	-0	0	-0	250	1.2	0.2	177	-1.2	-1	2555	0.07	0	0	0	0	
7.03796	-5.4284	0	295	-116	2555	1193	-0.108728	-0.107501	0	-0.058522	-0.0568508	0	-0.00151117	-0.00148978	-0	-0.0335041	-0.0331049	0	-0.0335041	-0.0331049	0	-0.0335041	-0.0331049	0	0	0	-0.000297956	0	0	-0.00331049	-0.336739	-0.331036	0	-0.142232	-0.140606	0	-0.165239	0.0230075	-0.104078	-0.0365278	0	0	0.473277	0	3.67875	0	0	0	0.778272	0.70205	-1080	1080	-500	1700	-10	10	-10	-0	0	-0	250	1.2	0.2	177	-1.2	-1	2555	0.07	0	0	0	0	
7.04796	-5.42841	0	295	-116	2555	1194	-0.108763	-0.107508	0	-0.05961	-0.0579263	0	-0.00150885	-0.00148919	-0	-0.0334689	-0.0330983	0	-0.0334689	-0.0330983	0	-0.0334689	-0.0330983	0	0	0	-0.000297837	0	0	-0.00330983	-0.336739	-0.331036	0	-0.142232	-0.140606	0	-0.165239	0.0230075	-0.104078	-0.0365277	0	0	0.473277	0	3.67875	0	0	0	0.778838	0.702453	-1080	1080	-500	1700	-10	10	-10	-0	0	-0	250	1.2	0.2	177	-1.2	-1	2555	0.07	0	0	0	0	
7.05796	-5.42841	0	295	-116	2555	1194	-0.108746	-0.10749	0	-0.0606971	-0.0590008	0	-0.00150843	-0.00149074	-0	-0.0334863	-0.0331155	0	-0.0334863	-0.0331155	0	-0.0334863	-0.0331155	0	0	0	-0.000298147	0	0	-0.00331155	-0.336739	-0.331036	0	-0.142232	-0.140606	0	-0.16524	0.0230075	-0.104078	-0.0365277	0	0	0.473277	0	3.67875	0	0	0	0.7795	0.702924	-1080	1080	-500	1700	-10	10	-10	-0	0	-0	250	1.2	0.2	177	-1.2	-1	2555	0.07	0	0	0	0	
7.06792	-5.42844	0	295	-116	2555	1196	-0.108786	-0.107501	0	-0.0617808	-0.0600717	0	-0.00150287	-0.00148975	-0	-0.0334468	-0.0331046	0	-0.0334468	-0.0331046	0	-0.0334468	-0.0331046	0	0	0	-0.00029795	0	0	-0.00331046	-0.336739	-0.331036	0	-0.142232	-0.140606	0	-0.16524	0.0230073	-0.104078	-0.0365275	0	0	0.473277	0	3.67875	0	0	0	0.781015	0.704001	-1080	1080	-500	1700	-10	10	-10	-0	0	-0	250	1.2	0.2	177	-1.2	-1	2555	0.07	0	0	0	0	
7.07796	-5.42845	0	295	-116	2555	1196	-0.108768	-0.107512	0	-0.0628726	-0.0611509	0	-0.00150248	-0.0014888	-0	-0.0334646	-0.033094	0	-0.0334646	-0.033094	0	-0.0334646	-0.033094	0	0	0	-0.00029776	0	0	-0.0033094	-0.336739	-0.331036	0	-0.142232	-0.140606	0	-0.16524	0.0230073	-0.104078	-0.0365275	0	0	0.473277	0	3.67875	0	0	0	0.780825	0.703866	-1080	1080	-500	1700	-10	10	-10	-0	0	-0	250	1.2	0.2	177	-1.2	-1	2555	0.07	0	0	0	0	
7.08796	-5.42844	0	295	-116	2555	1196	-0.108731	-0.107504	0	-0.0639599	-0.062226	0	-0.00150402	-0.00148948	-0	-0.0335008	-0.0331016	0	-0.0335008	-0.0331016	0	-0.0335008	-0.0331016	0	0	0	-0.000297897	0	0	-0.00331016	-0.336739	-0.331036	0	-0.142232	-0.140606	0	-0.16524	0.0230073	-0.104078	-0.0365275	0	0	0.473277	0	3.67875	0	0	0	0.780541	0.703664	-1080	1080	-500	1700	-10	10	-10	-0	0	-0	250	1.2	0.2	177	-1.2	-1	2555	0.07	0	0	0	0	
7.09798	-5.42843	0	295	-116	2555	1195	-0.108699	-0.107501	0	-0.0650498	-0.0633039	0	-0.0015055	-0.00148981	-0	-0.033533	-0.0331053	0	-0.033533	-0.0331053	0	-0.033533	-0.0331053	0	0	0	-0.000297962	0	0	-0.00331053	-0.336739	-0.331036	0	-0.142232	-0.140606	0	-0.16524	0.0230074	-0.104078	-0.0365276	0	0	0.473277	0	3.67875	0	0	0	0.780162	0.703395	-1080	1080	-500	1700	-10	10	-10	-0	0	-0	250	1.2	0.2	177	-1.2	-1	2555	0.07	0	0	0	0	
7.10796	-5.42842	0	295	-116	2555	1195	-0.108669	-0.107499	0	-0.0661334	-0.0643758	0	-0.00150704	-0.00148993	-0	-0.0335628	-0.0331066	0	-0.0335628	-0.0331066	0	-0.0335628	-0.0331066	0	0	0	-0.000297986	0	0	-0.00331066	-0.336739	-0.331036	0	-0.142232	-0.140606	0	-0.16524	0.0230074	-0.104078	-0.0365276	0	0	0.473277	0	3.67875	0	0	0	0.779689	0.703058	-1080	1080	-500	1700	-10	10	-10	-0	0	-0	250	1.2	0.2	177	-1.2	-1	2555	0.07	0	0	0	0	
7.11796	-5.42842	0	295	-116	2555	1194	-0.108654	-0.107513	0	-0.0672202	-0.0654512	0	-0.00150755	-0.00148874	-0	-0.0335779	-0.0330934	0	-0.0335779	-0.0330934	0	-0.0335779	-0.0330934	0	0	0	-0.000297748	0	0	-0.00330934	-0.336739	-0.331036	0	-0.142232	-0.140606	0	-0.165239	0.0230075	-0.104079	-0.0365276	0	0	0.473277	0	3.67875	0	0	0	0.779122	0.702655	-1080	1080	-500	1700	-10	10	-10	-0	0	-0	250	1.2	0.2	177	-1.2	-1	2555	0.07	0	0	0	0	
7.12796	-5.42841	0	294	-116	2555	1193	-0.108624	-0.107512	0	-0.0683071	-0.066527	0	-0.00150963	-0.00148883	-0	-0.0336074	-0.0330943	0	-0.0336074	-0.0330943	0	-0.0336074	-0.0330943	0	0	0	-0.000297766	0	0	-0.00330943	-0.333887	-0.331036	0	-0.142232	-0.140606	0	-0.165239	0.0230075	-0.104079	-0.0365277	0	0	0.473277	0	3.67875	0	0	0	0.778461	0.702184	-1080	1080	-500	1700	-10	10	-10	-0	0	-0	250	1.2	0.2	177	-1.2	-1	2555	0.07	0	0	0	0	
7.13796	-5.42837	0	294	-116	2555	1191	-0.108552	-0.107497	0	-0.069392	-0.0676013	0	-0.00151587	-0.0014902	-0	-0.0336799	-0.0331096	0	-0.0336799	-0.0331096	0	-0.0336799	-0.0331096	0	0	0	-0.00029804	0	0	-0.00331096	-0.333887	-0.331036	0	-0.142232	-0.140606	0	-0.165239	0.0230077	-0.104079	-0.0365279	0	0	0.473277	0	3.67875	0	0	0	0.776859	0.701043	-1080	1080	-500	1700	-10	10	-10	-0	0	-0	250	1.2	0.2	177	-1.2	-1	2555	0.07	0	0	0	0	
7.14794	-5.42837	0	294	-116	2555	1191	-0.10858	-0.107496	0	-0.0704762	-0.0686747	0	-0.00151593	-0.00149026	-0	-0.0336521	-0.0331102	0	-0.0336521	-0.0331102	0	-0.0336521	-0.0331102	0	0	0	-0.000298052	0	0	-0.00331102	-0.333887	-0.331036	0	-0.142232	-0.140606	0	-0.165239	0.0230077	-0.104079	-0.0365279	0	0	0.473277	0	3.67875	0	0	0	0.776859	0.701043	-1080	1080	-500	1700	-10	10	-10	-0	0	-0	250	1.2	0.2	177	-1.2	-1	2555	0.07	0	0	0	0	
7.15791	-5.42838	0	295	-116	2555	1191	-0.108614	-0.107503	0	-0.0715586	-0.069746	0	-0.00151507	-0.00148969	-0	-0.0336172	-0.0331039	0	-0.0336172	-0.0331039	0	-0.0336172	-0.0331039	0	0	0	-0.000297938	0	0	-0.00331039	-0.336739	-0.331036	0	-0.142232	-0.140606	0	-0.165239	0.0230077	-0.104079	-0.0365279	0	0	0.473277	0	3.67875	0	0	0	0.776953	0.70111	-1080	1080	-500	1700	-10	10	-10	-0	0	-0	250	1.2	0.2	177	-1.2	-1	2555	0.07	0	0	0	0	
7.16795	-5.42839	0	295	-116	2555	1192	-0.108649	-0.107509	0	-0.072649	-0.070825	0	-0.00151392	-0.00148913	-0	-0.0335823	-0.0330977	0	-0.0335823	-0.0330977	0	-0.0335823	-0.0330977	0	0	0	-0.000297825	0	0	-0.00330977	-0.336739	-0.331036	0	-0.142232	-0.140606	0	-0.165239	0.0230076	-0.104079	-0.0365278	0	0	0.473277	0	3.67875	0	0	0	0.777141	0.701244	-1080	1080	-500	1700	-10	10	-10	-0	0	-0	250	1.2	0.2	177	-1.2	-1	2555	0.07	0	0	0	0	
7.17796	-5.4284	0	295	-116	2555	1192	-0.108659	-0.107519	0	-0.0737377	-0.0719022	0	-0.00151216	-0.00148823	-0	-0.0335722	-0.0330877	0	-0.0335722	-0.0330877	0	-0.0335722	-0.0330877	0	0	0	-0.000297647	0	0	-0.00330877	-0.336739	-0.331036	0	-0.142232	-0.140606	0	-0.165239	0.0230076	-0.104079	-0.0365277	0	0	0.473277	0	3.67875	0	0	0	0.777424	0.701445	-1080	1080	-500	1700	-10	10	-10	-0	0	-0	250	1.2	0.2	177	-1.2	-1	2555	0.07	0	0	0	0	
7.18792	-5.42838	0	295	-116	2555	1192	-0.108635	-0.107494	0	-0.0748195	-0.0729726	0	-0.00151354	-0.00149044	-0	-0.0335971	-0.0331122	0	-0.0335971	-0.0331122	0	-0.0335971	-0.0331122	0	0	0	-0.000298087	0	0	-0.00331122	-0.336739	-0.331036	0	-0.142232	-0.140606	0	-0.165239	0.0230076	-0.104078	-0.0365279	0	0	0.473277	0	3.67875	0	0	0	0.777706	0.701647	-1080	1080	-500	1700	-10	10	-10	-0	0	-0	250	1.2	0.2	177	-1.2	-1	2555	0.07	0	0	0	0	
7.19793	-5.42839	0	295	-116	2555	1193	-0.108641	-0.1075	0	-0.0759071	-0.0740488	0	-0.00151211	-0.00148987	-0	-0.0335907	-0.0331059	0	-0.0335907	-0.0331059	0	-0.0335907	-0.0331059	0	0	0	-0.000297974	0	0	-0.00331059	-0.336739	-0.331036	0	-0.142232	-0.140606	0	-0.165239	0.0230076	-0.104078	-0.0365278	0	0	0.473277	0	3.67875	0	0	0	0.777989	0.701848	-1080	1080	-500	1700	-10	10	-10	-0	0	-0	250	1.2	0.2	177	-1.2	-1	2555	0.07	0	0	0	0	
7.20796	-5.42841	0	295	-116	2555	1193	-0.108655	-0.107514	0	-0.0769963	-0.0751267	0	-0.00150999	-0.00148862	-0	-0.0335766	-0.033092	0	-0.0335766	-0.033092	0	-0.0335766	-0.033092	0	0	0	-0.000297724	0	0	-0.0033092	-0.336739	-0.331036	0	-0.142232	-0.140606	0	-0.165239	0.0230075	-0.104079	-0.0365277	0	0	0.473277	0	3.67875	0	0	0	0.778272	0.70205	-1080	1080	-500	1700	-10	10	-10	-0	0	-0	250	1.2	0.2	177	-1.2	-1	2555	0.07	0	0	0	0	
7.21839	-5.42842	0	295	-116	2555	1193	-0.108661	-0.10752	0	-0.0781299	-0.0762483	0	-0.00150865	-0.00148814	-0	-0.0335712	-0.0330867	0	-0.0335712	-0.0330867	0	-0.0335712	-0.0330867	0	0	0	-0.000297629	0	0	-0.00330867	-0.336739	-0.331036	0	-0.142232	-0.140606	0	-0.165239	0.0230075	-0.104079	-0.0365276	0	0	0.473277	0	3.67875	0	0	0	0.778555	0.702251	-1080	1080	-500	1700	-10	10	-10	-0	0	-0	250	1.2	0.2	177	-1.2	-1	2555	0.07	0	0	0	0	
7.22797	-5.42842	0	295	-116	2555	1195	-0.108671	-0.107501	0	-0.0791708	-0.0772781	0	-0.00150686	-0.00148975	-0	-0.0335608	-0.0331046	0	-0.0335608	-0.0331046	0	-0.0335608	-0.0331046	0	0	0	-0.00029795	0	0	-0.00331046	-0.336739	-0.331036	0	-0.142232	-0.140606	0	-0.165239	0.0230074	-0.104078	-0.0365276	0	0	0.473277	0	3.67875	0	0	0	0.779689	0.703058	-1080	1080	-500	1700	-10	10	-10	-0	0	-0	250	1.2	0.2	177	-1.2	-1	2555	0.07	0	0	0	0	
7.23797	-5.4283	0	294	-116	2555	1194	-0.108499	-0.107359	0	-0.0802554	-0.0783512	0	-0.00152154	-0.00150256	-0	-0.0337334	-0.0332466	0	-0.0337334	-0.0332466	0	-0.0337334	-0.0332466	0	0	0	-0.000300512	0	0	-0.00332466	-0.333887	-0.331036	0	-0.142233	-0.140605	0	-0.16524	0.0230076	-0.104077	-0.0365286	0	0	0.473277	0	3.67875	0	0	0	0.779122	0.702655	-1080	1080	-500	1700	-10	10	-10	-0	0	-0	250	1.2	0.2	177	-1.2	-1	2555	0.07	0	0	0	0	
7.24797	-5.4284	0	295	-116	2555	1193	-0.108613	-0.107501	0	-0.0813425	-0.0794272	0	-0.00151063	-0.00148981	-0	-0.0336185	-0.0331053	0	-0.0336185	-0.0331053	0	-0.0336185	-0.0331053	0	0	0	-0.000297962	0	0	-0.00331053	-0.336739	-0.331036	0	-0.142232	-0.140606	0	-0.165239	0.0230075	-0.104078	-0.0365277	0	0	0.473277	0	3.67875	0	0	0	0.778461	0.702184	-1080	1080	-500	1700	-10	10	-10	-0	0	-0	250	1.2	0.2	177	-1.2	-1	2555	0.07	0	0	0	0	
7.25797	-5.42838	0	295	-116	2555	1191	-0.108584	-0.107501	0	-0.0824275	-0.0805013	0	-0.00151554	-0.00148987	-0	-0.0336477	-0.0331059	0	-0.0336477	-0.0331059	0	-0.0336477	-0.0331059	0	0	0	-0.000297974	0	0	-0.00331059	-0.336739	-0.331036	0	-0.142232	-0.140606	0	-0.165239	0.0230077	-0.104079	-0.0365279	0	0	0.473277	0	3.67875	0	0	0	0.776859	0.701043	-1080	1080	-500	1700	-10	10	-10	-0	0	-0	250	1.2	0.2	177	-1.2	-1	2555	0.07	0	0	0	0	
7.26796	-5.42837	0	295	-116	2555	1191	-0.108576	-0.107493	0	-0.0835129	-0.0815759	0	-0.00151598	-0.00149059	-0	-0.0336558	-0.0331139	0	-0.0336558	-0.0331139	0	-0.0336558	-0.0331139	0	0	0	-0.000298117	0	0	-0.00331139	-0.336739	-0.331036	0	-0.142232	-0.140606	0	-0.165239	0.0230077	-0.104078	-0.0365279	0	0	0.473277	0	3.67875	0	0	0	0.776953	0.70111	-1080	1080	-500	1700	-10	10	-10	-0	0	-0	250	1.2	0.2	177	-1.2	-1	2555	0.07	0	0	0	0	
7.27796	-5.42837	0	295	-116	2555	1192	-0.108567	-0.107484	0	-0.0845979	-0.0826501	0	-0.00151648	-0.00149136	-0	-0.0336645	-0.0331225	0	-0.0336645	-0.0331225	0	-0.0336645	-0.0331225	0	0	0	-0.000298272	0	0	-0.00331225	-0.336739	-0.331036	0	-0.142232	-0.140606	0	-0.165239	0.0230077	-0.104078	-0.036528	0	0	0.473277	0	3.67875	0	0	0	0.777047	0.701177	-1080	1080	-500	1700	-10	10	-10	-0	0	-0	250	1.2	0.2	177	-1.2	-1	2555	0.07	0	0	0	0	
7.28798	-5.42838	0	295	-116	2555	1192	-0.10858	-0.107497	0	-0.085686	-0.0837274	0	-0.00151501	-0.0014902	-0	-0.0336514	-0.0331096	0	-0.0336514	-0.0331096	0	-0.0336514	-0.0331096	0	0	0	-0.00029804	0	0	-0.00331096	-0.336739	-0.331036	0	-0.142232	-0.140606	0	-0.165239	0.0230077	-0.104079	-0.0365279	0	0	0.473277	0	3.67875	0	0	0	0.777141	0.701244	-1080	1080	-500	1700	-10	10	-10	-0	0	-0	250	1.2	0.2	177	-1.2	-1	2555	0.07	0	0	0	0	
7.29805	-5.42838	0	295	-116	2555	1192	-0.108589	-0.107505	0	-0.08678	-0.0848105	0	-0.00151397	-0.00148945	-0	-0.033643	-0.0331013	0	-0.033643	-0.0331013	0	-0.033643	-0.0331013	0	0	0	-0.000297891	0	0	-0.00331013	-0.336739	-0.331036	0	-0.142232	-0.140606	0	-0.165239	0.0230076	-0.104079	-0.0365278	0	0	0.473277	0	3.67875	0	0	0	0.777235	0.701311	-1080	1080	-500	1700	-10	10	-10	-0	0	-0	250	1.2	0.2	177	-1.2	-1	2555	0.07	0	0	0	0	
7.30806	-5.42837	0	295	-116	2555	1192	-0.108568	-0.107484	0	-0.0878663	-0.0858858	0	-0.00151559	-0.00149133	-0	-0.0336642	-0.0331222	0	-0.0336642	-0.0331222	0	-0.0336642	-0.0331222	0	0	0	-0.000298266	0	0	-0.00331222	-0.336739	-0.331036	0	-0.142232	-0.140606	0	-0.165239	0.0230076	-0.104078	-0.036528	0	0	0.473277	0	3.67875	0	0	0	0.777329	0.701378	-1080	1080	-500	1700	-10	10	-10	-0	0	-0	250	1.2	0.2	177	-1.2	-1	2555	0.07	0	0	0	0	
7.31807	-5.42835	0	295	-116	2555	1192	-0.108546	-0.107463	0	-0.0889527	-0.0869614	0	-0.00151725	-0.00149324	-0	-0.0336857	-0.0331433	0	-0.0336857	-0.0331433	0	-0.0336857	-0.0331433	0	0	0	-0.000298648	0	0	-0.00331433	-0.336739	-0.331036	0	-0.142232	-0.140606	0	-0.16524	0.0230077	-0.104078	-0.0365281	0	0	0.473277	0	3.67875	0	0	0	0.777424	0.701445	-1080	1080	-500	1700	-10	10	-10	-0	0	-0	250	1.2	0.2	177	-1.2	-1	2555	0.07	0	0	0	0	
7.328	-5.42836	0	295	-116	2555	1192	-0.108553	-0.107469	0	-0.0900312	-0.0880292	0	-0.00151636	-0.00149264	-0	-0.033679	-0.0331367	0	-0.033679	-0.0331367	0	-0.033679	-0.0331367	0	0	0	-0.000298529	0	0	-0.00331367	-0.336739	-0.331036	0	-0.142232	-0.140606	0	-0.165239	0.0230076	-0.104078	-0.036528	0	0	0.473277	0	3.67875	0	0	0	0.777518	0.701513	-1080	1080	-500	1700	-10	10	-10	-0	0	-0	250	1.2	0.2	177	-1.2	-1	2555	0.07	0	0	0	0	
7.33795	-5.42849	0	295	-117	2555	1193	-0.108723	-0.10761	0	-0.0911125	-0.0890994	0	-0.00150074	-0.00148006	-0	-0.0335083	-0.0329967	0	-0.0335083	-0.0329967	0	-0.0335083	-0.0329967	0	0	0	-0.000296011	0	0	-0.00329967	-0.336739	-0.333887	0	-0.142231	-0.140607	0	-0.165239	0.0230074	-0.10408	-0.036527	0	0	0.473277	0	3.67875	0	0	0	0.778461	0.702184	-1080	1080	-500	1700	-10	10	-10	-0	0	-0	250	1.2	0.2	177	-1.2	-1	2555	0.07	0	0	0	0	
7.34797	-5.42837	0	295	-116	2555	1191	-0.108547	-0.107492	0	-0.0922008	-0.0901772	0	-0.00151632	-0.00149065	-0	-0.033685	-0.0331145	0	-0.033685	-0.0331145	0	-0.033685	-0.0331145	0	0	0	-0.000298129	0	0	-0.00331145	-0.336739	-0.331036	0	-0.142232	-0.140606	0	-0.165239	0.0230077	-0.104078	-0.0365279	0	0	0.473277	0	3.67875	0	0	0	0.776859	0.701043	-1080	1080	-500	1700	-10	10	-10	-0	0	-0	250	1.2	0.2	177	-1.2	-1	2555	0.07	0	0	0	0	
7.35803	-5.42838	0	295	-116	2555	1191	-0.108563	-0.10748	0	-0.0932923	-0.0912578	0	-0.00151481	-0.00148916	-0	-0.0336681	-0.0331265	0	-0.0336681	-0.0331265	0	-0.0336681	-0.0331265	0	0	0	-0.000297831	0	0	-0.0033098	-0.336739	-0.331036	0	-0.142232	-0.140606	0	-0.165239	0.0230077	-0.104079	-0.0365278	0	0	0.473277	0	3.67875	0	0	0	0.776859	0.701043	-1080	1080	-500	1700	-10	10	-10	-0	0	-0	250	1.2	0.2	177	-1.2	-1	2555	0.07	0	0	0	0	
7.36802	-5.42838	0	295	-116	2555	1191	-0.108558	-0.107474	0	-0.094377	-0.0923316	0	-0.00151532	-0.00148995	-0	-0.0336739	-0.0331321	0	-0.0336739	-0.0331321	0	-0.0336739	-0.0331321	0	0	0	-0.000297933	0	0	-0.00331036	-0.336739	-0.331036	0	-0.142232	-0.140606	0	-0.165239	0.0230077	-0.104079	-0.0365279	0	0	0.473277	0	3.67875	0	0	0	0.776954	0.701111	-1080	1080	-500	1700	-10	10	-10	-0	0	-0	250	1.2	0.2	177	-1.2	-1	2555	0.07	0	0	0	0	
7.37801	-5.42836	0	295	-116	2555	1192	-0.108537	-0.107454	0	-0.0954612	-0.093405	0	-0.0015172	-0.00149208	-0	-0.0336947	-0.0331527	0	-0.0336947	-0.0331527	0	-0.0336947	-0.0331527	0	0	0	-0.000298302	0	0	-0.00331241	-0.336739	-0.331036	0	-0.142232	-0.140606	0	-0.165239	0.0230077	-0.104078	-0.036528	0	0	0.473277	0	3.67875	0	0	0	0.77705	0.701179	-1080	1080	-500	1700	-10	10	-10	-0	0	-0	250	1.2	0.2	177	-1.2	-1	2555	0.07	0	0	0	0	
7.38801	-5.42836	0	295	-116	2555	1192	-0.108539	-0.107455	0	-0.0965464	-0.0944793	0	-0.00151705	-0.00149222	-0	-0.0336931	-0.033151	0	-0.0336931	-0.033151	0	-0.0336931	-0.033151	0	0	0	-0.000298272	0	0	-0.00331225	-0.336739	-0.331036	0	-0.142232	-0.140606	0	-0.165239	0.0230077	-0.104078	-0.036528	0	0	0.473277	0	3.67875	0	0	0	0.777146	0.701247	-1080	1080	-500	1700	-10	10	-10	-0	0	-0	250	1.2	0.2	177	-1.2	-1	2555	0.07	0	0	0	0	
7.39808	-5.42836	0	295	-117	2555	1192	-0.10854	-0.107457	0	-0.0976396	-0.0955616	0	-0.0015169	-0.00149235	-0	-0.0336914	-0.0331494	0	-0.0336914	-0.0331494	0	-0.0336914	-0.0331494	0	0	0	-0.000298242	0	0	-0.00331208	-0.336739	-0.333887	0	-0.142232	-0.140606	0	-0.165239	0.0230077	-0.104078	-0.036528	0	0	0.473277	0	3.67875	0	0	0	0.777241	0.701316	-1080	1080	-500	1700	-10	10	-10	-0	0	-0	250	1.2	0.2	177	-1.2	-1	2555	0.07	0	0	0	0	
7.40801	-5.42836	0	295	-117	2555	1192	-0.108548	-0.107465	0	-0.0987177	-0.096629	0	-0.0015162	-0.00149195	-0	-0.0336836	-0.0331417	0	-0.0336836	-0.0331417	0	-0.0336836	-0.0331417	0	0	0	-0.000298105	0	0	-0.00331132	-0.336739	-0.333887	0	-0.142232	-0.140606	0	-0.165239	0.0230077	-0.104078	-0.036528	0	0	0.473277	0	3.67875	0	0	0	0.777337	0.701384	-1080	1080	-500	1700	-10	10	-10	-0	0	-0	250	1.2	0.2	177	-1.2	-1	2555	0.07	0	0	0	0	
7.41796	-5.42836	0	295	-117	2555	1192	-0.108549	-0.107437	0	-0.0997971	-0.0976973	0	-0.00151611	-0.00149215	-0	-0.0336826	-0.0331693	0	-0.0336826	-0.0331693	0	-0.0336826	-0.0331693	0	0	0	-0.000298087	0	0	-0.00331122	-0.336739	-0.333887	0	-0.142232	-0.140606	0	-0.165239	0.0230076	-0.104078	-0.036528	0	0	0.473277	0	3.67875	0	0	0	0.777433	0.701452	-1080	1080	-500	1700	-10	10	-10	-0	0	-0	250	1.2	0.2	177	-1.2	-1	2555	0.07	0	0	0	0	
7.42802	-5.42838	0	295	-117	2555	1192	-0.108574	-0.107433	0	-0.10089	-0.0987785	0	-0.0015139	-0.00149054	-0	-0.033658	-0.0331736	0	-0.033658	-0.0331736	0	-0.033658	-0.0331736	0	0	0	-0.000297653	0	0	-0.00330881	-0.336739	-0.333887	0	-0.142232	-0.140606	0	-0.165239	0.0230076	-0.104078	-0.0365279	0	0	0.473277	0	3.67875	0	0	0	0.777624	0.701588	-1080	1080	-500	1700	-10	10	-10	-0	0	-0	250	1.2	0.2	177	-1.2	-1	2555	0.07	0	0	0	0	
7.43808	-5.42839	0	295	-116	2555	1194	-0.108596	-0.107397	0	-0.101982	-0.0998588	0	-0.00151193	-0.00149202	-0	-0.0336362	-0.0332089	0	-0.0336362	-0.0332089	0	-0.0336362	-0.0332089	0	0	0	-0.000299826	0	0	-0.00333513	-0.336739	-0.331036	0	-0.142232	-0.140606	0	-0.16524	0.0230075	-0.104078	-0.0365279	0	0	0.473277	0	3.67875	0	0	0	0.778769	0.702404	-1080	1080	-500	1700	-10	10	-10	-0	0	-0	250	1.2	0.2	177	-1.2	-1	2555	0.07	0	0	0	0	
7.44802	-5.42837	0	295	-116	2555	1192	-0.108552	-0.107383	0	-0.103061	-0.100926	0	-0.00151584	-0.00149188	-0	-0.0336796	-0.0332233	0	-0.0336796	-0.0332233	0	-0.0336796	-0.0332233	0	0	0	-0.000298034	0	0	-0.00331092	-0.336739	-0.331036	0	-0.142232	-0.140606	0	-0.165239	0.0230076	-0.104078	-0.036528	0	0	0.473277	0	3.67875	0	0	0	0.777433	0.701452	-1080	1080	-500	1700	-10	10	-10	-0	0	-0	250	1.2	0.2	177	-1.2	-1	2555	0.07	0	0	0	0	
7.45805	-5.42833	0	295	-116	2555	1192	-0.108514	-0.107345	0	-0.10415	-0.102003	0	-0.00151927	-0.0014964	-0	-0.0337176	-0.0332609	0	-0.0337176	-0.0332609	0	-0.0337176	-0.0332609	0	0	0	-0.000298708	0	0	-0.00331467	-0.336739	-0.331036	0	-0.142232	-0.140606	0	-0.16524	0.0230077	-0.104078	-0.0365283	0	0	0.473277	0	3.67875	0	0	0	0.777815	0.701724	-1080	1080	-500	1700	-10	10	-10	-0	0	-0	250	1.2	0.2	177	-1.2	-1	2555	0.07	0	0	0	0	
7.46801	-5.42835	0	295	-116	2555	1193	-0.108543	-0.107373	0	-0.105231	-0.103072	0	-0.00151672	-0.00149503	-0	-0.0336894	-0.0332329	0	-0.0336894	-0.0332329	0	-0.0336894	-0.0332329	0	0	0	-0.000298207	0	0	-0.00331188	-0.336739	-0.331036	0	-0.142232	-0.140606	0	-0.16524	0.0230076	-0.104078	-0.0365281	0	0	0.473277	0	3.67875	0	0	0	0.778197	0.701996	-1080	1080	-500	1700	-10	10	-10	-0	0	-0	250	1.2	0.2	177	-1.2	-1	2555	0.07	0	0	0	0	
7.47796	-5.42835	0	295	-117	2555	1193	-0.108551	-0.107381	0	-0.106311	-0.104141	0	-0.00151602	-0.00149548	-0	-0.0336816	-0.0332253	0	-0.0336816	-0.0332253	0	-0.0336816	-0.0332253	0	0	0	-0.00029807	0	0	-0.00331112	-0.336739	-0.333887	0	-0.142232	-0.140606	0	-0.16524	0.0230076	-0.104078	-0.0365281	0	0	0.473277	0	3.67875	0	0	0	0.778578	0.702268	-1080	1080	-500	1700	-10	10	-10	-0	0	-0	250	1.2	0.2	177	-1.2	-1	2555	0.07	0	0	0	0	
7.48803	-5.42836	0	295	-117	2555	1194	-0.108562	-0.107392	0	-0.107404	-0.105223	0	-0.00151496	-0.00149558	-0	-0.0336698	-0.0332137	0	-0.0336698	-0.0332137	0	-0.0336698	-0.0332137	0	0	0	-0.000297861	0	0	-0.00330996	-0.336739	-0.333887	0	-0.142232	-0.140606	0	-0.16524	0.0230075	-0.104078	-0.0365281	0	0	0.473277	0	3.67875	0	0	0	0.77896	0.702539	-1080	1080	-500	1700	-10	10	-10	-0	0	-0	250	1.2	0.2	177	-1.2	-1	2555	0.07	0	0	0	0	
7.49807	-5.42836	0	295	-116	2555	1195	-0.108576	-0.107348	0	-0.108494	-0.1063	0	-0.00151375	-0.00149808	-0	-0.0336564	-0.0332574	0	-0.0336564	-0.0332574	0	-0.0336564	-0.0332574	0	0	0	-0.000300186	0	0	-0.00333714	-0.336739	-0.331036	0	-0.142233	-0.140605	0	-0.16524	0.0230075	-0.104077	-0.0365282	0	0	0.473277	0	3.67875	0	0	0	0.780197	0.703419	-1080	1080	-500	1700	-10	10	-10	-0	0	-0	250	1.2	0.2	177	-1.2	-1	2555	0.07	0	0	0	0	
7.50804	-5.42834	0	295	-116	2555	1195	-0.108551	-0.107323	0	-0.109576	-0.10737	0	-0.00151605	-0.00149922	-0	-0.0336819	-0.0332827	0	-0.0336819	-0.0332827	0	-0.0336819	-0.0332827	0	0	0	-0.000300643	0	0	-0.00333968	-0.336739	-0.331036	0	-0.142233	-0.140605	0	-0.16524	0.0230075	-0.104077	-0.0365283	0	0	0.473277	0	3.67875	0	0	0	0.779817	0.703149	-1080	1080	-500	1700	-10	10	-10	-0	0	-0	250	1.2	0.2	177	-1.2	-1	2555	0.07	0	0	0	0	
7.518	-5.42835	0	295	-117	2555	1194	-0.108561	-0.107362	0	-0.110658	-0.10844	0	-0.00151508	-0.00149712	-0	-0.0336712	-0.0332435	0	-0.0336712	-0.0332435	0	-0.0336712	-0.0332435	0	0	0	-0.000300451	0	0	-0.00333861	-0.336739	-0.333887	0	-0.142232	-0.140606	0	-0.16524	0.0230075	-0.104077	-0.0365282	0	0	0.473277	0	3.67875	0	0	0	0.779436	0.702878	-1080	1080	-500	1700	-10	10	-10	-0	0	-0	250	1.2	0.2	177	-1.2	-1	2555	0.07	0	0	0	0	
7.52804	-5.42835	0	295	-117	2555	1194	-0.10855	-0.107379	0	-0.111748	-0.109518	0	-0.00151611	-0.00149671	-0	-0.0336826	-0.0332263	0	-0.0336826	-0.0332263	0	-0.0336826	-0.0332263	0	0	0	-0.000300655	0	0	-0.00333974	-0.336739	-0.333887	0	-0.142232	-0.140606	0	-0.16524	0.0230076	-0.104078	-0.0365282	0	0	0.473277	0	3.67875	0	0	0	0.77896	0.702539	-1080	1080	-500	1700	-10	10	-10	-0	0	-0	250	1.2	0.2	177	-1.2	-1	2555	0.07	0	0	0	0	
7.53801	-5.42836	0	295	-117	2555	1192	-0.108542	-0.107401	0	-0.112829	-0.110588	0	-0.00151675	-0.00149306	-0	-0.0336897	-0.0332048	0	-0.0336897	-0.0332048	0	-0.0336897	-0.0332048	0	0	0	-0.000298213	0	0	-0.00331192	-0.336739	-0.333887	0	-0.142232	-0.140606	0	-0.16524	0.0230076	-0.104078	-0.0365281	0	0	0.473277	0	3.67875	0	0	0	0.777528	0.70152	-1080	1080	-500	1700	-10	10	-10	-0	0	-0	250	1.2	0.2	177	-1.2	-1	2555	0.07	0	0	0	0	
7.54804	-5.42836	0	295	-117	2555	1192	-0.10855	-0.10738	0	-0.113918	-0.111665	0	-0.00151605	-0.00149323	-0	-0.0336819	-0.0332256	0	-0.0336819	-0.0332256	0	-0.0336819	-0.0332256	0	0	0	-0.000298076	0	0	-0.00331116	-0.336739	-0.333887	0	-0.142232	-0.140606	0	-0.16524	0.0230076	-0.104078	-0.036528	0	0	0.473277	0	3.67875	0	0	0	0.777815	0.701724	-1080	1080	-500	1700	-10	10	-10	-0	0	-0	250	1.2	0.2	177	-1.2	-1	2555	0.07	0	0	0	0	
7.55801	-5.42838	0	295	-117	2555	1193	-0.108582	-0.107384	0	-0.115001	-0.112736	0	-0.00151314	-0.0014915	-0	-0.0336496	-0.0332222	0	-0.0336496	-0.0332222	0	-0.0336496	-0.0332222	0	0	0	-0.000297504	0	0	-0.00330798	-0.336739	-0.333887	0	-0.142232	-0.140606	0	-0.165239	0.0230076	-0.104078	-0.0365279	0	0	0.473277	0	3.67875	0	0	0	0.778197	0.701996	-1080	1080	-500	1700	-10	10	-10	-0	0	-0	250	1.2	0.2	177	-1.2	-1	2555	0.07	0	0	0	0	
7.56802	-5.42835	0	295	-117	2555	1193	-0.108553	-0.107326	0	-0.116088	-0.11381	0	-0.00151581	-0.00149556	-0	-0.0336793	-0.03328	0	-0.0336793	-0.03328	0	-0.0336793	-0.03328	0	0	0	-0.000298028	0	0	-0.00331089	-0.336739	-0.333887	0	-0.142232	-0.140606	0	-0.16524	0.0230076	-0.104078	-0.0365281	0	0	0.473277	0	3.67875	0	0	0	0.778674	0.702336	-1080	1080	-500	1700	-10	10	-10	-0	0	-0	250	1.2	0.2	177	-1.2	-1	2555	0.07	0	0	0	0	
7.57802	-5.42835	0	295	-117	2555	1195	-0.108571	-0.107286	0	-0.117174	-0.114884	0	-0.00151417	-0.00149822	-0	-0.0336611	-0.0333191	0	-0.0336611	-0.0333191	0	-0.0336611	-0.0333191	0	0	0	-0.00030027	0	0	-0.00333761	-0.336739	-0.333887	0	-0.142233	-0.140605	0	-0.16524	0.0230075	-0.104077	-0.0365282	0	0	0.473277	0	3.67875	0	0	0	0.780102	0.703352	-1080	1080	-500	1700	-10	10	-10	-0	0	-0	250	1.2	0.2	177	-1.2	-1	2555	0.07	0	0	0	0	
7.58801	-5.42834	0	295	-117	2555	1195	-0.108554	-0.107269	0	-0.118257	-0.115954	0	-0.00151572	-0.00149918	-0	-0.0336782	-0.0333361	0	-0.0336782	-0.0333361	0	-0.0336782	-0.0333361	0	0	0	-0.000300577	0	0	-0.00333931	-0.336739	-0.333887	0	-0.142233	-0.140605	0	-0.16524	0.0230075	-0.104077	-0.0365283	0	0	0.473277	0	3.67875	0	0	0	0.779912	0.703217	-1080	1080	-500	1700	-10	10	-10	-0	0	-0	250	1.2	0.2	177	-1.2	-1	2555	0.07	0	0	0	0	
7.59809	-5.42834	0	295	-117	2555	1194	-0.108536	-0.10728	0	-0.119352	-0.117037	0	-0.00151736	-0.00149766	-0	-0.0336964	-0.0333255	0	-0.0336964	-0.0333255	0	-0.0336964	-0.0333255	0	0	0	-0.000298332	0	0	-0.00331258	-0.336739	-0.333887	0	-0.142232	-0.140606	0	-0.16524	0.0230076	-0.104077	-0.0365283	0	0	0.473277	0	3.67875	0	0	0	0.778864	0.702472	-1080	1080	-500	1700	-10	10	-10	-0	0	-0	250	1.2	0.2	177	-1.2	-1	2555	0.07	0	0	0	0	
7.60797	-5.42836	0	295	-117	2555	1195	-0.108567	-0.107282	0	-0.120424	-0.118096	0	-0.00151457	-0.0014969	-0	-0.0336654	-0.0333234	0	-0.0336654	-0.0333234	0	-0.0336654	-0.0333234	0	0	0	-0.000297784	0	0	-0.00330953	-0.336739	-0.333887	0	-0.142232	-0.140606	0	-0.16524	0.0230075	-0.104077	-0.0365282	0	0	0.473277	0	3.67875	0	0	0	0.779531	0.702946	-1080	1080	-500	1700	-10	10	-10	-0	0	-0	250	1.2	0.2	177	-1.2	-1	2555	0.07	0	0	0	0	
7.61801	-5.42833	0	295	-116	2555	1196	-0.108551	-0.107209	0	-0.121515	-0.119173	0	-0.00151602	-0.00150318	-0	-0.0336816	-0.0333964	0	-0.0336816	-0.0333964	0	-0.0336816	-0.0333964	0	0	0	-0.000300637	0	0	-0.00333964	-0.336739	-0.331036	0	-0.142233	-0.140605	0	-0.16524	0.0230074	-0.104077	-0.0365285	0	0	0.473277	0	3.67875	0	0	0	0.781147	0.704094	-1080	1080	-500	1700	-10	10	-10	-0	0	-0	250	1.2	0.2	177	-1.2	-1	2555	0.07	0	0	0	0	
7.62801	-5.42835	0	295	-117	2555	1196	-0.108582	-0.107239	0	-0.122601	-0.120245	0	-0.00151326	-0.00150045	-0	-0.033651	-0.033366	0	-0.033651	-0.033366	0	-0.033651	-0.033366	0	0	0	-0.00030009	0	0	-0.0033366	-0.336739	-0.333887	0	-0.142233	-0.140605	0	-0.16524	0.0230074	-0.104077	-0.0365283	0	0	0.473277	0	3.67875	0	0	0	0.781147	0.704094	-1080	1080	-500	1700	-10	10	-10	-0	0	-0	250	1.2	0.2	177	-1.2	-1	2555	0.07	0	0	0	0	
7.63802	-5.42833	0	295	-117	2555	1196	-0.108556	-0.107241	0	-0.123687	-0.121318	0	-0.00151563	-0.00150279	-0	-0.0336772	-0.0333636	0	-0.0336772	-0.0333636	0	-0.0336772	-0.0333636	0	0	0	-0.000300559	0	0	-0.00333921	-0.336739	-0.333887	0	-0.142233	-0.140605	0	-0.16524	0.0230074	-0.104077	-0.0365284	0	0	0.473277	0	3.67875	0	0	0	0.781147	0.704094	-1080	1080	-500	1700	-10	10	-10	-0	0	-0	250	1.2	0.2	177	-1.2	-1	2555	0.07	0	0	0	0	
7.64801	-5.42834	0	295	-117	2555	1196	-0.108569	-0.107255	0	-0.124772	-0.12239	0	-0.00151441	-0.00150131	-0	-0.0336638	-0.0333502	0	-0.0336638	-0.0333502	0	-0.0336638	-0.0333502	0	0	0	-0.000300318	0	0	-0.00333787	-0.336739	-0.333887	0	-0.142233	-0.140605	0	-0.16524	0.0230074	-0.104077	-0.0365283	0	0	0.473277	0	3.67875	0	0	0	0.781052	0.704027	-1080	1080	-500	1700	-10	10	-10	-0	0	-0	250	1.2	0.2	177	-1.2	-1	2555	0.07	0	0	0	0	
7.65796	-5.42833	0	295	-117	2555	1196	-0.108554	-0.10724	0	-0.125852	-0.123457	0	-0.00151575	-0.00150234	-0	-0.0336786	-0.0333649	0	-0.0336786	-0.0333649	0	-0.0336786	-0.0333649	0	0	0	-0.000300583	0	0	-0.00333934	-0.336739	-0.333887	0	-0.142233	-0.140605	0	-0.16524	0.0230074	-0.104077	-0.0365284	0	0	0.473277	0	3.67875	0	0	0	0.780957	0.703959	-1080	1080	-500	1700	-10	10	-10	-0	0	-0	250	1.2	0.2	177	-1.2	-1	2555	0.07	0	0	0	0	
7.66803	-5.42834	0	295	-117	2555	1196	-0.108567	-0.107253	0	-0.126945	-0.124537	0	-0.00151457	-0.00150089	-0	-0.0336654	-0.0333519	0	-0.0336654	-0.0333519	0	-0.0336654	-0.0333519	0	0	0	-0.000300348	0	0	-0.00333804	-0.336739	-0.333887	0	-0.142233	-0.140605	0	-0.16524	0.0230074	-0.104077	-0.0365283	0	0	0.473277	0	3.67875	0	0	0	0.780862	0.703892	-1080	1080	-500	1700	-10	10	-10	-0	0	-0	250	1.2	0.2	177	-1.2	-1	2555	0.07	0	0	0	0	
7.67803	-5.42835	0	295	-117	2555	1196	-0.108577	-0.107263	0	-0.128031	-0.12561	0	-0.00151369	-0.00149973	-0	-0.0336557	-0.0333422	0	-0.0336557	-0.0333422	0	-0.0336557	-0.0333422	0	0	0	-0.000300174	0	0	-0.00333707	-0.336739	-0.333887	0	-0.142233	-0.140605	0	-0.16524	0.0230074	-0.104077	-0.0365283	0	0	0.473277	0	3.67875	0	0	0	0.780767	0.703824	-1080	1080	-500	1700	-10	10	-10	-0	0	-0	250	1.2	0.2	177	-1.2	-1	2555	0.07	0	0	0	0	
7.68806	-5.42834	0	295	-117	2555	1196	-0.108556	-0.107242	0	-0.129119	-0.126685	0	-0.00151557	-0.00150131	-0	-0.0336766	-0.0333629	0	-0.0336766	-0.0333629	0	-0.0336766	-0.0333629	0	0	0	-0.000300547	0	0	-0.00333914	-0.336739	-0.333887	0	-0.142233	-0.140605	0	-0.16524	0.0230074	-0.104077	-0.0365284	0	0	0.473277	0	3.67875	0	0	0	0.780672	0.703757	-1080	1080	-500	1700	-10	10	-10	-0	0	-0	250	1.2	0.2	177	-1.2	-1	2555	0.07	0	0	0	0	
7.69807	-5.42834	0	295	-117	2555	1196	-0.108557	-0.107243	0	-0.130206	-0.127759	0	-0.00151548	-0.00150093	-0	-0.0336756	-0.0333619	0	-0.0336756	-0.0333619	0	-0.0336756	-0.0333619	0	0	0	-0.000300529	0	0	-0.00333904	-0.336739	-0.333887	0	-0.142233	-0.140605	0	-0.16524	0.0230075	-0.104077	-0.0365284	0	0	0.473277	0	3.67875	0	0	0	0.780577	0.703689	-1080	1080	-500	1700	-10	10	-10	-0	0	-0	250	1.2	0.2	177	-1.2	-1	2555	0.07	0	0	0	0	
7.70802	-5.42833	0	295	-117	2555	1196	-0.108542	-0.107228	0	-0.131286	-0.128826	0	-0.00151684	-0.001502	-0	-0.0336907	-0.0333769	0	-0.0336907	-0.0333769	0	-0.0336907	-0.0333769	0	0	0	-0.000300799	0	0	-0.00334054	-0.336739	-0.333887	0	-0.142233	-0.140605	0	-0.16524	0.0230075	-0.104077	-0.0365284	0	0	0.473277	0	3.67875	0	0	0	0.780482	0.703622	-1080	1080	-500	1700	-10	10	-10	-0	0	-0	250	1.2	0.2	177	-1.2	-1	2555	0.07	0	0	0	0	
7.71803	-5.42836	0	295	-117	2555	1195	-0.108567	-0.107282	0	-0.132372	-0.129899	0	-0.00151457	-0.0014969	-0	-0.0336654	-0.0333234	0	-0.0336654	-0.0333234	0	-0.0336654	-0.0333234	0	0	0	-0.000297784	0	0	-0.00330953	-0.336739	-0.333887	0	-0.142232	-0.140606	0	-0.16524	0.0230075	-0.104077	-0.0365282	0	0	0.473277	0	3.67875	0	0	0	0.779531	0.702946	-1080	1080	-500	1700	-10	10	-10	-0	0	-0	250	1.2	0.2	177	-1.2	-1	2555	0.07	0	0	0	0	
7.72805	-5.42832	0	295	-117	2555	1196	-0.108542	-0.107199	0	-0.13346	-0.130974	0	-0.0015169	-0.00150406	-0	-0.0336914	-0.0334061	0	-0.0336914	-0.0334061	0	-0.0336914	-0.0334061	0	0	0	-0.000300811	0	0	-0.00334061	-0.336739	-0.333887	0	-0.142233	-0.140605	0	-0.16524	0.0230074	-0.104076	-0.0365285	0	0	0.473277	0	3.67875	0	0	0	0.781147	0.704094	-1080	1080	-500	1700	-10	10	-10	-0	0	-0	250	1.2	0.2	177	-1.2	-1	2555	0.07	0	0	0	0	
7.74007	-5.42833	0	295	-117	2555	1196	-0.108554	-0.107212	0	-0.134766	-0.132263	0	-0.00151575	-0.00150291	-0	-0.0336786	-0.0333934	0	-0.0336786	-0.0333934	0	-0.0336786	-0.0333934	0	0	0	-0.000300583	0	0	-0.00333934	-0.336739	-0.333887	0	-0.142233	-0.140605	0	-0.16524	0.0230074	-0.104077	-0.0365284	0	0	0.473277	0	3.67875	0	0	0	0.781147	0.704094	-1080	1080	-500	1700	-10	10	-10	-0	0	-0	250	1.2	0.2	177	-1.2	-1	2555	0.07	0	0	0	0	
7.74792	-5.42832	0	295	-117	2555	1196	-0.108547	-0.107204	0	-0.135618	-0.133104	0	-0.00151645	-0.00150361	-0	-0.0336863	-0.0334011	0	-0.0336863	-0.0334011	0	-0.0336863	-0.0334011	0	0	0	-0.000300721	0	0	-0.00334011	-0.336739	-0.333887	0	-0.142233	-0.140605	0	-0.16524	0.0230074	-0.104077	-0.0365285	0	0	0.473277	0	3.67875	0	0	0	0.781147	0.704094	-1080	1080	-500	1700	-10	10	-10	-0	0	-0	250	1.2	0.2	177	-1.2	-1	2555	0.07	0	0	0	0	
7.75794	-5.4278	0	294	-116	2555	1196	-0.107871	-0.106528	0	-0.136698	-0.134171	0	-0.00157818	-0.00156482	-0	-0.0343652	-0.0340742	0	-0.0343652	-0.0340742	0	-0.0343652	-0.0340742	0	0	0	-0.000312964	0	0	-0.00340742	-0.333887	-0.331036	0	-0.142236	-0.140602	0	-0.165244	0.023008	-0.104069	-0.0365329	0	0	0.473277	0	3.67875	0	0	0	0.781147	0.704094	-1080	1080	-500	1700	-10	10	-10	-0	0	-0	250	1.2	0.2	177	-1.2	-1	2555	0.07	0	0	0	0	
7.76797	-5.42836	0	295	-117	2555	1196	-0.108589	-0.107246	0	-0.137788	-0.135247	0	-0.00151263	-0.00149982	-0	-0.0336439	-0.033359	0	-0.0336439	-0.033359	0	-0.0336439	-0.033359	0	0	0	-0.000299964	0	0	-0.0033359	-0.336739	-0.333887	0	-0.142233	-0.140605	0	-0.16524	0.0230074	-0.104077	-0.0365282	0	0	0.473277	0	3.67875	0	0	0	0.781147	0.704094	-1080	1080	-500	1700	-10	10	-10	-0	0	-0	250	1.2	0.2	177	-1.2	-1	2555	0.07	0	0	0	0	
7.77803	-5.42834	0	295	-117	2555	1196	-0.108594	-0.107251	0	-0.13888	-0.136326	0	-0.00151478	-0.00150195	-0	-0.0336393	-0.0333542	0	-0.0336393	-0.0333542	0	-0.0336393	-0.0333542	0	0	0	-0.000300391	0	0	-0.00333827	-0.336739	-0.333887	0	-0.142233	-0.140605	0	-0.16524	0.0230074	-0.104077	-0.0365284	0	0	0.473277	0	3.67875	0	0	0	0.781147	0.704094	-1080	1080	-500	1700	-10	10	-10	-0	0	-0	250	1.2	0.2	177	-1.2	-1	2555	0.07	0	0	0	0	
7.78801	-5.42835	0	295	-117	2555	1196	-0.108606	-0.107263	0	-0.139963	-0.137396	0	-0.00151337	-0.00150056	-0	-0.0336268	-0.0333419	0	-0.0336268	-0.0333419	0	-0.0336268	-0.0333419	0	0	0	-0.000300168	0	0	-0.00333704	-0.336739	-0.333887	0	-0.142233	-0.140605	0	-0.16524	0.0230074	-0.104077	-0.0365283	0	0	0.473277	0	3.67875	0	0	0	0.781146	0.704094	-1080	1080	-500	1700	-10	10	-10	-0	0	-0	250	1.2	0.2	177	-1.2	-1	2555	0.07	0	0	0	0	
7.79957	-5.42834	0	295	-117	2555	1196	-0.108587	-0.107244	0	-0.141219	-0.138636	0	-0.00151484	-0.00150201	-0	-0.0336464	-0.0333612	0	-0.0336464	-0.0333612	0	-0.0336464	-0.0333612	0	0	0	-0.000300517	0	0	-0.00333897	-0.336739	-0.333887	0	-0.142233	-0.140605	0	-0.16524	0.0230074	-0.104077	-0.0365284	0	0	0.473277	0	3.67875	0	0	0	0.781145	0.704093	-1080	1080	-500	1700	-10	10	-10	-0	0	-0	250	1.2	0.2	177	-1.2	-1	2555	0.07	0	0	0	0	
7.80795	-5.42835	0	295	-117	2555	1196	-0.108604	-0.107261	0	-0.142129	-0.139535	0	-0.00151298	-0.00150017	-0	-0.0336289	-0.0333439	0	-0.0336289	-0.0333439	0	-0.0336289	-0.0333439	0	0	0	-0.000300204	0	0	-0.00333724	-0.336739	-0.333887	0	-0.142233	-0.140605	0	-0.16524	0.0230074	-0.104077	-0.0365283	0	0	0.473277	0	3.67875	0	0	0	0.781144	0.704092	-1080	1080	-500	1700	-10	10	-10	-0	0	-0	250	1.2	0.2	177	-1.2	-1	2555	0.07	0	0	0	0	
7.81875	-5.42795	0	295	-116	2555	1196	-0.108085	-0.106742	0	-0.143297	-0.140688	0	-0.00155995	-0.00154673	-0	-0.03415	-0.0338606	0	-0.03415	-0.0338606	0	-0.03415	-0.0338606	0	0	0	-0.000309581	0	0	-0.00338896	-0.336739	-0.331036	0	-0.142235	-0.140603	0	-0.165243	0.0230078	-0.104071	-0.0365316	0	0	0.473277	0	3.67875	0	0	0	0.781143	0.704092	-1080	1080	-500	1700	-10	10	-10	-0	0	-0	250	1.2	0.2	177	-1.2	-1	2555	0.07	0	0	0	0	
7.82803	-5.42836	0	295	-117	2555	1196	-0.108611	-0.107268	0	-0.144305	-0.141684	0	-0.00151178	-0.00149897	-0	-0.0336218	-0.0333369	0	-0.0336218	-0.0333369	0	-0.0336218	-0.0333369	0	0	0	-0.000300078	0	0	-0.00333654	-0.336739	-0.333887	0	-0.142233	-0.140605	0	-0.16524	0.0230074	-0.104077	-0.0365282	0	0	0.473277	0	3.67875	0	0	0	0.781143	0.704091	-1080	1080	-500	1700	-10	10	-10	-0	0	-0	250	1.2	0.2	177	-1.2	-1	2555	0.07	0	0	0	0	
7.83802	-5.42816	0	295	-117	2555	1196	-0.108345	-0.107031	0	-0.145387	-0.142752	0	-0.00153564	-0.00152262	-0	-0.0338893	-0.0335734	0	-0.0338893	-0.0335734	0	-0.0338893	-0.0335734	0	0	0	-0.000304872	0	0	-0.00336308	-0.336739	-0.333887	0	-0.142234	-0.140604	0	-0.165242	0.0230076	-0.104074	-0.0365299	0	0	0.473277	0	3.67875	0	0	0	0.781142	0.704091	-1080	1080	-500	1700	-10	10	-10	-0	0	-0	250	1.2	0.2	177	-1.2	-1	2555	0.07	0	0	0	0	
7.84795	-5.42836	0	295	-117	2555	1196	-0.108594	-0.10728	0	-0.146465	-0.143818	0	-0.00151278	-0.00149967	-0	-0.0336393	-0.0333257	0	-0.0336393	-0.0333257	0	-0.0336393	-0.0333257	0	0	0	-0.000300391	0	0	-0.00333827	-0.336739	-0.333887	0	-0.142233	-0.140605	0	-0.16524	0.0230074	-0.104077	-0.0365282	0	0	0.473277	0	3.67875	0	0	0	0.781046	0.704023	-1080	1080	-500	1700	-10	10	-10	-0	0	-0	250	1.2	0.2	177	-1.2	-1	2555	0.07	0	0	0	0	
7.85802	-5.4289	0	296	-118	2555	1196	-0.109303	-0.107989	0	-0.147566	-0.144906	0	-0.00144906	-0.00143621	-0	-0.0329264	-0.0326192	0	-0.0329264	-0.0326192	0	-0.0329264	-0.0326192	0	0	0	-0.000285819	0	0	-0.00324237	-0.33959	-0.336739	0	-0.14223	-0.140609	0	-0.165236	0.0230068	-0.104085	-0.0365237	0	0	0.473277	0	3.67875	0	0	0	0.780942	0.703949	-1080	1080	-500	1700	-10	10	-10	-0	0	-0	250	1.2	0.2	177	-1.2	-1	2555	0.07	0	0	0	0	
7.86803	-5.42833	0	295	-117	2555	1196	-0.10855	-0.107236	0	-0.148652	-0.145978	0	-0.00151611	-0.00150242	-0	-0.0336826	-0.0333689	0	-0.0336826	-0.0333689	0	-0.0336826	-0.0333689	0	0	0	-0.000300655	0	0	-0.00333974	-0.336739	-0.333887	0	-0.142233	-0.140605	0	-0.16524	0.0230074	-0.104077	-0.0365284	0	0	0.473277	0	3.67875	0	0	0	0.780862	0.703892	-1080	1080	-500	1700	-10	10	-10	-0	0	-0	250	1.2	0.2	177	-1.2	-1	2555	0.07	0	0	0	0	
7.87795	-5.42832	0	295	-117	2555	1196	-0.108502	-0.107188	0	-0.149728	-0.147042	0	-0.00151787	-0.00150388	-0	-0.0337307	-0.0334168	0	-0.0337307	-0.0334168	0	-0.0337307	-0.0334168	0	0	0	-0.000301004	0	0	-0.00334168	-0.336739	-0.333887	0	-0.142233	-0.140605	0	-0.16524	0.0230075	-0.104077	-0.0365286	0	0	0.473277	0	3.67875	0	0	0	0.780767	0.703824	-1080	1080	-500	1700	-10	10	-10	-0	0	-0	250	1.2	0.2	177	-1.2	-1	2555	0.07	0	0	0	0	
7.88802	-5.42832	0	295	-117	2555	1196	-0.108513	-0.107199	0	-0.150822	-0.148122	0	-0.00151722	-0.00150294	-0	-0.0337202	-0.0334064	0	-0.0337202	-0.0334064	0	-0.0337202	-0.0334064	0	0	0	-0.000300817	0	0	-0.00334064	-0.336739	-0.333887	0	-0.142233	-0.140605	0	-0.16524	0.0230075	-0.104077	-0.0365285	0	0	0.473277	0	3.67875	0	0	0	0.780673	0.703758	-1080	1080	-500	1700	-10	10	-10	-0	0	-0	250	1.2	0.2	177	-1.2	-1	2555	0.07	0	0	0	0	
7.89808	-5.42836	0	295	-117	2555	1196	-0.108559	-0.107245	0	-0.151913	-0.1492	0	-0.00151329	-0.00149877	-0	-0.0336734	-0.03336	0	-0.0336734	-0.03336	0	-0.0336734	-0.03336	0	0	0	-0.000299982	0	0	-0.003336	-0.336739	-0.333887	0	-0.142233	-0.140605	0	-0.16524	0.0230074	-0.104077	-0.0365282	0	0	0.473277	0	3.67875	0	0	0	0.780579	0.703691	-1080	1080	-500	1700	-10	10	-10	-0	0	-0	250	1.2	0.2	177	-1.2	-1	2555	0.07	0	0	0	0	
7.90803	-5.42833	0	295	-117	2555	1196	-0.108525	-0.107211	0	-0.152993	-0.150267	0	-0.00151663	-0.0015018	-0	-0.0337074	-0.0333938	0	-0.0337074	-0.0333938	0	-0.0337074	-0.0333938	0	0	0	-0.000300589	0	0	-0.00333938	-0.336739	-0.333887	0	-0.142233	-0.140605	0	-0.16524	0.0230075	-0.104077	-0.0365284	0	0	0.473277	0	3.67875	0	0	0	0.780485	0.703624	-1080	1080	-500	1700	-10	10	-10	-0	0	-0	250	1.2	0.2	177	-1.2	-1	2555	0.07	0	0	0	0	
7.91803	-5.42873	0	296	-117	2555	1195	-0.109031	-0.107745	0	-0.154084	-0.151345	0	-0.00147155	-0.0014544	-0	-0.0331995	-0.0328625	0	-0.0331995	-0.0328625	0	-0.0331995	-0.0328625	0	0	0	-0.000289109	0	0	-0.00326097	-0.33959	-0.333887	0	-0.14223	-0.140608	0	-0.165237	0.0230071	-0.104083	-0.0365251	0	0	0.473277	0	3.67875	0	0	0	0.779535	0.702949	-1080	1080	-500	1700	-10	10	-10	-0	0	-0	250	1.2	0.2	177	-1.2	-1	2555	0.07	0	0	0	0	
