time ;e1;e2;ctrlpitch;ctrlroll;ctrlthrust;ctrlyaw;edx;edy;edz;cumulx;cumuly;cumulz;x_pred;y_pred;z_pred;dxr_pred;dyr_pred;dzr_pred;dxrT;dyrT;dzrT;dxrUn;dyrUn;dzrUn;x;y;z;dx;dy;dz;ux;uy;uz;dxd;dyd;dzd;Perpx;Tangx;Perpy;Tangy;Perpz;Tanz;ax;ay;az;pitch;roll;yaw;yawd;eyaw;kpvx;kpvy;kpvz;kpyaw;kivx;kivy;kivz;kdvx;kdvy;kdvz;kdyaw;ktg;veld;pitchoff;ke1;ke2;gravity;thr_vel;gps_accuracy;height_accuracy;gps_sat_num;gps_status
7,89312;-5,44133;0,068;50;50;1450;0;-0,000679683;0,199999;-0,000184759;-2,76019e-06;0,000812195;-7,50308e-07;0;0;-0,068;0;0;0;0;0;0;0;0;0;0;0;0;0;0;0;0;0;0;-0,000679683;0,199999;-0,000184759;-0,165137;0,0229914;-0,104253;-0,0364184;0,00244056;0;0;0;9,81;-0,0378736;0,0132645;0;0;0;-1080;1080;-500;1700;-10;10;-10;-0;0;-0;250;1,2;0,2;177;-1,2;-1;2555;0,07;4294967295;3750000128;0;16384;
7,89908;-5,44133;0,068;100;100;1500;0;-0,000680114;0,199999;-0,000149972;-6,81231e-06;0,00200379;-1,64384e-06;0;0;-0,068;0;0;0;0;0;0;0;0;0;0;0;0;0;0;0;0;0;0;-0,000680114;0,199999;-0,000149972;-0,165137;0,0229914;-0,104253;-0,0364184;0,00244056;0;0,703365;0,0802585;3,67853;-0,0376991;0,01309;0;0;0;-1080;1080;-500;1700;-10;10;-10;-0;0;-0;250;1,2;0,2;177;-1,2;-1;2555;0,07;4294967295;3750000128;0;16384;
7,90903;-5,44133;0,067;150;150;1550;0;-0,000681468;0,199999;-0,000185834;-1,35882e-05;0,00399238;-3,49159e-06;0;0;-0,067;0;0;0;0;0;0;0;0;0;0;0;0;0;0;0;0;0;0;-0,000681468;0,199999;-0,000185834;-0,165138;0,0229915;-0,104254;-0,0364185;0,00240467;0;0,70336;0,0802579;3,67857;-0,0376991;0,01309;0;0;0;-1080;1080;-500;1700;-10;10;-10;-0;0;-0;250;1,2;0,2;177;-1,2;-1;2555;0,07;4294967295;3750000128;0;16384;
7,91888;-5,44133;0,067;177;200;1600;0;-0,000681468;0,199999;-0,000185834;-2,03068e-05;0,00596416;-5,32373e-06;0;0;-0,067;0;0;0;0;0;0;0;0;0;0;0;0;0;0;0;0;0;0;-0,000681468;0,199999;-0,000185834;-0,165138;0,0229915;-0,104254;-0,0364185;0,00240467;0;0,703365;0,0802585;3,67853;-0,0376991;0,01309;0;0;0;-1080;1080;-500;1700;-10;10;-10;-0;0;-0;250;1,2;0,2;177;-1,2;-1;2555;0,07;4294967295;3750000128;0;16384;
7,92892;-5,44133;0,067;177;216;1650;0;-0,000681893;0,199999;-0,000220859;-2,71482e-05;0,00797075;-7,53961e-06;0;0;-0,067;0;0;0;0;0;0;0;0;0;0;0;0;0;0;0;0;0;0;-0,000681893;0,199999;-0,000220859;-0,165138;0,0229915;-0,104254;-0,0364185;0,00240467;0;0,702302;0,0813286;3,67853;-0,0375246;0,0132645;0;0;0;-1080;1080;-500;1700;-10;10;-10;-0;0;-0;250;1,2;0,2;177;-1,2;-1;2555;0,07;4294967295;3750000128;0;16384;
7,939;-5,44133;0,066;177;216;1700;0;-0,000683659;0,199999;-0,000221935;-3,40422e-05;0,00998754;-9,7776e-06;0;0;-0,066;0;0;0;0;0;0;0;0;0;0;0;0;0;0;0;0;0;0;-0,000683659;0,199999;-0,000221935;-0,165138;0,0229915;-0,104254;-0,0364186;0,00236879;0;0,701243;0,0802591;3,67848;-0,03735;0,01309;0;0;0;-1080;1080;-500;1700;-10;10;-10;-0;0;-0;250;1,2;0,2;177;-1,2;-1;2555;0,07;4294967295;3750000128;0;16384;
7,94897;-5,44133;0,066;177;216;1750;0;-0,000683659;0,199999;-0,000187029;-4,08562e-05;0,0119809;-1,16417e-05;0;0;-0,066;0;0;0;0;0;0;0;0;0;0;0;0;0;0;0;0;0;0;-0,000683659;0,199999;-0,000187029;-0,165138;0,0229915;-0,104254;-0,0364186;0,00236879;0;0,701243;0,079189;3,67848;-0,03735;0,0129154;0;0;0;-1080;1080;-500;1700;-10;10;-10;-0;0;-0;250;1,2;0,2;177;-1,2;-1;2555;0,07;4294967295;3750000128;0;16384;
7,95889;-5,44133;0,066;177;216;1800;0;-0,000683659;0,199999;-0,000187029;-4,76381e-05;0,0139649;-1,3497e-05;0;0;-0,066;0;0;0;0;0;0;0;0;0;0;0;0;0;0;0;0;0;0;-0,000683659;0,199999;-0,000187029;-0,165138;0,0229915;-0,104254;-0,0364186;0,00236879;0;0,701239;0,0791885;3,67853;-0,03735;0,0129154;0;0;0;-1080;1080;-500;1700;-10;10;-10;-0;0;-0;250;1,2;0,2;177;-1,2;-1;2555;0,07;4294967295;3750000128;0;16384;
7,96901;-5,44133;0,065;177;216;1850;0;-0,000684589;0,199999;-0,000187866;-5,45641e-05;0,0159883;-1,53977e-05;0;0;-0,065;0;0;0;0;0;0;0;0;0;0;0;0;0;0;0;0;0;0;-0,000684589;0,199999;-0,000187866;-0,165138;0,0229916;-0,104254;-0,0364187;0,0023329;0;0,702302;0,0781184;3,67853;-0,0375246;0,0127409;0;0;0;-1080;1080;-500;1700;-10;10;-10;-0;0;-0;250;1,2;0,2;177;-1,2;-1;2555;0,07;4294967295;3750000128;0;16384;
7,9789;-5,44133;0,064;177;216;1900;0;-0,000685937;0,199999;-0,000188823;-6,13528e-05;0,0179677;-1,72665e-05;0;0;-0,064;0;0;0;0;0;0;0;0;0;0;0;0;0;0;0;0;0;0;-0,000685937;0,199999;-0,000188823;-0,165139;0,0229916;-0,104254;-0,0364188;0,00229701;0;0,702302;0,0770484;3,67852;-0,0375246;0,0125664;0;0;0;-1080;1080;-500;1700;-10;10;-10;-0;0;-0;250;1,2;0,2;177;-1,2;-1;2555;0,07;4294967295;3750000128;0;16384;
7,989;-5,44133;0,062;177;216;1950;0;-0,000689025;0,199999;-0,000295576;-6,83092e-05;0,0199869;-2,02506e-05;0;0;-0,062;0;0;0;0;0;0;0;0;0;0;0;0;0;0;0;0;0;0;-0,000689025;0,199999;-0,000295576;-0,165139;0,0229917;-0,104255;-0,0364189;0,00222524;0;0,701239;0,0781184;3,67852;-0,03735;0,0127409;0;0;0;-1080;1080;-500;1700;-10;10;-10;-0;0;-0;250;1,2;0,2;177;-1,2;-1;2555;0,07;4294967295;3750000128;0;16384;
7,99902;-5,44133;0,062;177;216;2000;0;-0,000689025;0,199999;-0,000295576;-7,52126e-05;0,0219907;-2,3212e-05;0;0;-0,062;0;0;0;0;0;0;0;0;0;0;0;0;0;0;0;0;0;0;-0,000689025;0,199999;-0,000295576;-0,165139;0,0229917;-0,104255;-0,0364189;0,00222524;0;0,701254;0,0781201;3,67839;-0,03735;0,0127409;0;0;0;-1080;1080;-500;1700;-10;10;-10;-0;0;-0;250;1,2;0,2;177;-1,2;-1;2555;0,07;4294967295;3750000128;0;16384;
8,009;-5,44133;0,061;177;216;2050;0;-0,000690367;0,199998;-0,000366346;-8,21059e-05;0,0239876;-2,68699e-05;0;0;-0,061;0;0;0;0;0;0;0;0;0;0;0;0;0;0;0;0;0;0;-0,000690367;0,199998;-0,000366346;-0,16514;0,0229918;-0,104255;-0,036419;0,00218936;0;0,701254;0,0791902;3,67839;-0,03735;0,0129154;0;0;0;-1080;1080;-500;1700;-10;10;-10;-0;0;-0;250;1,2;0,2;177;-1,2;-1;2555;0,07;4294967295;3750000128;0;16384;
8,01902;-5,44133;0,061;177;216;2100;0;-0,000690754;0,199998;-0,000401373;-8,90252e-05;0,025991;-3,08905e-05;0;0;-0,061;0;0;0;0;0;0;0;0;0;0;0;0;0;0;0;0;0;0;-0,000690754;0,199998;-0,000401373;-0,16514;0,0229918;-0,104255;-0,036419;0,00218936;0;0,7002;0,0802613;3,67831;-0,0371755;0,01309;0;0;0;-1080;1080;-500;1700;-10;10;-10;-0;0;-0;250;1,2;0,2;177;-1,2;-1;2555;0,07;4294967295;3750000128;0;16384;
8,029;-5,44133;0,06;177;216;2150;0;-0,00069247;0,199998;-0,000437358;-9,59388e-05;0,0279878;-3,52571e-05;0;0;-0,06;0;0;0;0;0;0;0;0;0;0;0;0;0;0;0;0;0;0;-0,00069247;0,199998;-0,000437358;-0,16514;0,0229918;-0,104255;-0,036419;0,00215347;0;0,699142;0,0802619;3,67827;-0,037001;0,01309;0;0;0;-1080;1080;-500;1700;-10;10;-10;-0;0;-0;250;1,2;0,2;177;-1,2;-1;2555;0,07;4294967295;3750000128;0;16384;
8,03896;-5,44133;0,06;177;216;2200;0;-0,00069247;0,199998;-0,000437358;-0,000102831;0,0299784;-3,96101e-05;0;0;-0,06;0;0;0;0;0;0;0;0;0;0;0;0;0;0;0;0;0;0;-0,00069247;0,199998;-0,000437358;-0,16514;0,0229918;-0,104255;-0,036419;0,00215347;0;0,699147;0,0802625;3,67822;-0,037001;0,01309;0;0;0;-1080;1080;-500;1700;-10;10;-10;-0;0;-0;250;1,2;0,2;177;-1,2;-1;2555;0,07;4294967295;3750000128;0;16384;
8,049;-5,44133;0,059;177;216;2250;0;-0,000693799;0,199998;-0,000473222;-0,000109798;0,0319868;-4,43622e-05;0;0;-0,059;0;0;0;0;0;0;0;0;0;0;0;0;0;0;0;0;0;0;-0,000693799;0,199998;-0,000473222;-0,16514;0,0229919;-0,104255;-0,0364191;0,00211758;0;0,699147;0,0802625;3,67822;-0,037001;0,01309;0;0;0;-1080;1080;-500;1700;-10;10;-10;-0;0;-0;250;1,2;0,2;177;-1,2;-1;2555;0,07;4294967295;3750000128;0;16384;
8,05901;-5,44133;0,059;177;216;2300;0;-0,000694173;0,199998;-0,000508249;-0,000116747;0,033989;-4,94503e-05;0;0;-0,059;0;0;0;0;0;0;0;0;0;0;0;0;0;0;0;0;0;0;-0,000694173;0,199998;-0,000508249;-0,16514;0,0229919;-0,104255;-0,0364191;0,00211758;0;0,698088;0,0813331;3,67818;-0,0368264;0,0132645;0;0;0;-1080;1080;-500;1700;-10;10;-10;-0;0;-0;250;1,2;0,2;177;-1,2;-1;2555;0,07;4294967295;3750000128;0;16384;
8,06899;-5,44133;0,058;177;216;2350;0;-0,000695864;0,199998;-0,000579142;-0,000123694;0,0359853;-5,52312e-05;0;0;-0,058;0;0;0;0;0;0;0;0;0;0;0;0;0;0;0;0;0;0;-0,000695864;0,199998;-0,000579142;-0,165141;0,0229919;-0,104256;-0,0364192;0,00208169;0;0,69703;0,0824038;3,67814;-0,0366519;0,013439;0;0;0;-1080;1080;-500;1700;-10;10;-10;-0;0;-0;250;1,2;0,2;177;-1,2;-1;2555;0,07;4294967295;3750000128;0;16384;
8,07902;-5,44133;0,058;177;216;2400;0;-0,000695864;0,199998;-0,000579142;-0,00013067;0,0379903;-6,10371e-05;0;0;-0,058;0;0;0;0;0;0;0;0;0;0;0;0;0;0;0;0;0;0;-0,000695864;0,199998;-0,000579142;-0,165141;0,0229919;-0,104256;-0,0364192;0,00208169;0;0,69704;0,082405;3,67805;-0,0366519;0,013439;0;0;0;-1080;1080;-500;1700;-10;10;-10;-0;0;-0;250;1,2;0,2;177;-1,2;-1;2555;0,07;4294967295;3750000128;0;16384;
8,08889;-5,44133;0,058;177;216;2450;0;-0,000695864;0,199998;-0,000579142;-0,000137542;0,0399655;-6,67567e-05;0;0;-0,058;0;0;0;0;0;0;0;0;0;0;0;0;0;0;0;0;0;0;-0,000695864;0,199998;-0,000579142;-0,165141;0,0229919;-0,104256;-0,0364192;0,00208169;0;0,69704;0,082405;3,67805;-0,0366519;0,013439;0;0;0;-1080;1080;-500;1700;-10;10;-10;-0;0;-0;250;1,2;0,2;177;-1,2;-1;2555;0,07;4294967295;3750000128;0;16384;
8,09904;-5,44133;0,058;177;216;2500;0;-0,000696232;0,199998;-0,000579263;-0,000144607;0,0419951;-7,26351e-05;0;0;-0,058;0;0;0;0;0;0;0;0;0;0;0;0;0;0;0;0;0;0;-0,000696232;0,199998;-0,000579263;-0,165141;0,0229919;-0,104256;-0,0364192;0,00208169;0;0,695976;0,082405;3,67805;-0,0364774;0,013439;0;0;0;-1080;1080;-500;1700;-10;10;-10;-0;0;-0;250;1,2;0,2;177;-1,2;-1;2555;0,07;4294967295;3750000128;0;16384;
8,10898;-5,44133;0,058;177;216;2550;0;-0,000696232;0,199998;-0,000544357;-0,000151524;0,0439821;-7,80433e-05;0;0;-0,058;0;0;0;0;0;0;0;0;0;0;0;0;0;0;0;0;0;0;-0,000696232;0,199998;-0,000544357;-0,165141;0,0229919;-0,104256;-0,0364192;0,00208169;0;0,695976;0,0813348;3,67805;-0,0364774;0,0132645;0;0;0;-1080;1080;-500;1700;-10;10;-10;-0;0;-0;250;1,2;0,2;177;-1,2;-1;2555;0,07;4294967295;3750000128;0;16384;
8,119;-5,44133;0,058;177;216;2555;0;-0,000696232;0,199998;-0,000544357;-0,000158501;0,0459862;-8,34983e-05;0;0;-0,058;0;0;0;0;0;0;0;0;0;0;0;0;0;0;0;0;0;0;-0,000696232;0,199998;-0,000544357;-0,165141;0,0229919;-0,104256;-0,0364192;0,00208169;0;0,695972;0,0813343;3,67809;-0,0364774;0,0132645;0;0;0;-1080;1080;-500;1700;-10;10;-10;-0;0;-0;250;1,2;0,2;177;-1,2;-1;2555;0,07;4294967295;3750000128;0;16384;
8,12901;-5,44133;0,058;177;216;2555;0;-0,000696232;0,199998;-0,000509451;-0,000165475;0,0479896;-8,86015e-05;0;0;-0,058;0;0;0;0;0;0;0;0;0;0;0;0;0;0;0;0;0;0;-0,000696232;0,199998;-0,000509451;-0,165141;0,0229919;-0,104256;-0,0364192;0,00208169;0;0,695972;0,0802642;3,67809;-0,0364774;0,01309;0;0;0;-1080;1080;-500;1700;-10;10;-10;-0;0;-0;250;1,2;0,2;177;-1,2;-1;2555;0,07;4294967295;3750000128;0;16384;
8,13902;-5,44133;0,059;177;216;2555;0;-0,000694922;0,199998;-0,000473585;-0,000172427;0,0499902;-9,33387e-05;0;0;-0,059;0;0;0;0;0;0;0;0;0;0;0;0;0;0;0;0;0;0;-0,000694922;0,199998;-0,000473585;-0,16514;0,0229919;-0,104255;-0,0364191;0,00211758;0;0,695967;0,0802636;3,67814;-0,0364774;0,01309;0;0;0;-1080;1080;-500;1700;-10;10;-10;-0;0;-0;250;1,2;0,2;177;-1,2;-1;2555;0,07;4294967295;3750000128;0;16384;
8,14901;-5,44133;0,06;177;216;2555;0;-0,000693611;0,199998;-0,000472627;-0,000179361;0,0519898;-9,80641e-05;0;0;-0,06;0;0;0;0;0;0;0;0;0;0;0;0;0;0;0;0;0;0;-0,000693611;0,199998;-0,000472627;-0,16514;0,0229918;-0,104255;-0,036419;0,00215347;0;0,695962;0,0813332;3,67818;-0,0364774;0,0132645;0;0;0;-1080;1080;-500;1700;-10;10;-10;-0;0;-0;250;1,2;0,2;177;-1,2;-1;2555;0,07;4294967295;3750000128;0;16384;
8,15889;-5,44133;0,06;177;216;2555;0;-0,000693611;0,199998;-0,000472627;-0,000186208;0,053964;-0,000102729;0;0;-0,06;0;0;0;0;0;0;0;0;0;0;0;0;0;0;0;0;0;0;-0,000693611;0,199998;-0,000472627;-0,16514;0,0229918;-0,104255;-0,036419;0,00215347;0;0,695962;0,0813331;3,67818;-0,0364774;0,0132645;0;0;0;-1080;1080;-500;1700;-10;10;-10;-0;0;-0;250;1,2;0,2;177;-1,2;-1;2555;0,07;4294967295;3750000128;0;16384;
8,16894;-5,44133;0,061;177;216;2555;0;-0,000692301;0,199998;-0,000436762;-0,000193169;0,0559747;-0,000107121;0;0;-0,061;0;0;0;0;0;0;0;0;0;0;0;0;0;0;0;0;0;0;-0,000692301;0,199998;-0,000436762;-0,16514;0,0229918;-0,104255;-0,036419;0,00218936;0;0,695962;0,0813331;3,67818;-0,0364774;0,0132645;0;0;0;-1080;1080;-500;1700;-10;10;-10;-0;0;-0;250;1,2;0,2;177;-1,2;-1;2555;0,07;4294967295;3750000128;0;16384;
8,17897;-5,44133;0,061;177;216;2555;0;-0,000692688;0,199998;-0,000436883;-0,000200119;0,0579815;-0,000111504;0;0;-0,061;0;0;0;0;0;0;0;0;0;0;0;0;0;0;0;0;0;0;-0,000692688;0,199998;-0,000436883;-0,16514;0,0229918;-0,104255;-0,036419;0,00218936;0;0,694894;0,0813326;3,67822;-0,0363028;0,0132645;0;0;0;-1080;1080;-500;1700;-10;10;-10;-0;0;-0;250;1,2;0,2;177;-1,2;-1;2555;0,07;4294967295;3750000128;0;16384;
8,18901;-5,44133;0,062;177;216;2555;0;-0,000691777;0,199998;-0,000401138;-0,000207061;0,0599885;-0,00011553;0;0;-0,062;0;0;0;0;0;0;0;0;0;0;0;0;0;0;0;0;0;0;-0,000691777;0,199998;-0,000401138;-0,165139;0,0229917;-0,104255;-0,0364189;0,00222524;0;0,693831;0,0813326;3,67822;-0,0361283;0,0132645;0;0;0;-1080;1080;-500;1700;-10;10;-10;-0;0;-0;250;1,2;0,2;177;-1,2;-1;2555;0,07;4294967295;3750000128;0;16384;
8,19904;-5,44133;0,062;177;216;2555;0;-0,000691777;0,199998;-0,000401138;-0,000214003;0,0619955;-0,000119555;0;0;-0,062;0;0;0;0;0;0;0;0;0;0;0;0;0;0;0;0;0;0;-0,000691777;0,199998;-0,000401138;-0,165139;0,0229917;-0,104255;-0,0364189;0,00222524;0;0,693826;0,081332;3,67827;-0,0361283;0,0132645;0;0;0;-1080;1080;-500;1700;-10;10;-10;-0;0;-0;250;1,2;0,2;177;-1,2;-1;2555;0,07;4294967295;3750000128;0;16384;
8,20891;-5,44133;0,061;177;216;2555;0;-0,000693075;0,199998;-0,000402097;-0,000220843;0,0639693;-0,000123523;0;0;-0,061;0;0;0;0;0;0;0;0;0;0;0;0;0;0;0;0;0;0;-0,000693075;0,199998;-0,000402097;-0,16514;0,0229918;-0,104255;-0,036419;0,00218936;0;0,693826;0,0802619;3,67827;-0,0361283;0,01309;0;0;0;-1080;1080;-500;1700;-10;10;-10;-0;0;-0;250;1,2;0,2;177;-1,2;-1;2555;0,07;4294967295;3750000128;0;16384;
8,21888;-5,44133;0,061;177;216;2555;0;-0,000692688;0,199998;-0,00036707;-0,000227747;0,0659627;-0,000127182;0;0;-0,061;0;0;0;0;0;0;0;0;0;0;0;0;0;0;0;0;0;0;-0,000692688;0,199998;-0,00036707;-0,16514;0,0229918;-0,104255;-0,036419;0,00218936;0;0,694889;0,0791918;3,67826;-0,0363028;0,0129154;0;0;0;-1080;1080;-500;1700;-10;10;-10;-0;0;-0;250;1,2;0,2;177;-1,2;-1;2555;0,07;4294967295;3750000128;0;16384;
8,22906;-5,44133;0,06;177;216;2555;0;-0,000693611;0,199998;-0,000402814;-0,000234809;0,0679989;-0,000131283;0;0;-0,06;0;0;0;0;0;0;0;0;0;0;0;0;0;0;0;0;0;0;-0,000693611;0,199998;-0,000402814;-0,16514;0,0229918;-0,104255;-0,036419;0,00215347;0;0,695948;0,0791913;3,67831;-0,0364774;0,0129154;0;0;0;-1080;1080;-500;1700;-10;10;-10;-0;0;-0;250;1,2;0,2;177;-1,2;-1;2555;0,07;4294967295;3750000128;0;16384;
8,23899;-5,44133;0,06;177;216;2555;0;-0,000693611;0,199998;-0,000402814;-0,000241697;0,069985;-0,000135283;0;0;-0,06;0;0;0;0;0;0;0;0;0;0;0;0;0;0;0;0;0;0;-0,000693611;0,199998;-0,000402814;-0,16514;0,0229918;-0,104255;-0,036419;0,00215347;0;0,695953;0,0791919;3,67826;-0,0364774;0,0129154;0;0;0;-1080;1080;-500;1700;-10;10;-10;-0;0;-0;250;1,2;0,2;177;-1,2;-1;2555;0,07;4294967295;3750000128;0;16384;
8,249;-5,44133;0,059;177;216;2555;0;-0,000694547;0,199998;-0,000403652;-0,000248645;0,0719858;-0,000139321;0;0;-0,059;0;0;0;0;0;0;0;0;0;0;0;0;0;0;0;0;0;0;-0,000694547;0,199998;-0,000403652;-0,16514;0,0229919;-0,104255;-0,0364191;0,00211758;0;0,697016;0,0781218;3,67826;-0,0366519;0,0127409;0;0;0;-1080;1080;-500;1700;-10;10;-10;-0;0;-0;250;1,2;0,2;177;-1,2;-1;2555;0,07;4294967295;3750000128;0;16384;
8,25907;-5,44133;0,058;177;216;2555;0;-0,000695864;0,199998;-0,000474423;-0,000255654;0,0740002;-0,0001441;0;0;-0,058;0;0;0;0;0;0;0;0;0;0;0;0;0;0;0;0;0;0;-0,000695864;0,199998;-0,000474423;-0,165141;0,0229919;-0,104256;-0,0364192;0,00208169;0;0,697016;0,0791919;3,67826;-0,0366519;0,0129154;0;0;0;-1080;1080;-500;1700;-10;10;-10;-0;0;-0;250;1,2;0,2;177;-1,2;-1;2555;0,07;4294967295;3750000128;0;16384;
8,26902;-5,44133;0,057;177;216;2555;0;-0,000696819;0,199998;-0,000510166;-0,000262586;0,0759898;-0,000149175;0;0;-0,057;0;0;0;0;0;0;0;0;0;0;0;0;0;0;0;0;0;0;-0,000696819;0,199998;-0,000510166;-0,165141;0,0229919;-0,104256;-0,0364192;0,00204581;0;0,698089;0,079193;3,67818;-0,0368264;0,0129154;0;0;0;-1080;1080;-500;1700;-10;10;-10;-0;0;-0;250;1,2;0,2;177;-1,2;-1;2555;0,07;4294967295;3750000128;0;16384;
8,27891;-5,44133;0,057;177;216;2555;0;-0,000696819;0,199998;-0,000510166;-0,00026948;0,0779686;-0,000154223;0;0;-0,057;0;0;0;0;0;0;0;0;0;0;0;0;0;0;0;0;0;0;-0,000696819;0,199998;-0,000510166;-0,165141;0,0229919;-0,104256;-0,0364192;0,00204581;0;0,698094;0,0791935;3,67813;-0,0368264;0,0129154;0;0;0;-1080;1080;-500;1700;-10;10;-10;-0;0;-0;250;1,2;0,2;177;-1,2;-1;2555;0,07;4294967295;3750000128;0;16384;
8,289;-5,44133;0,055;177;216;2555;0;-0,000699464;0,199998;-0,00054699;-0,000276536;0,0799859;-0,00015974;0;0;-0,055;0;0;0;0;0;0;0;0;0;0;0;0;0;0;0;0;0;0;-0,000699464;0,199998;-0,00054699;-0,165142;0,022992;-0,104256;-0,0364194;0,00197403;0;0,698094;0,0781234;3,67813;-0,0368264;0,0127409;0;0;0;-1080;1080;-500;1700;-10;10;-10;-0;0;-0;250;1,2;0,2;177;-1,2;-1;2555;0,07;4294967295;3750000128;0;16384;
8,29906;-5,44133;0,054;177;216;2555;0;-0,00070113;0,199998;-0,000582978;-0,00028359;0,0819983;-0,000165606;0;0;-0,054;0;0;0;0;0;0;0;0;0;0;0;0;0;0;0;0;0;0;-0,00070113;0,199998;-0,000582978;-0,165142;0,0229921;-0,104256;-0,0364194;0,00193814;0;0,697036;0,078124;3,67809;-0,0366519;0,0127409;0;0;0;-1080;1080;-500;1700;-10;10;-10;-0;0;-0;250;1,2;0,2;177;-1,2;-1;2555;0,07;4294967295;3750000128;0;16384;
8,309;-5,44133;0,054;177;216;2555;0;-0,00070113;0,199998;-0,000617884;-0,000290561;0,0839867;-0,000171749;0;0;-0,054;0;0;0;0;0;0;0;0;0;0;0;0;0;0;0;0;0;0;-0,00070113;0,199998;-0,000617884;-0,165142;0,0229921;-0,104256;-0,0364194;0,00193814;0;0,69704;0,0791947;3,67805;-0,0366519;0,0129154;0;0;0;-1080;1080;-500;1700;-10;10;-10;-0;0;-0;250;1,2;0,2;177;-1,2;-1;2555;0,07;4294967295;3750000128;0;16384;
8,319;-5,44133;0,054;177;216;2555;0;-0,00070113;0,199998;-0,000617884;-0,000297571;0,0859863;-0,000177927;0;0;-0,054;0;0;0;0;0;0;0;0;0;0;0;0;0;0;0;0;0;0;-0,00070113;0,199998;-0,000617884;-0,165142;0,0229921;-0,104256;-0,0364194;0,00193814;0;0,697045;0,0791952;3,678;-0,0366519;0,0129154;0;0;0;-1080;1080;-500;1700;-10;10;-10;-0;0;-0;250;1,2;0,2;177;-1,2;-1;2555;0,07;4294967295;3750000128;0;16384;
8,32899;-5,44133;0,053;177;216;2555;0;-0,000702783;0,199998;-0,000653872;-0,000304592;0,0879843;-0,000184459;0;0;-0,053;0;0;0;0;0;0;0;0;0;0;0;0;0;0;0;0;0;0;-0,000702783;0,199998;-0,000653872;-0,165142;0,0229921;-0,104256;-0,0364195;0,00190225;0;0,695982;0,0791952;3,678;-0,0364774;0,0129154;0;0;0;-1080;1080;-500;1700;-10;10;-10;-0;0;-0;250;1,2;0,2;177;-1,2;-1;2555;0,07;4294967295;3750000128;0;16384;
8,33898;-5,44133;0,053;177;216;2555;0;-0,000702446;0,199998;-0,000618844;-0,000311613;0,0899832;-0,000190644;0;0;-0,053;0;0;0;0;0;0;0;0;0;0;0;0;0;0;0;0;0;0;-0,000702446;0,199998;-0,000618844;-0,165142;0,0229921;-0,104256;-0,0364195;0,00190225;0;0,69705;0,0781256;3,67796;-0,0366519;0,0127409;0;0;0;-1080;1080;-500;1700;-10;10;-10;-0;0;-0;250;1,2;0,2;177;-1,2;-1;2555;0,07;4294967295;3750000128;0;16384;
8,34899;-5,44133;0,053;177;216;2555;0;-0,000702446;0,199998;-0,000618844;-0,000318644;0,0919852;-0,000196839;0;0;-0,053;0;0;0;0;0;0;0;0;0;0;0;0;0;0;0;0;0;0;-0,000702446;0,199998;-0,000618844;-0,165142;0,0229921;-0,104256;-0,0364195;0,00190225;0;0,697045;0,0781251;3,678;-0,0366519;0,0127409;0;0;0;-1080;1080;-500;1700;-10;10;-10;-0;0;-0;250;1,2;0,2;177;-1,2;-1;2555;0,07;4294967295;3750000128;0;16384;
8,359;-5,44133;0,052;177;216;2555;0;-0,000704093;0,199998;-0,000619926;-0,000325693;0,0939874;-0,000203045;0;0;-0,052;0;0;0;0;0;0;0;0;0;0;0;0;0;0;0;0;0;0;-0,000704093;0,199998;-0,000619926;-0,165143;0,0229922;-0,104257;-0,0364196;0,00186637;0;0,695982;0,0770549;3,678;-0,0364774;0,0125664;0;0;0;-1080;1080;-500;1700;-10;10;-10;-0;0;-0;250;1,2;0,2;177;-1,2;-1;2555;0,07;4294967295;3750000128;0;16384;
8,36903;-5,44133;0,052;177;216;2555;0;-0,000704093;0,199998;-0,000654832;-0,000332755;0,0959934;-0,000209613;0;0;-0,052;0;0;0;0;0;0;0;0;0;0;0;0;0;0;0;0;0;0;-0,000704093;0,199998;-0,000654832;-0,165143;0,0229922;-0,104257;-0,0364196;0,00186637;0;0,695982;0,0781251;3,678;-0,0364774;0,0127409;0;0;0;-1080;1080;-500;1700;-10;10;-10;-0;0;-0;250;1,2;0,2;177;-1,2;-1;2555;0,07;4294967295;3750000128;0;16384;
8,37904;-5,44133;0,052;177;216;2555;0;-0,000704423;0,199998;-0,000689861;-0,000339803;0,0979943;-0,000216515;0;0;-0,052;0;0;0;0;0;0;0;0;0;0;0;0;0;0;0;0;0;0;-0,000704423;0,199998;-0,000689861;-0,165143;0,0229922;-0,104257;-0,0364196;0,00186637;0;0,694924;0,0791958;3,67796;-0,0363028;0,0129154;0;0;0;-1080;1080;-500;1700;-10;10;-10;-0;0;-0;250;1,2;0,2;177;-1,2;-1;2555;0,07;4294967295;3750000128;0;16384;
8,38888;-5,44133;0,052;177;216;2555;0;-0,000704423;0,199998;-0,000689861;-0,000346738;0,0999633;-0,000223307;0;0;-0,052;0;0;0;0;0;0;0;0;0;0;0;0;0;0;0;0;0;0;-0,000704423;0,199998;-0,000689861;-0,165143;0,0229922;-0,104257;-0,0364196;0,00186637;0;0,694929;0,0791963;3,67792;-0,0363028;0,0129154;0;0;0;-1080;1080;-500;1700;-10;10;-10;-0;0;-0;250;1,2;0,2;177;-1,2;-1;2555;0,07;4294967295;3750000128;0;16384;
8,39897;-5,44133;0,051;177;217;2555;0;-0,000706051;0,199997;-0,000760757;-0,000353855;0,101979;-0,000230976;0;0;-0,051;0;0;0;0;0;0;0;0;0;0;0;0;0;0;0;0;0;0;-0,000706051;0,199997;-0,000760757;-0,165143;0,0229922;-0,104257;-0,0364196;0,00183048;0;0,693865;0,0802665;3,67792;-0,0361283;0,01309;0;0;0;-1080;1080;-500;1700;-10;10;-10;-0;0;-0;250;1,2;0,2;177;-1,2;-1;2555;0,07;4294967295;3750000128;0;16384;
8,40903;-5,44133;0,052;177;217;2555;0;-0,000704754;0,199997;-0,00072489;-0,000360951;0,103993;-0,000238275;0;0;-0,052;0;0;0;0;0;0;0;0;0;0;0;0;0;0;0;0;0;0;-0,000704754;0,199997;-0,00072489;-0,165143;0,0229922;-0,104257;-0,0364196;0,00186637;0;0,693875;0,0802676;3,67783;-0,0361283;0,01309;0;0;0;-1080;1080;-500;1700;-10;10;-10;-0;0;-0;250;1,2;0,2;177;-1,2;-1;2555;0,07;4294967295;3750000128;0;16384;
8,41897;-5,44133;0,052;177;217;2555;0;-0,000739636;0,199997;-0,000688722;-0,000368303;0,105981;-0,00024512;0;0;-0,052;0;0;0;0;0;0;0;0;0;0;0;0;0;0;0;0;0;0;-0,000739636;0,199997;-0,000688722;-0,165143;0,0229922;-0,104257;-0,0364196;0,00186637;0;0,69387;0,0791969;3,67787;-0,0361283;0,0129154;0;0;0;-1080;1080;-500;1700;-10;10;-10;-0;0;-0;250;1,2;0,2;177;-1,2;-1;2555;0,07;4294967295;3750000128;0;16384;
8,42908;-5,44133;0,052;177;217;2555;0;-0,000739636;0,199997;-0,000688722;-0,00037578;0,108003;-0,000252082;0;0;-0,052;0;0;0;0;0;0;0;0;0;0;0;0;0;0;0;0;0;0;-0,000739636;0,199997;-0,000688722;-0,165143;0,0229922;-0,104257;-0,0364196;0,00186637;0;0,693865;0,0791963;3,67792;-0,0361283;0,0129154;0;0;0;-1080;1080;-500;1700;-10;10;-10;-0;0;-0;250;1,2;0,2;177;-1,2;-1;2555;0,07;4294967295;3750000128;0;16384;
8,43899;-5,44133;0,052;177;217;2555;0;-0,000739636;0,199998;-0,000653815;-0,000383107;0,109984;-0,00025856;0;0;-0,052;0;0;0;0;0;0;0;0;0;0;0;0;0;0;0;0;0;0;-0,000739636;0,199998;-0,000653815;-0,165143;0,0229922;-0,104257;-0,0364196;0,00186637;0;0,693865;0,0781262;3,67792;-0,0361283;0,0127409;0;0;0;-1080;1080;-500;1700;-10;10;-10;-0;0;-0;250;1,2;0,2;177;-1,2;-1;2555;0,07;4294967295;3750000128;0;16384;
8,449;-5,44133;0,052;177;217;2555;0;-0,000739305;0,199997;-0,000688593;-0,000390505;0,111985;-0,00026545;0;0;-0,052;0;0;0;0;0;0;0;0;0;0;0;0;0;0;0;0;0;0;-0,000739305;0,199997;-0,000688593;-0,165143;0,0229922;-0,104257;-0,0364196;0,00186637;0;0,694924;0,0791958;3,67796;-0,0363028;0,0129154;0;0;0;-1080;1080;-500;1700;-10;10;-10;-0;0;-0;250;1,2;0,2;177;-1,2;-1;2555;0,07;4294967295;3750000128;0;16384;
8,45887;-5,44133;0,052;177;217;2555;0;-0,000704423;0,199998;-0,000689861;-0,00039746;0,11396;-0,000272261;0;0;-0,052;0;0;0;0;0;0;0;0;0;0;0;0;0;0;0;0;0;0;-0,000704423;0,199998;-0,000689861;-0,165143;0,0229922;-0,104257;-0,0364196;0,00186637;0;0,694928;0,0791963;3,67792;-0,0363028;0,0129154;0;0;0;-1080;1080;-500;1700;-10;10;-10;-0;0;-0;250;1,2;0,2;177;-1,2;-1;2555;0,07;4294967295;3750000128;0;16384;
8,46891;-5,44133;0,052;177;217;2555;0;-0,000704423;0,199998;-0,000689861;-0,000404531;0,115968;-0,000279186;0;0;-0,052;0;0;0;0;0;0;0;0;0;0;0;0;0;0;0;0;0;0;-0,000704423;0,199998;-0,000689861;-0,165143;0,0229922;-0,104257;-0,0364196;0,00186637;0;0,694929;0,0791963;3,67792;-0,0363028;0,0129154;0;0;0;-1080;1080;-500;1700;-10;10;-10;-0;0;-0;250;1,2;0,2;177;-1,2;-1;2555;0,07;4294967295;3750000128;0;16384;
8,47906;-5,44133;0,052;177;217;2555;0;-0,000704754;0,199997;-0,00072489;-0,000411686;0,117998;-0,000286545;0;0;-0,052;0;0;0;0;0;0;0;0;0;0;0;0;0;0;0;0;0;0;-0,000704754;0,199997;-0,00072489;-0,165143;0,0229922;-0,104257;-0,0364196;0,00186637;0;0,693865;0,0802665;3,67792;-0,0361283;0,01309;0;0;0;-1080;1080;-500;1700;-10;10;-10;-0;0;-0;250;1,2;0,2;177;-1,2;-1;2555;0,07;4294967295;3750000128;0;16384;
8,48899;-5,44133;0,051;177;217;2555;0;-0,000741258;0,199997;-0,00079453;-0,000419046;0,119984;-0,000294434;0;0;-0,051;0;0;0;0;0;0;0;0;0;0;0;0;0;0;0;0;0;0;-0,000741258;0,199997;-0,00079453;-0,165143;0,0229922;-0,104257;-0,0364196;0,00183048;0;0,692807;0,0813372;3,67787;-0,0359538;0,0132645;0;0;0;-1080;1080;-500;1700;-10;10;-10;-0;0;-0;250;1,2;0,2;177;-1,2;-1;2555;0,07;4294967295;3750000128;0;16384;
8,49905;-5,44133;0,051;177;217;2555;0;-0,000775816;0,199997;-0,000793138;-0,000426848;0,121995;-0,000302411;0;0;-0,051;0;0;0;0;0;0;0;0;0;0;0;0;0;0;0;0;0;0;-0,000775816;0,199997;-0,000793138;-0,165143;0,0229922;-0,104257;-0,0364196;0,00183048;0;0,69388;0,0813383;3,67779;-0,0361283;0,0132645;0;0;0;-1080;1080;-500;1700;-10;10;-10;-0;0;-0;250;1,2;0,2;177;-1,2;-1;2555;0,07;4294967295;3750000128;0;16384;
8,50901;-5,44133;0,051;177;217;2555;0;-0,000775816;0,199997;-0,000793138;-0,000434577;0,123988;-0,000310312;0;0;-0,051;0;0;0;0;0;0;0;0;0;0;0;0;0;0;0;0;0;0;-0,000775816;0,199997;-0,000793138;-0,165143;0,0229922;-0,104257;-0,0364196;0,00183048;0;0,693879;0,0813383;3,67779;-0,0361283;0,0132645;0;0;0;-1080;1080;-500;1700;-10;10;-10;-0;0;-0;250;1,2;0,2;177;-1,2;-1;2555;0,07;4294967295;3750000128;0;16384;
8,51902;-5,44133;0,051;177;217;2555;0;-0,000810373;0,199997;-0,000756828;-0,000442689;0,12599;-0,000317888;0;0;-0,051;0;0;0;0;0;0;0;0;0;0;0;0;0;0;0;0;0;0;-0,000810373;0,199997;-0,000756828;-0,165143;0,0229922;-0,104257;-0,0364196;0,00183048;0;0,694943;0,0802681;3,67779;-0,0363028;0,01309;0;0;0;-1080;1080;-500;1700;-10;10;-10;-0;0;-0;250;1,2;0,2;177;-1,2;-1;2555;0,07;4294967295;3750000128;0;16384;
8,52895;-5,44133;0,051;177;217;2555;0;-0,000810373;0,199997;-0,000791734;-0,000450741;0,127977;-0,000325754;0;0;-0,051;0;0;0;0;0;0;0;0;0;0;0;0;0;0;0;0;0;0;-0,000810373;0,199997;-0,000791734;-0,165143;0,0229922;-0,104257;-0,0364196;0,00183048;0;0,694938;0,0813377;3,67783;-0,0363028;0,0132645;0;0;0;-1080;1080;-500;1700;-10;10;-10;-0;0;-0;250;1,2;0,2;177;-1,2;-1;2555;0,07;4294967295;3750000128;0;16384;
8,53905;-5,44133;0,051;177;217;2555;0;-0,000810698;0,199997;-0,000791875;-0,000458922;0,129995;-0,000333746;0;0;-0,051;0;0;0;0;0;0;0;0;0;0;0;0;0;0;0;0;0;0;-0,000810698;0,199997;-0,000791875;-0,165143;0,0229922;-0,104257;-0,0364196;0,00183048;0;0,693879;0,0813383;3,67779;-0,0361283;0,0132645;0;0;0;-1080;1080;-500;1700;-10;10;-10;-0;0;-0;250;1,2;0,2;177;-1,2;-1;2555;0,07;4294967295;3750000128;0;16384;
8,54897;-5,44133;0,051;177;217;2555;0;-0,000810698;0,199997;-0,000791875;-0,000466965;0,131979;-0,000341602;0;0;-0,051;0;0;0;0;0;0;0;0;0;0;0;0;0;0;0;0;0;0;-0,000810698;0,199997;-0,000791875;-0,165143;0,0229922;-0,104257;-0,0364196;0,00183048;0;0,693879;0,0813383;3,67779;-0,0361283;0,0132645;0;0;0;-1080;1080;-500;1700;-10;10;-10;-0;0;-0;250;1,2;0,2;177;-1,2;-1;2555;0,07;4294967295;3750000128;0;16384;
8,55901;-5,44133;0,051;177;217;2555;0;-0,000810373;0,199997;-0,00082664;-0,000475102;0,133987;-0,000349902;0;0;-0,051;0;0;0;0;0;0;0;0;0;0;0;0;0;0;0;0;0;0;-0,000810373;0,199997;-0,00082664;-0,165143;0,0229922;-0,104257;-0,0364196;0,00183048;0;0,694943;0,0824085;3,67779;-0,0363028;0,013439;0;0;0;-1080;1080;-500;1700;-10;10;-10;-0;0;-0;250;1,2;0,2;177;-1,2;-1;2555;0,07;4294967295;3750000128;0;16384;
8,56889;-5,44133;0,051;177;217;2555;0;-0,000810048;0,199997;-0,000861404;-0,000483107;0,135964;-0,000358415;0;0;-0,051;0;0;0;0;0;0;0;0;0;0;0;0;0;0;0;0;0;0;-0,000810048;0,199997;-0,000861404;-0,165143;0,0229922;-0,104257;-0,0364196;0,00183048;0;0,696011;0,0834792;3,67775;-0,0364774;0,0136136;0;0;0;-1080;1080;-500;1700;-10;10;-10;-0;0;-0;250;1,2;0,2;177;-1,2;-1;2555;0,07;4294967295;3750000128;0;16384;
8,57896;-5,44133;0,05;177;217;2555;0;-0,000811358;0,199996;-0,00089727;-0,00049128;0,137978;-0,000367453;0;0;-0,05;0;0;0;0;0;0;0;0;0;0;0;0;0;0;0;0;0;0;-0,000811358;0,199996;-0,00089727;-0,165143;0,0229922;-0,104257;-0,0364197;0,00179459;0;0,696016;0,0834798;3,67771;-0,0364774;0,0136136;0;0;0;-1080;1080;-500;1700;-10;10;-10;-0;0;-0;250;1,2;0,2;177;-1,2;-1;2555;0,07;4294967295;3750000128;0;16384;
8,58898;-5,44133;0,05;177;217;2555;0;-0,000811358;0,199996;-0,00089727;-0,00049941;0,139983;-0,000376445;0;0;-0,05;0;0;0;0;0;0;0;0;0;0;0;0;0;0;0;0;0;0;-0,000811358;0,199996;-0,00089727;-0,165143;0,0229922;-0,104257;-0,0364197;0,00179459;0;0,696021;0,0834804;3,67766;-0,0364774;0,0136136;0;0;0;-1080;1080;-500;1700;-10;10;-10;-0;0;-0;250;1,2;0,2;177;-1,2;-1;2555;0,07;4294967295;3750000128;0;16384;
8,59905;-5,44133;0,05;177;217;2555;0;-0,000811358;0,199996;-0,00089727;-0,000507578;0,141996;-0,000385477;0;0;-0,05;0;0;0;0;0;0;0;0;0;0;0;0;0;0;0;0;0;0;-0,000811358;0,199996;-0,00089727;-0,165143;0,0229922;-0,104257;-0,0364197;0,00179459;0;0,696021;0,0834804;3,67766;-0,0364774;0,0136136;0;0;0;-1080;1080;-500;1700;-10;10;-10;-0;0;-0;250;1,2;0,2;177;-1,2;-1;2555;0,07;4294967295;3750000128;0;16384;
8,60899;-5,44133;0,05;177;217;2555;0;-0,000811677;0,199996;-0,000897412;-0,000515644;0,143983;-0,000394395;0;0;-0,05;0;0;0;0;0;0;0;0;0;0;0;0;0;0;0;0;0;0;-0,000811677;0,199996;-0,000897412;-0,165143;0,0229922;-0,104257;-0,0364197;0,00179459;0;0,694957;0,0834804;3,67766;-0,0363028;0,0136136;0;0;0;-1080;1080;-500;1700;-10;10;-10;-0;0;-0;250;1,2;0,2;177;-1,2;-1;2555;0,07;4294967295;3750000128;0;16384;
8,61895;-5,44133;0,05;177;217;2555;0;-0,000811995;0,199996;-0,000897553;-0,000523735;0,145976;-0,000403338;0;0;-0,05;0;0;0;0;0;0;0;0;0;0;0;0;0;0;0;0;0;0;-0,000811995;0,199996;-0,000897553;-0,165143;0,0229922;-0,104257;-0,0364197;0,00179459;0;0,693894;0,0834804;3,67766;-0,0361283;0,0136136;0;0;0;-1080;1080;-500;1700;-10;10;-10;-0;0;-0;250;1,2;0,2;177;-1,2;-1;2555;0,07;4294967295;3750000128;0;16384;
8,62888;-5,44133;0,05;177;217;2555;0;-0,000811995;0,199996;-0,000897553;-0,000531795;0,147961;-0,000412248;0;0;-0,05;0;0;0;0;0;0;0;0;0;0;0;0;0;0;0;0;0;0;-0,000811995;0,199996;-0,000897553;-0,165143;0,0229922;-0,104257;-0,0364197;0,00179459;0;0,693894;0,0834804;3,67766;-0,0361283;0,0136136;0;0;0;-1080;1080;-500;1700;-10;10;-10;-0;0;-0;250;1,2;0,2;177;-1,2;-1;2555;0,07;4294967295;3750000128;0;16384;
8,639;-5,44133;0,051;177;217;2555;0;-0,000811022;0,199996;-0,000861829;-0,000540008;0,149987;-0,000420975;0;0;-0,051;0;0;0;0;0;0;0;0;0;0;0;0;0;0;0;0;0;0;-0,000811022;0,199996;-0,000861829;-0,165143;0,0229922;-0,104257;-0,0364196;0,00183048;0;0,69283;0,0834804;3,67766;-0,0359538;0,0136136;0;0;0;-1080;1080;-500;1700;-10;10;-10;-0;0;-0;250;1,2;0,2;177;-1,2;-1;2555;0,07;4294967295;3750000128;0;16384;
8,64901;-5,44133;0,052;177;217;2555;0;-0,000809731;0,199997;-0,000791056;-0,000548107;0,151987;-0,000428887;0;0;-0,052;0;0;0;0;0;0;0;0;0;0;0;0;0;0;0;0;0;0;-0,000809731;0,199997;-0,000791056;-0,165143;0,0229922;-0,104257;-0,0364196;0,00186637;0;0,692826;0,0824096;3,67771;-0,0359538;0,013439;0;0;0;-1080;1080;-500;1700;-10;10;-10;-0;0;-0;250;1,2;0,2;177;-1,2;-1;2555;0,07;4294967295;3750000128;0;16384;
8,65898;-5,44133;0,054;177;217;2555;0;-0,000841686;0,199997;-0,000683013;-0,000556499;0,153981;-0,000435698;0;0;-0,054;0;0;0;0;0;0;0;0;0;0;0;0;0;0;0;0;0;0;-0,000841686;0,199997;-0,000683013;-0,165142;0,0229921;-0,104256;-0,0364194;0,00193814;0;0,693879;0,0813383;3,67779;-0,0361283;0,0132645;0;0;0;-1080;1080;-500;1700;-10;10;-10;-0;0;-0;250;1,2;0,2;177;-1,2;-1;2555;0,07;4294967295;3750000128;0;16384;
8,66901;-5,44133;0,054;177;217;2555;0;-0,000841686;0,199997;-0,000683013;-0,00056494;0,155987;-0,000442547;0;0;-0,054;0;0;0;0;0;0;0;0;0;0;0;0;0;0;0;0;0;0;-0,000841686;0,199997;-0,000683013;-0,165142;0,0229921;-0,104256;-0,0364194;0,00193814;0;0,693865;0,0813366;3,67792;-0,0361283;0,0132645;0;0;0;-1080;1080;-500;1700;-10;10;-10;-0;0;-0;250;1,2;0,2;177;-1,2;-1;2555;0,07;4294967295;3750000128;0;16384;
8,67901;-5,44133;0,055;177;217;2555;0;-0,000840038;0,199997;-0,000612095;-0,000573343;0,157987;-0,00044867;0;0;-0,055;0;0;0;0;0;0;0;0;0;0;0;0;0;0;0;0;0;0;-0,000840038;0,199997;-0,000612095;-0,165142;0,022992;-0,104256;-0,0364194;0,00197403;0;0,694928;0,0802664;3,67792;-0,0363028;0,01309;0;0;0;-1080;1080;-500;1700;-10;10;-10;-0;0;-0;250;1,2;0,2;177;-1,2;-1;2555;0,07;4294967295;3750000128;0;16384;
8,68896;-5,44133;0,056;177;217;2555;0;-0,000873972;0,199997;-0,000575112;-0,000582041;0,159978;-0,000454394;0;0;-0,056;0;0;0;0;0;0;0;0;0;0;0;0;0;0;0;0;0;0;-0,000873972;0,199997;-0,000575112;-0,165141;0,022992;-0,104256;-0,0364193;0,00200992;0;0,693855;0,0802653;3,678;-0,0361283;0,01309;0;0;0;-1080;1080;-500;1700;-10;10;-10;-0;0;-0;250;1,2;0,2;177;-1,2;-1;2555;0,07;4294967295;3750000128;0;16384;
8,69903;-5,44133;0,056;177;217;2555;0;-0,000874328;0,199997;-0,000540359;-0,000590847;0,161992;-0,000459836;0;0;-0,056;0;0;0;0;0;0;0;0;0;0;0;0;0;0;0;0;0;0;-0,000874328;0,199997;-0,000540359;-0,165141;0,022992;-0,104256;-0,0364193;0,00200992;0;0,692787;0,0791946;3,67805;-0,0359538;0,0129154;0;0;0;-1080;1080;-500;1700;-10;10;-10;-0;0;-0;250;1,2;0,2;177;-1,2;-1;2555;0,07;4294967295;3750000128;0;16384;
8,709;-5,44133;0,056;177;217;2555;0;-0,000874328;0,199997;-0,000540359;-0,000599565;0,163986;-0,000465224;0;0;-0,056;0;0;0;0;0;0;0;0;0;0;0;0;0;0;0;0;0;0;-0,000874328;0,199997;-0,000540359;-0,165141;0,022992;-0,104256;-0,0364193;0,00200992;0;0,692782;0,0791941;3,67809;-0,0359538;0,0129154;0;0;0;-1080;1080;-500;1700;-10;10;-10;-0;0;-0;250;1,2;0,2;177;-1,2;-1;2555;0,07;4294967295;3750000128;0;16384;
8,71897;-5,44133;0,056;177;217;2555;0;-0,00090921;0,199997;-0,000574008;-0,000608624;0,165979;-0,000470943;0;0;-0,056;0;0;0;0;0;0;0;0;0;0;0;0;0;0;0;0;0;0;-0,00090921;0,199997;-0,000574008;-0,165141;0,022992;-0,104256;-0,0364193;0,00200992;0;0,692782;0,0802642;3,67809;-0,0359538;0,01309;0;0;0;-1080;1080;-500;1700;-10;10;-10;-0;0;-0;250;1,2;0,2;177;-1,2;-1;2555;0,07;4294967295;3750000128;0;16384;
8,72889;-5,44133;0,056;178;217;2555;0;-0,000944092;0,199997;-0,000572751;-0,000617993;0,167964;-0,000476627;0;0;-0,056;0;0;0;0;0;0;0;0;0;0;0;0;0;0;0;0;0;0;-0,000944092;0,199997;-0,000572751;-0,165141;0,022992;-0,104256;-0,0364193;0,00200992;0;0,692787;0,0802647;3,67805;-0,0359538;0,01309;0;0;0;-1080;1080;-500;1700;-10;10;-10;-0;0;-0;250;1,2;0,2;177;-1,2;-1;2555;0,07;4294967295;3750000128;0;16384;
8,73899;-5,44133;0,055;178;217;2555;0;-0,000979915;0,199997;-0,000572284;-0,000627884;0,169982;-0,000482404;0;0;-0,055;0;0;0;0;0;0;0;0;0;0;0;0;0;0;0;0;0;0;-0,000979915;0,199997;-0,000572284;-0,165142;0,022992;-0,104256;-0,0364194;0,00197403;0;0,69385;0,0791946;3,67805;-0,0361283;0,0129154;0;0;0;-1080;1080;-500;1700;-10;10;-10;-0;0;-0;250;1,2;0,2;177;-1,2;-1;2555;0,07;4294967295;3750000128;0;16384;
8,74897;-5,44133;0,055;178;217;2555;0;-0,000979915;0,199997;-0,000572284;-0,000637668;0,171979;-0,000488117;0;0;-0,055;0;0;0;0;0;0;0;0;0;0;0;0;0;0;0;0;0;0;-0,000979915;0,199997;-0,000572284;-0,165142;0,022992;-0,104256;-0,0364194;0,00197403;0;0,69385;0,0791946;3,67805;-0,0361283;0,0129154;0;0;0;-1080;1080;-500;1700;-10;10;-10;-0;0;-0;250;1,2;0,2;177;-1,2;-1;2555;0,07;4294967295;3750000128;0;16384;
8,75889;-5,44133;0,055;178;217;2555;0;-0,00101445;0,199997;-0,000570843;-0,000647731;0,173963;-0,00049378;0;0;-0,055;0;0;0;0;0;0;0;0;0;0;0;0;0;0;0;0;0;0;-0,00101445;0,199997;-0,000570843;-0,165142;0,022992;-0,104256;-0,0364194;0,00197403;0;0,694913;0,0791946;3,67805;-0,0363028;0,0129154;0;0;0;-1080;1080;-500;1700;-10;10;-10;-0;0;-0;250;1,2;0,2;177;-1,2;-1;2555;0,07;4294967295;3750000128;0;16384;
8,769;-5,44133;0,054;178;217;2555;0;-0,00105029;0,199996;-0,000605257;-0,00065835;0,175985;-0,0004999;0;0;-0,054;0;0;0;0;0;0;0;0;0;0;0;0;0;0;0;0;0;0;-0,00105029;0,199996;-0,000605257;-0,165142;0,0229921;-0,104256;-0,0364194;0,00193814;0;0,695976;0,0791946;3,67805;-0,0364774;0,0129154;0;0;0;-1080;1080;-500;1700;-10;10;-10;-0;0;-0;250;1,2;0,2;177;-1,2;-1;2555;0,07;4294967295;3750000128;0;16384;
8,77901;-5,44133;0,053;178;217;2555;0;-0,0010516;0,199996;-0,000676028;-0,000668875;0,177987;-0,000506666;0;0;-0,053;0;0;0;0;0;0;0;0;0;0;0;0;0;0;0;0;0;0;-0,0010516;0,199996;-0,000676028;-0,165142;0,0229921;-0,104256;-0,0364195;0,00190225;0;0,695981;0,0802652;3,67801;-0,0364774;0,01309;0;0;0;-1080;1080;-500;1700;-10;10;-10;-0;0;-0;250;1,2;0,2;177;-1,2;-1;2555;0,07;4294967295;3750000128;0;16384;
8,78899;-5,44133;0,053;178;217;2555;0;-0,0010516;0,199996;-0,000676028;-0,000679376;0,179984;-0,000513416;0;0;-0,053;0;0;0;0;0;0;0;0;0;0;0;0;0;0;0;0;0;0;-0,0010516;0,199996;-0,000676028;-0,165142;0,0229921;-0,104256;-0,0364195;0,00190225;0;0,695991;0,0802664;3,67793;-0,0364774;0,01309;0;0;0;-1080;1080;-500;1700;-10;10;-10;-0;0;-0;250;1,2;0,2;177;-1,2;-1;2555;0,07;4294967295;3750000128;0;16384;
8,79902;-5,44133;0,053;178;217;2555;0;-0,00105126;0,199996;-0,000675845;-0,000689911;0,181988;-0,000520189;0;0;-0,053;0;0;0;0;0;0;0;0;0;0;0;0;0;0;0;0;0;0;-0,00105126;0,199996;-0,000675845;-0,165142;0,0229921;-0,104256;-0,0364195;0,00190225;0;0,697054;0,0802664;3,67793;-0,0366519;0,01309;0;0;0;-1080;1080;-500;1700;-10;10;-10;-0;0;-0;250;1,2;0,2;177;-1,2;-1;2555;0,07;4294967295;3750000128;0;16384;
8,80891;-5,44133;0,053;178;217;2555;0;-0,00105092;0,199996;-0,000710567;-0,000700308;0,183967;-0,000527219;0;0;-0,053;0;0;0;0;0;0;0;0;0;0;0;0;0;0;0;0;0;0;-0,00105092;0,199996;-0,000710567;-0,165142;0,0229921;-0,104256;-0,0364195;0,00190225;0;0,698117;0,0813365;3,67793;-0,0368264;0,0132645;0;0;0;-1080;1080;-500;1700;-10;10;-10;-0;0;-0;250;1,2;0,2;177;-1,2;-1;2555;0,07;4294967295;3750000128;0;16384;
8,81888;-5,44133;0,053;178;217;2555;0;-0,00105058;0,199996;-0,00074529;-0,000710785;0,185961;-0,000534651;0;0;-0,053;0;0;0;0;0;0;0;0;0;0;0;0;0;0;0;0;0;0;-0,00105058;0,199996;-0,00074529;-0,165142;0,0229921;-0,104256;-0,0364195;0,00190225;0;0,699185;0,0824072;3,67788;-0,037001;0,013439;0;0;0;-1080;1080;-500;1700;-10;10;-10;-0;0;-0;250;1,2;0,2;177;-1,2;-1;2555;0,07;4294967295;3750000128;0;16384;
8,82891;-5,44133;0,053;178;217;2555;0;-0,00105058;0,199996;-0,00074529;-0,000721323;0,187968;-0,000542127;0;0;-0,053;0;0;0;0;0;0;0;0;0;0;0;0;0;0;0;0;0;0;-0,00105058;0,199996;-0,00074529;-0,165142;0,0229921;-0,104256;-0,0364195;0,00190225;0;0,69919;0,0824078;3,67784;-0,037001;0,013439;0;0;0;-1080;1080;-500;1700;-10;10;-10;-0;0;-0;250;1,2;0,2;177;-1,2;-1;2555;0,07;4294967295;3750000128;0;16384;
8,83898;-5,44133;0,053;178;217;2555;0;-0,00105058;0,199996;-0,00074529;-0,000731905;0,189982;-0,000549634;0;0;-0,053;0;0;0;0;0;0;0;0;0;0;0;0;0;0;0;0;0;0;-0,00105058;0,199996;-0,00074529;-0,165142;0,0229921;-0,104256;-0,0364195;0,00190225;0;0,69919;0,0824078;3,67784;-0,037001;0,013439;0;0;0;-1080;1080;-500;1700;-10;10;-10;-0;0;-0;250;1,2;0,2;177;-1,2;-1;2555;0,07;4294967295;3750000128;0;16384;
8,84893;-5,44133;0,054;178;217;2555;0;-0,00104925;0,199996;-0,000744331;-0,000742345;0,191972;-0,00055704;0;0;-0,054;0;0;0;0;0;0;0;0;0;0;0;0;0;0;0;0;0;0;-0,00104925;0,199996;-0,000744331;-0,165142;0,0229921;-0,104256;-0,0364194;0,00193814;0;0,69919;0,083478;3,67784;-0,037001;0,0136136;0;0;0;-1080;1080;-500;1700;-10;10;-10;-0;0;-0;250;1,2;0,2;177;-1,2;-1;2555;0,07;4294967295;3750000128;0;16384;
8,85888;-5,44133;0,054;178;217;2555;0;-0,00104925;0,199996;-0,000744331;-0,000752781;0,193961;-0,000564443;0;0;-0,054;0;0;0;0;0;0;0;0;0;0;0;0;0;0;0;0;0;0;-0,00104925;0,199996;-0,000744331;-0,165142;0,0229921;-0,104256;-0,0364194;0,00193814;0;0,69919;0,083478;3,67784;-0,037001;0,0136136;0;0;0;-1080;1080;-500;1700;-10;10;-10;-0;0;-0;250;1,2;0,2;177;-1,2;-1;2555;0,07;4294967295;3750000128;0;16384;
8,86891;-5,44133;0,054;178;217;2555;0;-0,00104925;0,199996;-0,000744331;-0,000763307;0,195967;-0,00057191;0;0;-0,054;0;0;0;0;0;0;0;0;0;0;0;0;0;0;0;0;0;0;-0,00104925;0,199996;-0,000744331;-0,165142;0,0229921;-0,104256;-0,0364194;0,00193814;0;0,69919;0,083478;3,67784;-0,037001;0,0136136;0;0;0;-1080;1080;-500;1700;-10;10;-10;-0;0;-0;250;1,2;0,2;177;-1,2;-1;2555;0,07;4294967295;3750000128;0;16384;
8,87895;-5,44133;0,055;178;217;2555;0;-0,00104827;0,199996;-0,000708649;-0,000773829;0,197975;-0,000579024;0;0;-0,055;0;0;0;0;0;0;0;0;0;0;0;0;0;0;0;0;0;0;-0,00104827;0,199996;-0,000708649;-0,165142;0,022992;-0,104256;-0,0364194;0,00197403;0;0,698127;0,083478;3,67784;-0,0368264;0,0136136;0;0;0;-1080;1080;-500;1700;-10;10;-10;-0;0;-0;250;1,2;0,2;177;-1,2;-1;2555;0,07;4294967295;3750000128;0;16384;
8,88892;-5,44133;0,055;178;217;2555;0;-0,00104862;0,199996;-0,000673926;-0,000784283;0,199969;-0,000585742;0;0;-0,055;0;0;0;0;0;0;0;0;0;0;0;0;0;0;0;0;0;0;-0,00104862;0,199996;-0,000673926;-0,165142;0,022992;-0,104256;-0,0364194;0,00197403;0;0,697059;0,0824072;3,67789;-0,0366519;0,013439;0;0;0;-1080;1080;-500;1700;-10;10;-10;-0;0;-0;250;1,2;0,2;177;-1,2;-1;2555;0,07;4294967295;3750000128;0;16384;
8,899;-5,44133;0,056;178;218;2555;0;-0,00104731;0,199996;-0,000603155;-0,000794838;0,201984;-0,000591821;0;0;-0,056;0;0;0;0;0;0;0;0;0;0;0;0;0;0;0;0;0;0;-0,00104731;0,199996;-0,000603155;-0,165141;0,022992;-0,104256;-0,0364193;0,00200992;0;0,697054;0,0813365;3,67793;-0,0366519;0,0132645;0;0;0;-1080;1080;-500;1700;-10;10;-10;-0;0;-0;250;1,2;0,2;177;-1,2;-1;2555;0,07;4294967295;3750000128;0;16384;
8,90897;-5,44133;0,056;178;218;2555;0;-0,00104731;0,199996;-0,000603155;-0,000805283;0,203979;-0,000597837;0;0;-0,056;0;0;0;0;0;0;0;0;0;0;0;0;0;0;0;0;0;0;-0,00104731;0,199996;-0,000603155;-0,165141;0,022992;-0,104256;-0,0364193;0,00200992;0;0,697044;0,0813354;3,67801;-0,0366519;0,0132645;0;0;0;-1080;1080;-500;1700;-10;10;-10;-0;0;-0;250;1,2;0,2;177;-1,2;-1;2555;0,07;4294967295;3750000128;0;16384;
8,91892;-5,44133;0,057;178;218;2555;0;-0,00104563;0,199996;-0,000602013;-0,000815683;0,205968;-0,000603824;0;0;-0,057;0;0;0;0;0;0;0;0;0;0;0;0;0;0;0;0;0;0;-0,00104563;0,199996;-0,000602013;-0,165141;0,0229919;-0,104256;-0,0364192;0,00204581;0;0,698108;0,0824055;3,67801;-0,0368264;0,013439;0;0;0;-1080;1080;-500;1700;-10;10;-10;-0;0;-0;250;1,2;0,2;177;-1,2;-1;2555;0,07;4294967295;3750000128;0;16384;
8,92894;-5,44133;0,059;178;218;2555;0;-0,00104298;0,199997;-0,000530283;-0,000826132;0,207972;-0,000609137;0;0;-0,059;0;0;0;0;0;0;0;0;0;0;0;0;0;0;0;0;0;0;-0,00104298;0,199997;-0,000530283;-0,16514;0,0229919;-0,104255;-0,0364191;0,00211758;0;0,698108;0,0824055;3,67801;-0,0368264;0,013439;0;0;0;-1080;1080;-500;1700;-10;10;-10;-0;0;-0;250;1,2;0,2;177;-1,2;-1;2555;0,07;4294967295;3750000128;0;16384;
8,93898;-5,44133;0,06;178;218;2555;0;-0,00104204;0,199997;-0,000494601;-0,000836595;0,20998;-0,000614103;0;0;-0,06;0;0;0;0;0;0;0;0;0;0;0;0;0;0;0;0;0;0;-0,00104204;0,199997;-0,000494601;-0,16514;0,0229918;-0,104255;-0,036419;0,00215347;0;0,697034;0,0824044;3,6781;-0,0366519;0,013439;0;0;0;-1080;1080;-500;1700;-10;10;-10;-0;0;-0;250;1,2;0,2;177;-1,2;-1;2555;0,07;4294967295;3750000128;0;16384;
8,94898;-5,44133;0,06;178;218;2555;0;-0,00104204;0,199997;-0,000494601;-0,000847022;0,211981;-0,000619052;0;0;-0,06;0;0;0;0;0;0;0;0;0;0;0;0;0;0;0;0;0;0;-0,00104204;0,199997;-0,000494601;-0,16514;0,0229918;-0,104255;-0,036419;0,00215347;0;0,69703;0,0824038;3,67814;-0,0366519;0,013439;0;0;0;-1080;1080;-500;1700;-10;10;-10;-0;0;-0;250;1,2;0,2;177;-1,2;-1;2555;0,07;4294967295;3750000128;0;16384;
8,95897;-5,44133;0,061;178;218;2555;0;-0,00104072;0,199997;-0,00042383;-0,000857417;0,213979;-0,000623285;0;0;-0,061;0;0;0;0;0;0;0;0;0;0;0;0;0;0;0;0;0;0;-0,00104072;0,199997;-0,00042383;-0,16514;0,0229918;-0,104255;-0,036419;0,00218936;0;0,69703;0,0813337;3,67814;-0,0366519;0,0132645;0;0;0;-1080;1080;-500;1700;-10;10;-10;-0;0;-0;250;1,2;0,2;177;-1,2;-1;2555;0,07;4294967295;3750000128;0;16384;
8,969;-5,44133;0,062;178;218;2555;0;-0,00103901;0,199997;-0,000387784;-0,000867836;0,215984;-0,000627174;0;0;-0,062;0;0;0;0;0;0;0;0;0;0;0;0;0;0;0;0;0;0;-0,00103901;0,199997;-0,000387784;-0,165139;0,0229917;-0,104255;-0,0364189;0,00222524;0;0,698083;0,0813325;3,67823;-0,0368264;0,0132645;0;0;0;-1080;1080;-500;1700;-10;10;-10;-0;0;-0;250;1,2;0,2;177;-1,2;-1;2555;0,07;4294967295;3750000128;0;16384;
8,97899;-5,44133;0,062;178;218;2555;0;-0,00103861;0,199997;-0,000352697;-0,000878209;0,217982;-0,000630696;0;0;-0,062;0;0;0;0;0;0;0;0;0;0;0;0;0;0;0;0;0;0;-0,00103861;0,199997;-0,000352697;-0,165139;0,0229917;-0,104255;-0,0364189;0,00222524;0;0,699142;0,0802619;3,67827;-0,037001;0,01309;0;0;0;-1080;1080;-500;1700;-10;10;-10;-0;0;-0;250;1,2;0,2;177;-1,2;-1;2555;0,07;4294967295;3750000128;0;16384;
8,98895;-5,44133;0,062;178;218;2555;0;-0,00103861;0,199997;-0,000352697;-0,000888555;0,219974;-0,00063421;0;0;-0,062;0;0;0;0;0;0;0;0;0;0;0;0;0;0;0;0;0;0;-0,00103861;0,199997;-0,000352697;-0,165139;0,0229917;-0,104255;-0,0364189;0,00222524;0;0,699137;0,0802613;3,67831;-0,037001;0,01309;0;0;0;-1080;1080;-500;1700;-10;10;-10;-0;0;-0;250;1,2;0,2;177;-1,2;-1;2555;0,07;4294967295;3750000128;0;16384;
8,99905;-5,44133;0,062;178;218;2555;0;-0,00103861;0,199997;-0,000317791;-0,000899051;0,221995;-0,000637421;0;0;-0,062;0;0;0;0;0;0;0;0;0;0;0;0;0;0;0;0;0;0;-0,00103861;0,199997;-0,000317791;-0,165139;0,0229917;-0,104255;-0,0364189;0,00222524;0;0,699137;0,0791912;3,67831;-0,037001;0,0129154;0;0;0;-1080;1080;-500;1700;-10;10;-10;-0;0;-0;250;1,2;0,2;177;-1,2;-1;2555;0,07;4294967295;3750000128;0;16384;
9,00896;-5,44133;0,061;178;218;2555;0;-0,00104033;0,199997;-0,000353836;-0,000909362;0,223977;-0,000640928;0;0;-0,061;0;0;0;0;0;0;0;0;0;0;0;0;0;0;0;0;0;0;-0,00104033;0,199997;-0,000353836;-0,16514;0,0229918;-0,104255;-0,036419;0,00218936;0;0,698069;0,0791907;3,67835;-0,0368264;0,0129154;0;0;0;-1080;1080;-500;1700;-10;10;-10;-0;0;-0;250;1,2;0,2;177;-1,2;-1;2555;0,07;4294967295;3750000128;0;16384;
9,01898;-5,44133;0,06;178;218;2555;0;-0,00104166;0,199997;-0,000354795;-0,000919795;0,22598;-0,000644482;0;0;-0,06;0;0;0;0;0;0;0;0;0;0;0;0;0;0;0;0;0;0;-0,00104166;0,199997;-0,000354795;-0,16514;0,0229918;-0,104255;-0,036419;0,00215347;0;0,698074;0,0781212;3,67831;-0,0368264;0,0127409;0;0;0;-1080;1080;-500;1700;-10;10;-10;-0;0;-0;250;1,2;0,2;177;-1,2;-1;2555;0,07;4294967295;3750000128;0;16384;
9,02892;-5,44133;0,06;178;218;2555;0;-0,00104166;0,199997;-0,000354795;-0,000930146;0,227968;-0,000648007;0;0;-0,06;0;0;0;0;0;0;0;0;0;0;0;0;0;0;0;0;0;0;-0,00104166;0,199997;-0,000354795;-0,16514;0,0229918;-0,104255;-0,036419;0,00215347;0;0,698074;0,0781212;3,67831;-0,0368264;0,0127409;0;0;0;-1080;1080;-500;1700;-10;10;-10;-0;0;-0;250;1,2;0,2;177;-1,2;-1;2555;0,07;4294967295;3750000128;0;16384;
9,039;-5,44133;0,059;178;218;2555;0;-0,00104298;0,199997;-0,000355753;-0,000940661;0,229984;-0,000651594;0;0;-0,059;0;0;0;0;0;0;0;0;0;0;0;0;0;0;0;0;0;0;-0,00104298;0,199997;-0,000355753;-0,16514;0,0229919;-0,104255;-0,0364191;0,00211758;0;0,698074;0,0770511;3,67831;-0,0368264;0,0125664;0;0;0;-1080;1080;-500;1700;-10;10;-10;-0;0;-0;250;1,2;0,2;177;-1,2;-1;2555;0,07;4294967295;3750000128;0;16384;
9,04898;-5,44133;0,058;178;218;2555;0;-0,00104467;0,199997;-0,0003918;-0,000951087;0,23198;-0,000655504;0;0;-0,058;0;0;0;0;0;0;0;0;0;0;0;0;0;0;0;0;0;0;-0,00104467;0,199997;-0,0003918;-0,165141;0,0229919;-0,104256;-0,0364192;0,00208169;0;0,697011;0,0770511;3,67831;-0,0366519;0,0125664;0;0;0;-1080;1080;-500;1700;-10;10;-10;-0;0;-0;250;1,2;0,2;177;-1,2;-1;2555;0,07;4294967295;3750000128;0;16384;
9,05891;-5,44133;0,058;178;218;2555;0;-0,00104467;0,199997;-0,0003918;-0,000961457;0,233966;-0,000659394;0;0;-0,058;0;0;0;0;0;0;0;0;0;0;0;0;0;0;0;0;0;0;-0,00104467;0,199997;-0,0003918;-0,165141;0,0229919;-0,104256;-0,0364192;0,00208169;0;0,697016;0,0770516;3,67826;-0,0366519;0,0125664;0;0;0;-1080;1080;-500;1700;-10;10;-10;-0;0;-0;250;1,2;0,2;177;-1,2;-1;2555;0,07;4294967295;3750000128;0;16384;
9,06898;-5,44133;0,058;178;218;2555;0;-0,00104467;0,199997;-0,000356894;-0,000971983;0,23598;-0,000662989;0;0;-0,058;0;0;0;0;0;0;0;0;0;0;0;0;0;0;0;0;0;0;-0,00104467;0,199997;-0,000356894;-0,165141;0,0229919;-0,104256;-0,0364192;0,00208169;0;0,697016;0,0759815;3,67826;-0,0366519;0,0123918;0;0;0;-1080;1080;-500;1700;-10;10;-10;-0;0;-0;250;1,2;0,2;177;-1,2;-1;2555;0,07;4294967295;3750000128;0;16384;
9,079;-5,44133;0,058;178;218;2555;0;-0,00104504;0,199997;-0,000322171;-0,000982452;0,237984;-0,000666217;0;0;-0,058;0;0;0;0;0;0;0;0;0;0;0;0;0;0;0;0;0;0;-0,00104504;0,199997;-0,000322171;-0,165141;0,0229919;-0,104256;-0,0364192;0,00208169;0;0,695948;0,0749109;3,67831;-0,0364774;0,0122173;0;0;0;-1080;1080;-500;1700;-10;10;-10;-0;0;-0;250;1,2;0,2;177;-1,2;-1;2555;0,07;4294967295;3750000128;0;16384;
9,08897;-5,44133;0,058;178;218;2555;0;-0,00104504;0,199997;-0,000322171;-0,000992867;0,239977;-0,000669428;0;0;-0,058;0;0;0;0;0;0;0;0;0;0;0;0;0;0;0;0;0;0;-0,00104504;0,199997;-0,000322171;-0,165141;0,0229919;-0,104256;-0,0364192;0,00208169;0;0,695943;0,0749104;3,67835;-0,0364774;0,0122173;0;0;0;-1080;1080;-500;1700;-10;10;-10;-0;0;-0;250;1,2;0,2;177;-1,2;-1;2555;0,07;4294967295;3750000128;0;16384;
9,09905;-5,44133;0,058;178;218;2555;0;-0,00104504;0,199997;-0,000322171;-0,0010034;0,241993;-0,000672675;0;0;-0,058;0;0;0;0;0;0;0;0;0;0;0;0;0;0;0;0;0;0;-0,00104504;0,199997;-0,000322171;-0,165141;0,0229919;-0,104256;-0,0364192;0,00208169;0;0,695943;0,0749104;3,67835;-0,0364774;0,0122173;0;0;0;-1080;1080;-500;1700;-10;10;-10;-0;0;-0;250;1,2;0,2;177;-1,2;-1;2555;0,07;4294967295;3750000128;0;16384;
9,10901;-5,44133;0,058;178;218;2555;0;-0,00104541;0,199997;-0,000287447;-0,00101382;0,243987;-0,000675541;0;0;-0,058;0;0;0;0;0;0;0;0;0;0;0;0;0;0;0;0;0;0;-0,00104541;0,199997;-0,000287447;-0,165141;0,0229919;-0,104256;-0,0364192;0,00208169;0;0,69488;0,0738403;3,67835;-0,0363028;0,0120428;0;0;0;-1080;1080;-500;1700;-10;10;-10;-0;0;-0;250;1,2;0,2;177;-1,2;-1;2555;0,07;4294967295;3750000128;0;16384;
9,119;-5,44133;0,059;178;218;2555;0;-0,00104373;0,199997;-0,000216493;-0,00102425;0,245985;-0,000677703;0;0;-0,059;0;0;0;0;0;0;0;0;0;0;0;0;0;0;0;0;0;0;-0,00104373;0,199997;-0,000216493;-0,16514;0,0229919;-0,104255;-0,0364191;0,00211758;0;0,695938;0,0727697;3,67839;-0,0364774;0,0118682;0;0;0;-1080;1080;-500;1700;-10;10;-10;-0;0;-0;250;1,2;0,2;177;-1,2;-1;2555;0,07;4294967295;3750000128;0;16384;
9,12898;-5,44133;0,06;178;218;2555;0;-0,00104204;0,199997;-0,000215352;-0,00103464;0,247979;-0,000679851;0;0;-0,06;0;0;0;0;0;0;0;0;0;0;0;0;0;0;0;0;0;0;-0,00104204;0,199997;-0,000215352;-0,16514;0,0229918;-0,104255;-0,036419;0,00215347;0;0,696992;0,0738388;3,67847;-0,0366519;0,0120428;0;0;0;-1080;1080;-500;1700;-10;10;-10;-0;0;-0;250;1,2;0,2;177;-1,2;-1;2555;0,07;4294967295;3750000128;0;16384;
9,139;-5,44133;0,06;178;218;2555;0;-0,00104204;0,199997;-0,000215352;-0,00104508;0,249984;-0,000682009;0;0;-0,06;0;0;0;0;0;0;0;0;0;0;0;0;0;0;0;0;0;0;-0,00104204;0,199997;-0,000215352;-0,16514;0,0229918;-0,104255;-0,036419;0,00215347;0;0,696992;0,0738388;3,67848;-0,0366519;0,0120428;0;0;0;-1080;1080;-500;1700;-10;10;-10;-0;0;-0;250;1,2;0,2;177;-1,2;-1;2555;0,07;4294967295;3750000128;0;16384;
9,14894;-5,44133;0,061;178;218;2555;0;-0,00104072;0,199997;-0,000179487;-0,00105543;0,251972;-0,000683794;0;0;-0,061;0;0;0;0;0;0;0;0;0;0;0;0;0;0;0;0;0;0;-0,00104072;0,199997;-0,000179487;-0,16514;0,0229918;-0,104255;-0,036419;0,00218936;0;0,696992;0,0738388;3,67848;-0,0366519;0,0120428;0;0;0;-1080;1080;-500;1700;-10;10;-10;-0;0;-0;250;1,2;0,2;177;-1,2;-1;2555;0,07;4294967295;3750000128;0;16384;
9,15888;-5,44133;0,061;178;218;2555;0;-0,00104072;0,199997;-0,000214394;-0,00106578;0,25396;-0,000685925;0;0;-0,061;0;0;0;0;0;0;0;0;0;0;0;0;0;0;0;0;0;0;-0,00104072;0,199997;-0,000214394;-0,16514;0,0229918;-0,104255;-0,036419;0,00218936;0;0,696987;0,0749083;3,67852;-0,0366519;0,0122173;0;0;0;-1080;1080;-500;1700;-10;10;-10;-0;0;-0;250;1,2;0,2;177;-1,2;-1;2555;0,07;4294967295;3750000128;0;16384;
9,16888;-5,44133;0,062;178;218;2555;0;-0,0010398;0,199997;-0,000213616;-0,00107618;0,25596;-0,000688061;0;0;-0,062;0;0;0;0;0;0;0;0;0;0;0;0;0;0;0;0;0;0;-0,0010398;0,199997;-0,000213616;-0,165139;0,0229917;-0,104255;-0,0364189;0,00222524;0;0,695928;0,0759789;3,67848;-0,0364774;0,0123918;0;0;0;-1080;1080;-500;1700;-10;10;-10;-0;0;-0;250;1,2;0,2;177;-1,2;-1;2555;0,07;4294967295;3750000128;0;16384;
9,17919;-5,44133;0,062;178;218;2555;0;-0,0010398;0,199997;-0,000213616;-0,00108689;0,258021;-0,000690262;0;0;-0,062;0;0;0;0;0;0;0;0;0;0;0;0;0;0;0;0;0;0;-0,0010398;0,199997;-0,000213616;-0,165139;0,0229917;-0,104255;-0,0364189;0,00222524;0;0,695928;0,0759789;3,67848;-0,0364774;0,0123918;0;0;0;-1080;1080;-500;1700;-10;10;-10;-0;0;-0;250;1,2;0,2;177;-1,2;-1;2555;0,07;4294967295;3750000128;0;16384;
9,18896;-5,44133;0,063;178;218;2555;0;-0,00103849;0,199997;-0,000212658;-0,00109704;0,259975;-0,00069234;0;0;-0,063;0;0;0;0;0;0;0;0;0;0;0;0;0;0;0;0;0;0;-0,00103849;0,199997;-0,000212658;-0,165139;0,0229917;-0,104255;-0,0364188;0,00226113;0;0,695928;0,077049;3,67848;-0,0364774;0,0125664;0;0;0;-1080;1080;-500;1700;-10;10;-10;-0;0;-0;250;1,2;0,2;177;-1,2;-1;2555;0,07;4294967295;3750000128;0;16384;
9,19903;-5,44133;0,064;178;218;2555;0;-0,00103758;0,199997;-0,000176974;-0,00110749;0,261991;-0,000694124;0;0;-0,064;0;0;0;0;0;0;0;0;0;0;0;0;0;0;0;0;0;0;-0,00103758;0,199997;-0,000176974;-0,165139;0,0229916;-0,104254;-0,0364188;0,00229701;0;0,694865;0,0770489;3,67848;-0,0363028;0,0125664;0;0;0;-1080;1080;-500;1700;-10;10;-10;-0;0;-0;250;1,2;0,2;177;-1,2;-1;2555;0,07;4294967295;3750000128;0;16384;
9,20894;-5,44133;0,065;178;218;2555;0;-0,00103587;0,199997;-0,000140929;-0,00111775;0,263972;-0,00069552;0;0;-0,065;0;0;0;0;0;0;0;0;0;0;0;0;0;0;0;0;0;0;-0,00103587;0,199997;-0,000140929;-0,165138;0,0229916;-0,104254;-0,0364187;0,0023329;0;0,695923;0,0770484;3,67852;-0,0364774;0,0125664;0;0;0;-1080;1080;-500;1700;-10;10;-10;-0;0;-0;250;1,2;0,2;177;-1,2;-1;2555;0,07;4294967295;3750000128;0;16384;
9,21891;-5,44133;0,065;178;218;2555;0;-0,00103587;0,199997;-0,000140929;-0,00112808;0,265966;-0,000696925;0;0;-0,065;0;0;0;0;0;0;0;0;0;0;0;0;0;0;0;0;0;0;-0,00103587;0,199997;-0,000140929;-0,165138;0,0229916;-0,104254;-0,0364187;0,0023329;0;0,695918;0,0770479;3,67856;-0,0364774;0,0125664;0;0;0;-1080;1080;-500;1700;-10;10;-10;-0;0;-0;250;1,2;0,2;177;-1,2;-1;2555;0,07;4294967295;3750000128;0;16384;
9,22898;-5,44133;0,066;178;218;2555;0;-0,00106986;0,199997;-6,90698e-05;-0,00113886;0,26798;-0,00069762;0;0;-0,066;0;0;0;0;0;0;0;0;0;0;0;0;0;0;0;0;0;0;-0,00106986;0,199997;-6,90698e-05;-0,165138;0,0229915;-0,104254;-0,0364186;0,00236879;0;0,694855;0,0759778;3,67856;-0,0363028;0,0123918;0;0;0;-1080;1080;-500;1700;-10;10;-10;-0;0;-0;250;1,2;0,2;177;-1,2;-1;2555;0,07;4294967295;3750000128;0;16384;
9,23886;-5,44133;0,068;178;218;2555;0;-0,00110169;0,199997;4,12035e-06;-0,00114974;0,269956;-0,00069758;0;0;-0,068;0;0;0;0;0;0;0;0;0;0;0;0;0;0;0;0;0;0;-0,00110169;0,199997;4,12035e-06;-0,165137;0,0229914;-0,104253;-0,0364184;0,00244056;0;0,695909;0,0759767;3,67865;-0,0364774;0,0123918;0;0;0;-1080;1080;-500;1700;-10;10;-10;-0;0;-0;250;1,2;0,2;177;-1,2;-1;2555;0,07;4294967295;3750000128;0;16384;
9,249;-5,44133;0,069;178;218;2554;0;-0,00110082;0,199997;7,46982e-05;-0,0011609;0,271984;-0,000696822;0;0;-0,069;0;0;0;0;0;0;0;0;0;0;0;0;0;0;0;0;0;0;-0,00110082;0,199997;7,46982e-05;-0,165137;0,0229914;-0,104253;-0,0364184;0,00247644;0;0,694835;0,0749056;3,67874;-0,0363028;0,0122173;0;0;0;-1080;1080;-500;1700;-10;10;-10;-0;0;-0;250;1,2;0,2;177;-1,2;-1;2555;0,07;4294967295;3750000128;0;16384;
9,25896;-5,44133;0,069;178;218;2554;0;-0,00110082;0,199997;7,46982e-05;-0,00117187;0,273976;-0,000696078;0;0;-0,069;0;0;0;0;0;0;0;0;0;0;0;0;0;0;0;0;0;0;-0,00110082;0,199997;7,46982e-05;-0,165137;0,0229914;-0,104253;-0,0364184;0,00247644;0;0,694826;0,0749046;3,67882;-0,0363028;0,0122173;0;0;0;-1080;1080;-500;1700;-10;10;-10;-0;0;-0;250;1,2;0,2;177;-1,2;-1;2555;0,07;4294967295;3750000128;0;16384;
9,2689;-5,44133;0,069;178;218;2554;0;-0,00110082;0,199997;0,000109604;-0,0011828;0,275963;-0,000694989;0;0;-0,069;0;0;0;0;0;0;0;0;0;0;0;0;0;0;0;0;0;0;-0,00110082;0,199997;0,000109604;-0,165137;0,0229914;-0,104253;-0,0364184;0,00247644;0;0,694826;0,0738346;3,67882;-0,0363028;0,0120428;0;0;0;-1080;1080;-500;1700;-10;10;-10;-0;0;-0;250;1,2;0,2;177;-1,2;-1;2555;0,07;4294967295;3750000128;0;16384;
9,27892;-5,44133;0,07;178;218;2554;0;-0,00109952;0,199997;0,000180374;-0,00119383;0,277968;-0,000693181;0;0;-0,07;0;0;0;0;0;0;0;0;0;0;0;0;0;0;0;0;0;0;-0,00109952;0,199997;0,000180374;-0,165137;0,0229913;-0,104253;-0,0364183;0,00251233;0;0,694821;0,0727641;3,67886;-0,0363028;0,0118682;0;0;0;-1080;1080;-500;1700;-10;10;-10;-0;0;-0;250;1,2;0,2;177;-1,2;-1;2555;0,07;4294967295;3750000128;0;16384;
9,28935;-5,44133;0,072;178;218;2554;0;-0,00109736;0,199997;0,00025191;-0,00120528;0,280054;-0,000690553;0;0;-0,072;0;0;0;0;0;0;0;0;0;0;0;0;0;0;0;0;0;0;-0,00109736;0,199997;0,00025191;-0,165136;0,0229912;-0,104252;-0,0364181;0,0025841;0;0,693748;0,0727631;3,67895;-0,0361283;0,0118682;0;0;0;-1080;1080;-500;1700;-10;10;-10;-0;0;-0;250;1,2;0,2;177;-1,2;-1;2555;0,07;4294967295;3750000128;0;16384;
9,2989;-5,44133;0,072;178;218;2554;0;-0,00109736;0,199997;0,00025191;-0,00121575;0,281963;-0,000688149;0;0;-0,072;0;0;0;0;0;0;0;0;0;0;0;0;0;0;0;0;0;0;-0,00109736;0,199997;0,00025191;-0,165136;0,0229912;-0,104252;-0,0364181;0,0025841;0;0,693739;0,072762;3,67904;-0,0361283;0,0118682;0;0;0;-1080;1080;-500;1700;-10;10;-10;-0;0;-0;250;1,2;0,2;177;-1,2;-1;2555;0,07;4294967295;3750000128;0;16384;
9,309;-5,44133;0,073;178;218;2554;0;-0,00109653;0,199997;0,000322488;-0,00122682;0,283983;-0,000684893;0;0;-0,073;0;0;0;0;0;0;0;0;0;0;0;0;0;0;0;0;0;0;-0,00109653;0,199997;0,000322488;-0,165136;0,0229912;-0,104252;-0,036418;0,00261998;0;0,692675;0,0716921;3,67904;-0,0359538;0,0116937;0;0;0;-1080;1080;-500;1700;-10;10;-10;-0;0;-0;250;1,2;0,2;177;-1,2;-1;2555;0,07;4294967295;3750000128;0;16384;
9,319;-5,44133;0,074;178;218;2554;0;-0,00109524;0,199997;0,000393258;-0,00123777;0,285983;-0,00068096;0;0;-0,074;0;0;0;0;0;0;0;0;0;0;0;0;0;0;0;0;0;0;-0,00109524;0,199997;0,000393258;-0,165135;0,0229911;-0,104252;-0,0364179;0,00265586;0;0,692666;0,0706211;3,67912;-0,0359538;0,0115192;0;0;0;-1080;1080;-500;1700;-10;10;-10;-0;0;-0;250;1,2;0,2;177;-1,2;-1;2555;0,07;4294967295;3750000128;0;16384;
9,32888;-5,44133;0,076;178;218;2554;0;-0,00109313;0,199996;0,000464794;-0,00124858;0,287959;-0,000676366;0;0;-0,076;0;0;0;0;0;0;0;0;0;0;0;0;0;0;0;0;0;0;-0,00109313;0,199996;0,000464794;-0,165134;0,022991;-0,104251;-0,0364178;0,00272763;0;0,691593;0,0706201;3,67921;-0,0357792;0,0115192;0;0;0;-1080;1080;-500;1700;-10;10;-10;-0;0;-0;250;1,2;0,2;177;-1,2;-1;2555;0,07;4294967295;3750000128;0;16384;
9,33898;-5,44133;0,076;178;218;2554;0;-0,00109313;0,199996;0,000464794;-0,00125962;0,289979;-0,000671672;0;0;-0,076;0;0;0;0;0;0;0;0;0;0;0;0;0;0;0;0;0;0;-0,00109313;0,199996;0,000464794;-0,165134;0,022991;-0,104251;-0,0364178;0,00272763;0;0,691583;0,0706191;3,67929;-0,0357792;0,0115192;0;0;0;-1080;1080;-500;1700;-10;10;-10;-0;0;-0;250;1,2;0,2;177;-1,2;-1;2555;0,07;4294967295;3750000128;0;16384;
9,34897;-5,44133;0,077;178;218;2554;0;-0,00109234;0,199996;0,000500467;-0,00127053;0,291978;-0,00066667;0;0;-0,077;0;0;0;0;0;0;0;0;0;0;0;0;0;0;0;0;0;0;-0,00109234;0,199996;0,000500467;-0,165134;0,022991;-0,104251;-0,0364177;0,00276351;0;0,69052;0,0706191;3,67929;-0,0356047;0,0115192;0;0;0;-1080;1080;-500;1700;-10;10;-10;-0;0;-0;250;1,2;0,2;177;-1,2;-1;2555;0,07;4294967295;3750000128;0;16384;
9,35889;-5,44133;0,077;178;218;2554;0;-0,00109234;0,199996;0,000535373;-0,00128137;0,293962;-0,000661358;0;0;-0,077;0;0;0;0;0;0;0;0;0;0;0;0;0;0;0;0;0;0;-0,00109234;0,199996;0,000535373;-0,165134;0,022991;-0,104251;-0,0364177;0,00276351;0;0,690515;0,0695487;3,67933;-0,0356047;0,0113446;0;0;0;-1080;1080;-500;1700;-10;10;-10;-0;0;-0;250;1,2;0,2;177;-1,2;-1;2555;0,07;4294967295;3750000128;0;16384;
9,36896;-5,44133;0,077;178;218;2554;0;-0,00109234;0,199996;0,000535373;-0,00129237;0,295976;-0,000655969;0;0;-0,077;0;0;0;0;0;0;0;0;0;0;0;0;0;0;0;0;0;0;-0,00109234;0,199996;0,000535373;-0,165134;0,022991;-0,104251;-0,0364177;0,00276351;0;0,690511;0,0695482;3,67938;-0,0356047;0,0113446;0;0;0;-1080;1080;-500;1700;-10;10;-10;-0;0;-0;250;1,2;0,2;177;-1,2;-1;2555;0,07;4294967295;3750000128;0;16384;
