time 	e1	e2	ctrlpitch	ctrlroll	ctrlthrust	ctrlyaw	edx	edy	edz	cumulx	cumuly	cumulz	x_pred	y_pred	z_pred	dxr_pred	dyr_pred	dzr_pred	dxrT	dyrT	dzrT	dxrUn	dyrUn	dzrUn	x	y	z	dx	dy	dz	ux	uy	uz	dxd	dyd	dzd	Perpx	Tangx	Perpy	Tangy	Perpz	Tanz	ax	ay	az	pitch	roll	yaw	yawd	eyaw	kpvx	kpvy	kpvz	kpyaw	kivx	kivy	kivz	kdvx	kdvy	kdvz	kdyaw	ktg	veld	pitchoff	ke1	ke2	gravity	thr_vel	gps_accuracy	height_accuracy	gps_sat_num	gps_status
29.9435	-4.74133	-0.062	50	-50	1450	0	-0.152378	-0.129537	-0.00109503	-0.000598846	-0.000509079	-4.30347e-06	0	0	0.062	0	0	0	0	0	0	0	0	0	0	0	0.062	0	0	0	0.205665	-0.0810057	2.82845	-0.152378	-0.129537	-0.00109503	-0.18797	-0.0120136	-0.0474672	0.047574	-0.00253515	-0	0	0	9.81	-0.00663225	0.00331613	0	0	0	-1080	1080	-600	1700	-10	10	-10	-0	0	-0	250	-1.2	0.2	177	-1.2	-1	2555	0.07	4294967295	3750000128	0	16384	
29.9496	-4.74133	-0.063	100	-100	1500	0	-0.152378	-0.129537	-0.00111331	-0.00153033	-0.00130094	-1.11091e-05	0	0	0.063	0	0	0	0	0	0	0	0	0	0	0	0.063	0	0	0	0.129036	-0.167558	2.70047	-0.152378	-0.129537	-0.00111331	-0.18797	-0.0120136	-0.0474671	0.0475739	-0.00257603	-0	0.513941	0.0214076	3.67717	-0.00663225	0.00349066	0	0	0	-1080	1080	-600	1700	-10	10	-10	-0	0	-0	250	-1.2	0.2	177	-1.2	-1	2555	0.07	4294967295	3750000128	0	16384	
29.9597	-4.74133	-0.063	150	-139	1550	0	-0.152484	-0.129574	-0.00239745	-0.00306493	-0.00260497	-3.52371e-05	0	0	0.063	0.000105896	3.77797e-05	0.00131074	0	0	0	0	0	0	0	0	0.063	0	0	0	0.0467625	-0.240598	2.57249	-0.152378	-0.129536	-0.00108671	-0.18797	-0.0120136	-0.0474671	0.0475739	-0.00257603	-0	0.51501	0.0214077	3.67715	-0.00680678	0.00349066	0	0	0	-1080	1080	-600	1700	-10	10	-10	-0	0	-0	250	-1.2	0.2	177	-1.2	-1	2555	0.07	4294967295	3750000128	0	16384	
29.9697	-4.74133	-0.0630013	200	-139	1600	50	-0.152681	-0.129568	-0.00477507	-0.00459648	-0.00390467	-8.31359e-05	9.16264e-08	-3.6089e-08	0.0630013	0.000302771	3.1321e-05	0.00368831	0	0	0	0	0	0	0	0	0.063	0	0	0	-0.04112	-0.248359	2.4445	-0.152378	-0.129536	-0.00108676	-0.18797	-0.0120136	-0.0474671	0.0475739	-0.00257609	-0	0.515165	0.0214141	3.6753	-0.00680678	0.00349066	0	2.76638	0.36647	-1080	1080	-600	1700	-10	10	-10	-0	0	-0	250	-1.2	0.2	177	-1.2	-1	2555	0.07	4294967295	3750000128	0	16384	
29.9798	-4.74134	-0.0630084	250	-139	1650	100	-0.153045	-0.129439	-0.00918157	-0.00613672	-0.00520734	-0.000175539	5.43542e-07	-3.31506e-07	0.0630084	0.000666027	-9.7301e-05	0.00812111	0	0	0	0	0	0	0	0	0.063	0	0	0	-0.134569	-0.256121	2.31652	-0.152379	-0.129536	-0.00106046	-0.18797	-0.0120136	-0.047467	0.0475739	-0.00257638	-0	0.51652	0.0214261	3.67187	-0.00698132	0.00349066	0	2.59393	0.520696	-1080	1080	-600	1700	-10	10	-10	-0	0	-0	250	-1.2	0.2	177	-1.2	-1	2555	0.07	4294967295	3750000128	0	16384	
29.9897	-4.74134	-0.0630294	300	-139	1700	150	-0.153463	-0.129129	-0.0151586	-0.00766751	-0.0064954	-0.000326747	1.64858e-06	-1.4642e-06	0.0630294	0.00108427	-0.000406902	0.0140973	0	0	0	0	0	0	0	0	0.063	0	0	0	-0.233538	-0.263882	2.18853	-0.152379	-0.129536	-0.00106132	-0.18797	-0.0120135	-0.0474668	0.0475739	-0.00257723	-0	0.517054	0.0214482	3.66553	-0.00698132	0.00349066	0	2.41536	0.664058	-1080	1080	-600	1700	-10	10	-10	-0	0	-0	250	-1.2	0.2	177	-1.2	-1	2555	0.07	4294967295	3750000128	0	16384	
29.9996	-4.74135	-0.0630756	343	-138	1750	200	-0.153873	-0.128564	-0.0225683	-0.00918777	-0.00776562	-0.000549721	3.53176e-06	-4.35463e-06	0.0630756	0.00149332	-0.000971363	0.021509	0	0	0	0	0	0	0	0	0.063	0	0	0	-0.324323	-0.269691	2.06055	-0.152379	-0.129535	-0.00105921	-0.18797	-0.0120133	-0.0474661	0.0475738	-0.00257912	-0	0.518849	0.0204044	3.65692	-0.00715585	0.00331613	0	2.25223	0.77667	-1080	1080	-600	1700	-10	10	-10	-0	0	-0	250	-1.2	0.2	177	-1.2	-1	2555	0.07	4294967295	3750000128	0	16384	
30.0096	-4.74135	-0.0631603	343	-137	1800	250	-0.154188	-0.127678	-0.031238	-0.0107269	-0.0090401	-0.000861539	5.90277e-06	-1.02534e-05	0.0631603	0.00180788	-0.00185638	0.0301753	0	0	0	0	0	0	0	0	0.063	0	0	0	-0.33359	-0.275389	1.93256	-0.15238	-0.129534	-0.00106267	-0.18797	-0.012013	-0.0474647	0.0475739	-0.00258258	-0	0.519749	0.0204398	3.64624	-0.00715585	0.00331613	0	2.09315	0.866647	-1080	1080	-600	1700	-10	10	-10	-0	0	-0	250	-1.2	0.2	177	-1.2	-1	2555	0.07	4294967295	3750000128	0	16384	
30.0196	-4.74135	-0.0632993	343	-136	1850	300	-0.15436	-0.12641	-0.0410095	-0.0122753	-0.0103081	-0.0012729	7.84954e-06	-2.07518e-05	0.0632993	0.00197765	-0.00312248	0.0399451	0	0	0	0	0	0	0	0	0.063	0	0	0	-0.342856	-0.280975	1.80458	-0.152382	-0.129532	-0.00106436	-0.187971	-0.0120124	-0.0474623	0.047574	-0.00258826	-0	0.521876	0.0194032	3.63375	-0.00733038	0.00314159	0	1.93242	0.935323	-1080	1080	-600	1700	-10	10	-10	-0	0	-0	250	-1.2	0.2	177	-1.2	-1	2555	0.07	4294967295	3750000128	0	16384	
30.0297	-4.74132	-0.0635125	343	-134	1900	350	-0.154481	-0.124841	-0.0518709	-0.0138289	-0.0115636	-0.00179457	7.74149e-06	-3.79541e-05	0.0635125	0.00209577	-0.00468739	0.0507979	0	0	0	0	0	0	0	0	0.063	0	0	0	-0.352122	-0.28433	1.67659	-0.152385	-0.129529	-0.00107308	-0.187972	-0.0120114	-0.0474584	0.0475745	-0.00259699	-0	0.523066	0.0194475	3.61967	-0.00733038	0.00314159	0	1.77201	0.979826	-1080	1080	-600	1700	-10	10	-10	-0	0	-0	250	-1.2	0.2	177	-1.2	-1	2555	0.07	4294967295	3750000128	0	16384	
30.0397	-4.74127	-0.0638206	344	-132	1950	400	-0.154562	-0.122956	-0.0636469	-0.0153805	-0.012798	-0.00243352	3.62595e-06	-6.43079e-05	0.0638206	0.00217201	-0.00656725	0.0625878	0	0	0	0	0	0	0	0	0.063	0	0	0	-0.363562	-0.287462	1.54861	-0.15239	-0.129523	-0.00105909	-0.187973	-0.0120101	-0.0474525	0.0475753	-0.00260962	-0	0.525468	0.0194966	3.60402	-0.00750492	0.00314159	0	1.62712	0.998414	-1080	1080	-600	1700	-10	10	-10	-0	0	-0	250	-1.2	0.2	177	-1.2	-1	2555	0.07	4294967295	3750000128	0	16384	
30.0496	-4.74116	-0.0642463	344	-130	2000	450	-0.154573	-0.120749	-0.0762555	-0.0169029	-0.0139872	-0.00318456	-6.97175e-06	-0.000102675	0.0642463	0.00217669	-0.00876718	0.0751789	0	0	0	0	0	0	0	0	0.063	0	0	0	-0.372884	-0.29037	1.42063	-0.152396	-0.129516	-0.00107653	-0.187974	-0.0120082	-0.0474441	0.0475768	-0.00262708	-0	0.526905	0.0195499	3.58705	-0.00750492	0.00314159	0	1.503	0.997703	-1080	1080	-600	1700	-10	10	-10	-0	0	-0	250	-1.2	0.2	177	-1.2	-1	2555	0.07	4294967295	3750000128	0	16384	
30.0597	-4.74098	-0.0638124	344	-127	2050	500	-0.154526	-0.118192	-0.0894639	-0.01847	-0.0151858	-0.00409182	-2.70519e-05	-0.000156221	0.0638124	0.00212059	-0.0113128	0.088409	0	0	0	0	0	0	0	0	0.062	0	0	0	-0.382206	-0.290768	1.29264	-0.152405	-0.129505	-0.00105485	-0.187977	-0.0120057	-0.0474325	0.0475793	-0.00260943	-0	0.529529	0.0185178	3.56888	-0.00767945	0.00296706	0	1.39933	0.985336	-1080	1080	-600	1700	-10	10	-10	-0	0	-0	250	-1.2	0.2	177	-1.2	-1	2555	0.07	4294967295	3750000128	0	16384	
30.0697	-4.74071	-0.0635362	343	-124	2100	550	-0.154388	-0.115314	-0.103069	-0.0200131	-0.0163384	-0.00512199	-6.00116e-05	-0.00022789	0.0635362	0.00197079	-0.0141764	0.102002	0	0	0	0	0	0	0	0	0.061	0	0	0	-0.389188	-0.290831	1.16466	-0.152418	-0.12949	-0.00106624	-0.187981	-0.0120025	-0.047417	0.0475829	-0.00259827	-0	0.531144	0.0174816	3.54984	-0.00767945	0.00279253	0	1.31331	0.967032	-1080	1080	-600	1700	-10	10	-10	-0	0	-0	250	-1.2	0.2	177	-1.2	-1	2555	0.07	4294967295	3750000128	0	16384	
30.0797	-4.74032	-0.0634627	343	-121	2150	600	-0.15419	-0.112077	-0.117275	-0.0215573	-0.0174608	-0.0062965	-0.000110422	-0.000323468	0.0634627	0.00175557	-0.017394	0.116239	0	0	0	0	0	0	0	0	0.06	0	0	0	-0.398454	-0.290559	1.03667	-0.152434	-0.129471	-0.00103676	-0.187985	-0.0119983	-0.0473965	0.0475879	-0.00259547	-0	0.5339	0.0175364	3.53023	-0.00785398	0.00279253	0	1.24183	0.946377	-1080	1080	-600	1700	-10	10	-10	-0	0	-0	250	-1.2	0.2	177	-1.2	-1	2555	0.07	4294967295	3750000128	0	16384	
30.0898	-4.73978	-0.0645995	343	-117	2200	650	-0.153885	-0.108518	-0.1317	-0.023106	-0.018553	-0.00762193	-0.000182567	-0.00044568	0.0645995	0.0014292	-0.0209274	0.130616	0	0	0	0	0	0	0	0	0.06	0	0	0	-0.407721	-0.287496	0.908689	-0.152456	-0.129445	-0.00108344	-0.187989	-0.011993	-0.0473702	0.0475945	-0.00264224	-0	0.535642	0.0175936	3.50974	-0.00785398	0.00279253	0	1.18201	0.92537	-1080	1080	-600	1700	-10	10	-10	-0	0	-0	250	-1.2	0.2	177	-1.2	-1	2555	0.07	4294967295	3750000128	0	16384	
30.0997	-4.73905	-0.0639806	343	-113	2250	700	-0.153479	-0.10458	-0.146227	-0.0246314	-0.0195924	-0.00907528	-0.000281949	-0.000600016	0.0639806	0.000995937	-0.0248338	0.145146	0	0	0	0	0	0	0	0	0.058	0	0	0	-0.416987	-0.283986	0.780705	-0.152483	-0.129413	-0.00108097	-0.187996	-0.0119866	-0.0473374	0.0476035	-0.00261731	-0	0.53741	0.0165485	3.48894	-0.00785398	0.00261799	0	1.13152	0.905058	-1080	1080	-600	1700	-10	10	-10	-0	0	-0	250	-1.2	0.2	177	-1.2	-1	2555	0.07	4294967295	3750000128	0	16384	
30.1096	-4.73809	-0.0646359	342	-108	2300	750	-0.152926	-0.100335	-0.160857	-0.0261438	-0.0205847	-0.0106662	-0.000414754	-0.000792032	0.0646359	0.000409883	-0.0290382	0.159745	0	0	0	0	0	0	0	0	0.057	0	0	0	-0.42369	-0.277462	0.65272	-0.152516	-0.129374	-0.00111215	-0.188004	-0.0119786	-0.0472966	0.047615	-0.00264461	-0	0.538089	0.0177102	3.46799	-0.00767945	0.00279253	0	1.0884	0.885887	-1080	1080	-600	1700	-10	10	-10	-0	0	-0	250	-1.2	0.2	177	-1.2	-1	2555	0.07	4294967295	3750000128	0	16384	
30.1196	-4.73687	-0.0655744	341	-103	2350	800	-0.1523	-0.0957684	-0.175204	-0.0276682	-0.0215432	-0.0124198	-0.00058666	-0.00102541	0.0655744	-0.000257431	-0.0335563	0.174102	0	0	0	0	0	0	0	0	0.056	0	0	0	-0.430282	-0.270378	0.524736	-0.152558	-0.129325	-0.00110182	-0.188012	-0.0119692	-0.0472471	0.0476295	-0.00268366	-0	0.540986	0.0188797	3.44689	-0.00785398	0.00296706	0	1.05113	0.867984	-1080	1080	-600	1700	-10	10	-10	-0	0	-0	250	-1.2	0.2	177	-1.2	-1	2555	0.07	4294967295	3750000128	0	16384	
30.1297	-4.73535	-0.0678247	340	-98	2400	850	-0.151509	-0.090854	-0.189349	-0.0291939	-0.0224581	-0.0143265	-0.000804927	-0.00130617	0.0678247	-0.00109876	-0.0384111	0.188154	0	0	0	0	0	0	0	0	0.056	0	0	0	-0.436762	-0.262734	0.396751	-0.152608	-0.129265	-0.00119452	-0.188022	-0.0119579	-0.0471875	0.0476473	-0.00277657	-0	0.542745	0.0189411	3.42619	-0.00785398	0.00296706	0	1.01851	0.851329	-1080	1080	-600	1700	-10	10	-10	-0	0	-0	250	-1.2	0.2	177	-1.2	-1	2555	0.07	4294967295	3750000128	0	16384	
30.1397	-4.73346	-0.0684334	339	-92	2450	900	-0.150568	-0.0855862	-0.203175	-0.0307002	-0.0233143	-0.0163591	-0.00107892	-0.00164272	0.0684334	-0.0020994	-0.0436077	0.201955	0	0	0	0	0	0	0	0	0.054	0	0	0	-0.44313	-0.251796	0.268767	-0.152668	-0.129194	-0.00122023	-0.188035	-0.0119448	-0.0471166	0.0476696	-0.00280253	-0	0.544481	0.0190017	3.40578	-0.00785398	0.00296706	0	0.989663	0.835841	-1080	1080	-600	1700	-10	10	-10	-0	0	-0	250	-1.2	0.2	177	-1.2	-1	2555	0.07	4294967295	3750000128	0	16384	
30.1497	-4.73115	-0.0704209	338	-86	2500	950	-0.149504	-0.0799754	-0.216597	-0.0322008	-0.0241171	-0.0185331	-0.00141725	-0.00204111	0.0704209	-0.00323509	-0.0491334	0.215321	0	0	0	0	0	0	0	0	0.053	0	0	0	-0.449387	-0.240187	0.140783	-0.152739	-0.129109	-0.00127597	-0.188049	-0.0119293	-0.0470327	0.0476964	-0.00288524	-0	0.547295	0.0190609	3.38582	-0.00802851	0.00296706	0	0.963872	0.821406	-1080	1080	-600	1700	-10	10	-10	-0	0	-0	250	-1.2	0.2	177	-1.2	-1	2555	0.07	4294967295	3750000128	0	16384	
30.1597	-4.72837	-0.0727884	337	-80	2550	1000	-0.14822	-0.0741105	-0.229349	-0.03368	-0.0248567	-0.020822	-0.00182751	-0.00250538	0.0727884	-0.00460224	-0.0548988	0.227997	0	0	0	0	0	0	0	0	0.052	0	0	0	-0.455532	-0.227905	0.0127984	-0.152823	-0.129009	-0.0013517	-0.188065	-0.0119115	-0.0469351	0.0477284	-0.00298386	-0	0.548945	0.020243	3.36644	-0.00802851	0.00314159	0	0.940587	0.807904	-1080	1080	-600	1700	-10	10	-10	-0	0	-0	250	-1.2	0.2	177	-1.2	-1	2555	0.07	4294967295	3750000128	0	16384	
30.1696	-4.72506	-0.0765733	335	-73	2600	1050	-0.146737	-0.0678952	-0.241451	-0.0351311	-0.0255281	-0.0232097	-0.00232109	-0.00304406	0.0765733	-0.00618281	-0.0609976	0.239943	0	0	0	0	0	0	0	0	0.052	0	0	0	-0.458668	-0.212048	-0.115186	-0.15292	-0.128893	-0.00150848	-0.188082	-0.0118911	-0.0468219	0.0477663	-0.00314104	-0	0.550514	0.0203008	3.34803	-0.00802851	0.00314159	0	0.919344	0.795204	-1080	1080	-600	1700	-10	10	-10	-0	0	-0	250	-1.2	0.2	177	-1.2	-1	2555	0.07	4294967295	3750000128	0	16384	
30.1797	-4.72116	-0.0797737	333	-66	2650	1100	-0.144996	-0.0614003	-0.252608	-0.0365924	-0.0261469	-0.0257555	-0.00290674	-0.00366126	0.0797737	-0.0080341	-0.0673586	0.25094	0	0	0	0	0	0	0	0	0.051	0	0	0	-0.46158	-0.195408	-0.24317	-0.153031	-0.128759	-0.00166851	-0.188102	-0.0118681	-0.0466926	0.0478108	-0.00327483	-0	0.550877	0.0203558	3.33055	-0.00785398	0.00314159	0	0.899774	0.783187	-1080	1080	-600	1700	-10	10	-10	-0	0	-0	250	-1.2	0.2	177	-1.2	-1	2555	0.07	4294967295	3750000128	0	16384	
30.1897	-4.71662	-0.0833913	331	-59	2700	1150	-0.143076	-0.0547256	-0.262636	-0.0380306	-0.026697	-0.0283955	-0.00359404	-0.00436162	0.0833913	-0.0100816	-0.0738807	0.260839	0	0	0	0	0	0	0	0	0.05	0	0	0	-0.464269	-0.177984	-0.371155	-0.153157	-0.128606	-0.00179711	-0.188124	-0.0118422	-0.0465461	0.0478624	-0.00342639	-0	0.552248	0.0215401	3.31442	-0.00785398	0.00331613	0	0.881583	0.771746	-1080	1080	-600	1700	-10	10	-10	-0	0	-0	250	-1.2	0.2	177	-1.2	-1	2555	0.07	4294967295	3750000128	0	16384	
30.1997	-4.71131	-0.0885171	329	-51	2718	1200	-0.140954	-0.0476588	-0.271785	-0.0394393	-0.0271733	-0.0311117	-0.00440325	-0.00516176	0.0885171	-0.0123484	-0.0807712	0.269779	0	0	0	0	0	0	0	0	0.05	0	0	0	-0.461303	-0.15488	-0.417229	-0.153303	-0.12843	-0.00200661	-0.188148	-0.0118129	-0.0463787	0.0479224	-0.00364078	-0	0.554613	0.020452	3.29992	-0.00802851	0.00314159	0	0.864534	0.760793	-1080	1080	-600	1700	-10	10	-10	-0	0	-0	250	-1.2	0.2	177	-1.2	-1	2555	0.07	4294967295	3750000128	0	16384	
30.2096	-4.70521	-0.0941057	327	-43	2723	1250	-0.13853	-0.0404187	-0.279672	-0.0408113	-0.0275736	-0.0338816	-0.00534116	-0.00606084	0.0941057	-0.0149361	-0.0878123	0.277431	0	0	0	0	0	0	0	0	0.05	0	0	0	-0.45608	-0.130829	-0.430027	-0.153466	-0.128231	-0.00224043	-0.188174	-0.0117803	-0.0461908	0.0479913	-0.00387527	-0	0.555741	0.0204936	3.28668	-0.00802851	0.00314159	0	0.848434	0.750246	-1080	1080	-600	1700	-10	10	-10	-0	0	-0	250	-1.2	0.2	177	-1.2	-1	2555	0.07	4294967295	3750000128	0	16384	
30.2196	-4.69824	-0.10015	324	-35	2727	1258	-0.135849	-0.0330058	-0.286861	-0.0421697	-0.0279037	-0.0367502	-0.00641908	-0.00706297	0.10015	-0.0177995	-0.0950014	0.284345	0	0	0	0	0	0	0	0	0.05	0	0	0	-0.447627	-0.106647	-0.440266	-0.153648	-0.128007	-0.00251655	-0.188202	-0.0117444	-0.0459816	0.0480696	-0.00412981	-0	0.556714	0.0193889	3.27526	-0.00802851	0.00296706	0	0.833121	0.740034	-1080	1080	-600	1700	-10	10	-10	-0	0	-0	250	-1.2	0.2	177	-1.2	-1	2555	0.07	4294967295	3750000128	0	16384	
30.2296	-4.69035	-0.106642	320	-27	2731	1241	-0.132864	-0.025573	-0.293599	-0.0434983	-0.0281594	-0.0396859	-0.00764749	-0.00817074	0.106642	-0.0209857	-0.102186	0.290782	0	0	0	0	0	0	0	0	0.05	0	0	0	-0.436102	-0.0823925	-0.450505	-0.15385	-0.127759	-0.00281704	-0.188232	-0.011705	-0.0457505	0.0481581	-0.00440432	-0	0.556463	0.0194199	3.26484	-0.00785398	0.00296706	0	0.818465	0.730097	-1080	1080	-600	1700	-10	10	-10	-0	0	-0	250	-1.2	0.2	177	-1.2	-1	2555	0.07	4294967295	3750000128	0	16384	
30.2396	-4.68406	-0.113447	319	-20	2734	1274	-0.131718	-0.0187051	-0.299241	-0.0448085	-0.0283454	-0.0426624	-0.00849206	-0.00961909	0.113447	-0.0223803	-0.108747	0.296138	0	0	0	0	0	0	0	0	0.05	0	0	0	-0.433532	-0.0610991	-0.458184	-0.154098	-0.127452	-0.0031028	-0.188285	-0.01164	-0.0454354	0.0482364	-0.00469111	-0	0.557294	0.0194488	3.25507	-0.00785398	0.00296706	0	0.847547	0.749659	-1080	1080	-600	1700	-10	10	-10	-0	0	-0	250	-1.2	0.2	177	-1.2	-1	2555	0.07	4294967295	3750000128	0	16384	
30.2497	-4.67453	-0.108417	314	-14	2715	1224	-0.126866	-0.0132835	-0.266572	-0.0460909	-0.0284797	-0.0453572	-0.0101467	-0.0102802	0.108417	-0.0273759	-0.114	0.263669	0	0	0	0	0	0	0	0	0.05	0	0	0	-0.415378	-0.0424725	-0.40955	-0.154242	-0.127283	-0.00290288	-0.188294	-0.0116326	-0.0453139	0.0483371	-0.00449182	-0	0.557991	0.0194732	3.24687	-0.00785398	0.00296706	0	0.791935	0.711714	-1080	1080	-600	1700	-10	10	-10	-0	0	-0	250	-1.2	0.2	177	-1.2	-1	2555	0.07	4294967295	3750000128	0	16384	
30.2597	-4.66291	-0.105634	308	-7	2699	1174	-0.121123	-0.00677862	-0.240112	-0.0473079	-0.0285478	-0.0477696	-0.0121568	-0.0111161	0.105634	-0.0332959	-0.120291	0.23731	0	0	0	0	0	0	0	0	0.05	0	0	0	-0.394866	-0.0211112	-0.368595	-0.154419	-0.12707	-0.00280184	-0.188303	-0.0116214	-0.0451579	0.0484598	-0.00438678	-0	0.552864	0.0204711	3.29385	-0.00767945	0.00314159	0	0.740711	0.674813	-1080	1080	-600	1700	-10	10	-10	-0	0	-0	250	-1.2	0.2	177	-1.2	-1	2555	0.07	4294967295	3750000128	0	16384	
30.2697	-4.65312	-0.102018	301	-3	2683	1124	-0.115072	-0.00287792	-0.213334	-0.048453	-0.0285765	-0.0498925	-0.013949	-0.0114222	0.102018	-0.0394355	-0.124088	0.21067	0	0	0	0	0	0	0	0	0.05	0	0	0	-0.371572	-0.00899402	-0.32764	-0.154508	-0.126966	-0.00266458	-0.18829	-0.0116357	-0.0451185	0.0485583	-0.00424506	-0	0.54851	0.0214822	3.33189	-0.00750492	0.00331613	0	0.686136	0.633552	-1080	1080	-600	1700	-10	10	-10	-0	0	-0	250	-1.2	0.2	177	-1.2	-1	2555	0.07	4294967295	3750000128	0	16384	
30.2797	-4.64652	-0.0969572	296	-1	2666	1074	-0.110056	-0.00154098	-0.184943	-0.0495538	-0.0285919	-0.0517425	-0.0152164	-0.0113826	0.0969572	-0.0444741	-0.125401	0.182484	0	0	0	0	0	0	0	0	0.05	0	0	0	-0.354343	-0.00297901	-0.284125	-0.15453	-0.126942	-0.00245933	-0.188269	-0.0116601	-0.0451491	0.0486219	-0.00403992	-0	0.54525	0.0213545	3.37039	-0.00750492	0.00331613	0	0.642253	0.599001	-1080	1080	-600	1700	-10	10	-10	-0	0	-0	250	-1.2	0.2	177	-1.2	-1	2555	0.07	4294967295	3750000128	0	16384	
30.2897	-4.64118	-0.091969	291	-1	2650	1024	-0.105769	-0.0010965	-0.158206	-0.0506163	-0.0286029	-0.0533317	-0.016257	-0.011293	0.091969	-0.048771	-0.125837	0.155928	0	0	0	0	0	0	0	0	0.05	0	0	0	-0.33743	-0.00296113	-0.24317	-0.15454	-0.126934	-0.0022778	-0.188249	-0.0116834	-0.0451874	0.0486728	-0.00383629	-0	0.541792	0.0201023	3.41122	-0.00750492	0.00314159	0	0.607131	0.570513	-1080	1080	-600	1700	-10	10	-10	-0	0	-0	250	-1.2	0.2	177	-1.2	-1	2555	0.07	4294967295	3750000128	0	16384	
30.2997	-4.6374	-0.0881078	288	-2	2635	974	-0.102347	-0.00162463	-0.133242	-0.0516404	-0.0286191	-0.0546649	-0.0170118	-0.011152	0.0881078	-0.052188	-0.125318	0.13115	0	0	0	0	0	0	0	0	0.051	0	0	0	-0.326697	-0.00588874	-0.204775	-0.154535	-0.126943	-0.00209264	-0.188231	-0.0117046	-0.0452325	0.0487078	-0.00367809	-0	0.539642	0.0199815	3.44968	-0.00767945	0.00314159	0	0.580265	0.548246	-1080	1080	-600	1700	-10	10	-10	-0	0	-0	250	-1.2	0.2	177	-1.2	-1	2555	0.07	4294967295	3750000128	0	16384	
30.3097	-4.63615	-0.0834024	285	-3	2621	924	-0.100294	-0.00341328	-0.109975	-0.0526385	-0.0286531	-0.0557594	-0.0172939	-0.0109775	0.0834024	-0.0542209	-0.123558	0.108127	0	0	0	0	0	0	0	0	0.051	0	0	0	-0.316186	-0.00878618	-0.168939	-0.154515	-0.126972	-0.00184809	-0.188221	-0.0117194	-0.0452776	0.0487182	-0.00348261	-0	0.537695	0.0209725	3.48559	-0.00785398	0.00331613	0	0.565587	0.535911	-1080	1080	-600	1700	-10	10	-10	-0	0	-0	250	-1.2	0.2	177	-1.2	-1	2555	0.07	4294967295	3750000128	0	16384	
30.3196	-4.63504	-0.0788434	283	-6	2608	888	-0.0983455	-0.00532211	-0.0884001	-0.053613	-0.0287058	-0.0566353	-0.0175573	-0.0107631	0.0788434	-0.0561412	-0.121686	0.0867415	0	0	0	0	0	0	0	0	0.051	0	0	0	-0.308795	-0.0174852	-0.135663	-0.154487	-0.127008	-0.0016586	-0.188208	-0.0117362	-0.0453313	0.0487266	-0.00329303	-0	0.534849	0.0208615	3.51907	-0.00785398	0.00331613	0	0.549946	0.522641	-1080	1080	-600	1700	-10	10	-10	-0	0	-0	250	-1.2	0.2	177	-1.2	-1	2555	0.07	4294967295	3750000128	0	16384	
30.3296	-4.63424	-0.0744145	281	-8	2596	863	-0.0965466	-0.00747903	-0.0684382	-0.0545806	-0.0287808	-0.0573212	-0.0177749	-0.0104877	0.0744145	-0.0579012	-0.119579	0.0669639	0	0	0	0	0	0	0	0	0.051	0	0	0	-0.301579	-0.0232063	-0.104947	-0.154448	-0.127058	-0.0014743	-0.188193	-0.0117555	-0.0453981	0.0487309	-0.00310859	-0	0.53221	0.0207585	3.55011	-0.00785398	0.00331613	0	0.533054	0.508166	-1080	1080	-600	1700	-10	10	-10	-0	0	-0	250	-1.2	0.2	177	-1.2	-1	2555	0.07	4294967295	3750000128	0	16384	
30.3397	-4.63369	-0.0701476	280	-10	2585	837	-0.0949145	-0.00973239	-0.0500875	-0.0555326	-0.0288784	-0.0578236	-0.0179582	-0.0101683	0.0701476	-0.0594864	-0.117384	0.0487687	0	0	0	0	0	0	0	0	0.051	0	0	0	-0.297415	-0.0288849	-0.0767906	-0.154401	-0.127117	-0.00131878	-0.188175	-0.0117766	-0.0454743	0.0487323	-0.00293072	-0	0.529768	0.0195757	3.57884	-0.00785398	0.00314159	0	0.515212	0.492719	-1080	1080	-600	1700	-10	10	-10	-0	0	-0	250	-1.2	0.2	177	-1.2	-1	2555	0.07	4294967295	3750000128	0	16384	
30.3496	-4.63335	-0.0660893	278	-13	2575	810	-0.0934404	-0.0120908	-0.0333711	-0.0564604	-0.0289985	-0.0581549	-0.0181079	-0.00981848	0.0660893	-0.0609076	-0.115091	0.0321945	0	0	0	0	0	0	0	0	0.051	0	0	0	-0.290516	-0.0374051	-0.0511937	-0.154348	-0.127182	-0.00117659	-0.188157	-0.0117988	-0.0455567	0.0487311	-0.00276139	-0	0.526443	0.0194928	3.60525	-0.00767945	0.00314159	0	0.496851	0.476659	-1080	1080	-600	1700	-10	10	-10	-0	0	-0	250	-1.2	0.2	177	-1.2	-1	2555	0.07	4294967295	3750000128	0	16384	
30.3596	-4.63322	-0.0622492	277	-15	2566	781	-0.0920791	-0.0145379	-0.0182374	-0.05738	-0.0291437	-0.0583371	-0.0182274	-0.00942797	0.0622492	-0.0622089	-0.112719	0.017221	0	0	0	0	0	0	0	0	0.051	0	0	0	-0.286636	-0.0430088	-0.0281566	-0.154288	-0.127256	-0.00101646	-0.188137	-0.0118228	-0.0456479	0.0487273	-0.00260103	-0	0.524402	0.0194172	3.62931	-0.00767945	0.00314159	0	0.477347	0.459424	-1080	1080	-600	1700	-10	10	-10	-0	0	-0	250	-1.2	0.2	177	-1.2	-1	2555	0.07	4294967295	3750000128	0	16384	
30.3697	-4.63328	-0.0586372	275	-18	2558	750	-0.090898	-0.0170223	-0.00465518	-0.0583035	-0.0293166	-0.0583844	-0.0183161	-0.00901413	0.0586372	-0.0633253	-0.110313	0.00376719	0	0	0	0	0	0	0	0	0.051	0	0	0	-0.280031	-0.0514495	-0.00767906	-0.154223	-0.127336	-0.000887991	-0.188115	-0.0118474	-0.0457437	0.0487211	-0.0024501	-0	0.522553	0.0182738	3.65109	-0.00767945	0.00296706	0	0.457343	0.441565	-1080	1080	-600	1700	-10	10	-10	-0	0	-0	250	-1.2	0.2	177	-1.2	-1	2555	0.07	4294967295	3750000128	0	16384	
30.3797	-4.63366	-0.0552457	274	-21	2551	718	-0.0898692	-0.0196246	0.00740815	-0.0592021	-0.0295128	-0.0583103	-0.0183532	-0.00855941	0.0552457	-0.0642816	-0.1078	-0.00815456	0	0	0	0	0	0	0	0	0.051	0	0	0	-0.276417	-0.0598599	0.0102387	-0.154151	-0.127424	-0.00074641	-0.188093	-0.0118734	-0.0458479	0.0487112	-0.00230823	-0	0.520894	0.0182158	3.67065	-0.00767945	0.00296706	0	0.436386	0.422667	-1080	1080	-600	1700	-10	10	-10	-0	0	-0	250	-1.2	0.2	177	-1.2	-1	2555	0.07	4294967295	3750000128	0	16384	
30.3898	-4.63406	-0.0521278	273	-24	2544	684	-0.0889377	-0.022181	0.0179696	-0.0600941	-0.0297353	-0.0581301	-0.0183914	-0.00808991	0.0521278	-0.0651384	-0.105334	-0.0185812	0	0	0	0	0	0	0	0	0.051	0	0	0	-0.272818	-0.0682233	0.0281566	-0.154076	-0.127515	-0.000611644	-0.188069	-0.0119002	-0.0459553	0.0487009	-0.0021778	-0	0.520485	0.0170958	3.68802	-0.00785398	0.00279253	0	0.414401	0.402642	-1080	1080	-600	1700	-10	10	-10	-0	0	-0	250	-1.2	0.2	177	-1.2	-1	2555	0.07	4294967295	3750000128	0	16384	
30.3997	-4.63482	-0.0492692	272	-27	2539	649	-0.0882212	-0.0248111	0.0270398	-0.0609734	-0.0299826	-0.0578606	-0.0183683	-0.00759294	0.0492692	-0.0657739	-0.102803	-0.0275321	0	0	0	0	0	0	0	0	0.051	0	0	0	-0.269447	-0.0766	0.040955	-0.153995	-0.127614	-0.000492272	-0.188045	-0.0119274	-0.0460679	0.0486866	-0.00205807	-0	0.519192	0.0170533	3.70323	-0.00785398	0.00279253	0	0.39198	0.382019	-1080	1080	-600	1700	-10	10	-10	-0	0	-0	250	-1.2	0.2	177	-1.2	-1	2555	0.07	4294967295	3750000128	0	16384	
30.4096	-4.63588	-0.0466969	272	-29	2534	613	-0.0876905	-0.0274893	0.0346076	-0.06184	-0.0302542	-0.0575186	-0.0182947	-0.00707273	0.0466969	-0.0662189	-0.100228	-0.0349924	0	0	0	0	0	0	0	0	0.051	0	0	0	-0.268917	-0.0821117	0.0537534	-0.153909	-0.127717	-0.000384798	-0.18802	-0.011955	-0.0461848	0.0486691	-0.00195022	-0	0.518081	0.0170168	3.71629	-0.00785398	0.00279253	0	0.368902	0.360592	-1080	1080	-600	1700	-10	10	-10	-0	0	-0	250	-1.2	0.2	177	-1.2	-1	2555	0.07	4294967295	3750000128	0	16384	
30.4196	-4.63708	-0.0444097	271	-32	2531	575	-0.0873195	-0.0301013	0.0407788	-0.0627147	-0.0305558	-0.0571101	-0.0181933	-0.00654979	0.0444097	-0.066503	-0.0977211	-0.0410189	0	0	0	0	0	0	0	0	0.051	0	0	0	-0.265773	-0.0904982	0.0614325	-0.153823	-0.127822	-0.000240062	-0.187995	-0.0119821	-0.0463018	0.0486501	-0.00185425	-0	0.518212	0.018048	3.7272	-0.00802851	0.00296706	0	0.345565	0.338728	-1080	1080	-600	1700	-10	10	-10	-0	0	-0	250	-1.2	0.2	177	-1.2	-1	2555	0.07	4294967295	3750000128	0	16384	
30.4297	-4.6385	-0.042432	271	-35	2528	538	-0.0871132	-0.0326926	0.045485	-0.0635894	-0.030884	-0.0566534	-0.0180514	-0.00602236	0.042432	-0.0666207	-0.0952365	-0.0456692	0	0	0	0	0	0	0	0	0.051	0	0	0	-0.265458	-0.0988645	0.0691115	-0.153734	-0.127929	-0.000184206	-0.187971	-0.0120088	-0.046419	0.0486289	-0.00177117	-0	0.516398	0.0180216	3.73609	-0.00785398	0.00296706	0	0.322011	0.316475	-1080	1080	-600	1700	-10	10	-10	-0	0	-0	250	-1.2	0.2	177	-1.2	-1	2555	0.07	4294967295	3750000128	0	16384	
30.4397	-4.64012	-0.0407771	271	-38	2526	498	-0.0870617	-0.0352512	0.048807	-0.0644618	-0.0312373	-0.0561643	-0.0178744	-0.00548736	0.0407771	-0.0665815	-0.0927869	-0.0489219	0	0	0	0	0	0	0	0	0.051	0	0	0	-0.265248	-0.107253	0.0742309	-0.153643	-0.128038	-0.000114966	-0.187947	-0.0120352	-0.0465373	0.0486057	-0.00170155	-0	0.515821	0.0180015	3.74288	-0.00785398	0.00296706	0	0.297862	0.293477	-1080	1080	-600	1700	-10	10	-10	-0	0	-0	250	-1.2	0.2	177	-1.2	-1	2555	0.07	4294967295	3750000128	0	16384	
30.4498	-4.64196	-0.0394524	271	-41	2525	459	-0.0872111	-0.0377354	0.050725	-0.0653417	-0.031618	-0.0556525	-0.0176551	-0.0049613	0.0394524	-0.0663419	-0.0904109	-0.0508337	0	0	0	0	0	0	0	0	0.051	0	0	0	-0.265143	-0.115674	0.0767906	-0.153553	-0.128146	-0.000108634	-0.187924	-0.0120603	-0.0466527	0.0485805	-0.00164566	-0	0.514359	0.0169292	3.74768	-0.00767945	0.00279253	0	0.273946	0.270533	-1080	1080	-600	1700	-10	10	-10	-0	0	-0	250	-1.2	0.2	177	-1.2	-1	2555	0.07	4294967295	3750000128	0	16384	
30.4597	-4.64394	-0.0394639	272	-43	2524	421	-0.0875291	-0.0400939	0.0512799	-0.0662116	-0.0320165	-0.0551428	-0.0174026	-0.00445055	0.0394639	-0.0659356	-0.0881581	-0.0513887	0	0	0	0	0	0	0	0	0.052	0	0	0	-0.267856	-0.121268	0.0793503	-0.153465	-0.128252	-0.000108834	-0.187901	-0.0120838	-0.0467639	0.0485539	-0.00164548	-0	0.514123	0.0169214	3.75045	-0.00767945	0.00279253	0	0.250374	0.247767	-1080	1080	-600	1700	-10	10	-10	-0	0	-0	250	-1.2	0.2	177	-1.2	-1	2555	0.07	4294967295	3750000128	0	16384	
30.4697	-4.64615	-0.0388313	272	-46	2525	382	-0.0880408	-0.042384	0.0505048	-0.0670913	-0.03244	-0.0546382	-0.0171061	-0.0039495	0.0388313	-0.0653361	-0.085973	-0.0506361	0	0	0	0	0	0	0	0	0.052	0	0	0	-0.267962	-0.129778	0.0767906	-0.153377	-0.128357	-0.00013129	-0.187881	-0.0121061	-0.0468721	0.0485255	-0.00161838	-0	0.513001	0.0158617	3.75126	-0.00750492	0.00261799	0	0.226906	0.224964	-1080	1080	-600	1700	-10	10	-10	-0	0	-0	250	-1.2	0.2	177	-1.2	-1	2555	0.07	4294967295	3750000128	0	16384	
30.4796	-4.64855	-0.0385675	273	-48	2526	344	-0.0887159	-0.0445378	0.0484085	-0.0679724	-0.0328823	-0.0541574	-0.0167667	-0.0034749	0.0385675	-0.0645766	-0.0839199	-0.0485284	0	0	0	0	0	0	0	0	0.052	0	0	0	-0.270888	-0.135474	0.0742309	-0.153293	-0.128458	-0.00011989	-0.187862	-0.012126	-0.0469736	0.0484956	-0.00160661	-0	0.513094	0.0158646	3.75016	-0.00750492	0.00261799	0	0.204356	0.202937	-1080	1080	-600	1700	-10	10	-10	-0	0	-0	250	-1.2	0.2	177	-1.2	-1	2555	0.07	4294967295	3750000128	0	16384	
30.4898	-4.65099	-0.03866	274	-50	2528	309	-0.0895641	-0.0464903	0.0450349	-0.0688808	-0.0333538	-0.0537007	-0.0164112	-0.00303647	0.03866	-0.0636496	-0.0820615	-0.0452074	0	0	0	0	0	0	0	0	0.052	0	0	0	-0.273925	-0.141229	0.0691115	-0.153214	-0.128552	-0.000172475	-0.187845	-0.0121436	-0.0470665	0.0484658	-0.00160968	-0	0.512295	0.0148143	3.74715	-0.00733038	0.00244346	0	0.182956	0.181937	-1080	1080	-600	1700	-10	10	-10	-0	0	-0	250	-1.2	0.2	177	-1.2	-1	2555	0.07	4294967295	3750000128	0	16384	
30.4997	-4.6538	-0.040168	275	-52	2531	274	-0.0906219	-0.048399	0.0402871	-0.0697823	-0.0338353	-0.0532999	-0.01598	-0.00261589	0.040168	-0.0625142	-0.080245	-0.0404993	0	0	0	0	0	0	0	0	0.053	0	0	0	-0.277075	-0.147052	0.0614325	-0.153136	-0.128644	-0.000212201	-0.18783	-0.0121588	-0.047154	0.0484327	-0.00167151	-0	0.512704	0.0158852	3.7423	-0.00733038	0.00261799	0	0.162259	0.161548	-1080	1080	-600	1700	-10	10	-10	-0	0	-0	250	-1.2	0.2	177	-1.2	-1	2555	0.07	4294967295	3750000128	0	16384	
30.5096	-4.65652	-0.0418145	276	-54	2534	243	-0.0918013	-0.049998	0.0351327	-0.0706924	-0.0343309	-0.0529516	-0.0155518	-0.00225487	0.0418145	-0.061267	-0.0787266	-0.035417	0	0	0	0	0	0	0	0	0.054	0	0	0	-0.280233	-0.152888	0.0537534	-0.153068	-0.128725	-0.000284296	-0.187818	-0.0121708	-0.047228	0.0484013	-0.00173907	-0	0.512224	0.0169632	3.73548	-0.00715585	0.00279253	0	0.143987	0.14349	-1080	1080	-600	1700	-10	10	-10	-0	0	-0	250	-1.2	0.2	177	-1.2	-1	2555	0.07	4294967295	3750000128	0	16384	
30.5196	-4.65934	-0.0425239	278	-55	2537	218	-0.0931648	-0.0513697	0.0299557	-0.0716246	-0.034845	-0.0526519	-0.0150901	-0.00195398	0.0425239	-0.0598448	-0.0774246	-0.0302688	0	0	0	0	0	0	0	0	0.054	0	0	0	-0.286229	-0.155903	0.0460744	-0.15301	-0.128794	-0.00031302	-0.18781	-0.0121789	-0.0472879	0.0483701	-0.00176757	-0	0.51285	0.0169839	3.72806	-0.00715585	0.00279253	0	0.128771	0.128415	-1080	1080	-600	1700	-10	10	-10	-0	0	-0	250	-1.2	0.2	177	-1.2	-1	2555	0.07	4294967295	3750000128	0	16384	
30.5296	-4.66208	-0.0442798	279	-56	2540	198	-0.0946613	-0.052431	0.0246988	-0.0725672	-0.0353671	-0.0524059	-0.0146275	-0.00171825	0.0442798	-0.0583	-0.0764203	-0.0251107	0	0	0	0	0	0	0	0	0.055	0	0	0	-0.289403	-0.158924	0.0383953	-0.152961	-0.128851	-0.000411872	-0.187806	-0.0121833	-0.0473329	0.0483404	-0.00183954	-0	0.512418	0.0170047	3.72062	-0.00698132	0.00279253	0	0.116931	0.116665	-1080	1080	-600	1700	-10	10	-10	-0	0	-0	250	-1.2	0.2	177	-1.2	-1	2555	0.07	4294967295	3750000128	0	16384	
30.5397	-4.66453	-0.0461367	281	-57	2543	185	-0.0961614	-0.0530747	0.0194563	-0.0735404	-0.0359042	-0.052209	-0.014199	-0.00156272	0.0461367	-0.0567657	-0.075817	-0.0199445	0	0	0	0	0	0	0	0	0.056	0	0	0	-0.295422	-0.161953	0.0307162	-0.152927	-0.128892	-0.000488189	-0.187805	-0.012184	-0.0473605	0.0483147	-0.00191572	-0	0.513055	0.0170259	3.71305	-0.00698132	0.00279253	0	0.109617	0.109398	-1080	1080	-600	1700	-10	10	-10	-0	0	-0	250	-1.2	0.2	177	-1.2	-1	2555	0.07	4294967295	3750000128	0	16384	
30.5497	-4.66724	-0.0490835	283	-58	2547	182	-0.0979324	-0.0535761	0.0141771	-0.074516	-0.0364379	-0.0520678	-0.0137033	-0.00147926	0.0490835	-0.0549704	-0.0753437	-0.0148133	0	0	0	0	0	0	0	0	0.058	0	0	0	-0.301573	-0.165053	0.0204775	-0.152903	-0.12892	-0.000636205	-0.187808	-0.0121795	-0.0473705	0.0482876	-0.00203696	-0	0.512628	0.0170469	3.70551	-0.00680678	0.00279253	0	0.107533	0.107326	-1080	1080	-600	1700	-10	10	-10	-0	0	-0	250	-1.2	0.2	177	-1.2	-1	2555	0.07	4294967295	3750000128	0	16384	
30.5596	-4.66966	-0.049958	285	-58	2549	185	-0.0996248	-0.0537251	0.00954403	-0.0755044	-0.036971	-0.0519731	-0.0132497	-0.00145283	0.049958	-0.0532642	-0.075211	-0.0102156	0	0	0	0	0	0	0	0	0.058	0	0	0	-0.3075	-0.165182	0.0153581	-0.152889	-0.128936	-0.000671538	-0.187815	-0.0121727	-0.0473687	0.0482643	-0.00207224	-0	0.513266	0.0170681	3.69791	-0.00680678	0.00279253	0	0.109213	0.108996	-1080	1080	-600	1700	-10	10	-10	-0	0	-0	250	-1.2	0.2	177	-1.2	-1	2555	0.07	4294967295	3750000128	0	16384	
30.5697	-4.67192	-0.0517708	287	-58	2552	200	-0.101423	-0.0535231	0.00543717	-0.0765277	-0.037511	-0.0519182	-0.0128	-0.00152325	0.0517708	-0.0514675	-0.0754102	-0.0062321	0	0	0	0	0	0	0	0	0.059	0	0	0	-0.313559	-0.165377	0.00767906	-0.152891	-0.128933	-0.00079493	-0.187826	-0.0121607	-0.047345	0.0482437	-0.00214645	-0	0.512762	0.0160188	3.69124	-0.00663225	0.00261799	0	0.118447	0.11817	-1080	1080	-600	1700	-10	10	-10	-0	0	-0	250	-1.2	0.2	177	-1.2	-1	2555	0.07	4294967295	3750000128	0	16384	
30.5797	-4.67372	-0.0525088	289	-57	2554	225	-0.103074	-0.05293	0.00193393	-0.0775582	-0.0380402	-0.0518989	-0.0124235	-0.00166139	0.0525088	-0.0498317	-0.0759856	-0.00275443	0	0	0	0	0	0	0	0	0.059	0	0	0	-0.319505	-0.162653	0.00255969	-0.152905	-0.128916	-0.000820504	-0.18784	-0.0121464	-0.0473074	0.0482288	-0.00217626	-0	0.514322	0.0149654	3.68533	-0.00680678	0.00244346	0	0.132941	0.13255	-1080	1080	-600	1700	-10	10	-10	-0	0	-0	250	-1.2	0.2	177	-1.2	-1	2555	0.07	4294967295	3750000128	0	16384	
30.5896	-4.6751	-0.0541576	290	-56	2556	257	-0.104587	-0.0520097	-0.00104263	-0.078595	-0.0385557	-0.0519092	-0.0121104	-0.00185459	0.0541576	-0.0483429	-0.0768762	0.000154516	0	0	0	0	0	0	0	0	0.06	0	0	0	-0.322608	-0.159926	-0.00255969	-0.15293	-0.128886	-0.000888112	-0.187855	-0.0121302	-0.0472584	0.0482184	-0.00224396	-0	0.514746	0.0149777	3.68029	-0.00680678	0.00244346	0	0.151959	0.151375	-1080	1080	-600	1700	-10	10	-10	-0	0	-0	250	-1.2	0.2	177	-1.2	-1	2555	0.07	4294967295	3750000128	0	16384	
30.5997	-4.6762	-0.0547341	292	-55	2557	292	-0.105907	-0.0509287	-0.00348782	-0.0796596	-0.0390677	-0.0519443	-0.0118465	-0.00207136	0.0547341	-0.0470534	-0.0779217	0.00257644	0	0	0	0	0	0	0	0	0.06	0	0	0	-0.328442	-0.157132	-0.00511937	-0.15296	-0.12885	-0.000911378	-0.187871	-0.0121137	-0.047205	0.0482111	-0.00226734	-0	0.515106	0.0149882	3.676	-0.00680678	0.00244346	0	0.173101	0.172237	-1080	1080	-600	1700	-10	10	-10	-0	0	-0	250	-1.2	0.2	177	-1.2	-1	2555	0.07	4294967295	3750000128	0	16384	
30.6096	-4.6772	-0.0562519	293	-54	2558	329	-0.107101	-0.0498297	-0.00552628	-0.0807221	-0.039562	-0.0519991	-0.0116007	-0.00229403	0.0562519	-0.0458906	-0.0789833	0.00455684	0	0	0	0	0	0	0	0	0.061	0	0	0	-0.331425	-0.154336	-0.00767906	-0.152991	-0.128813	-0.000969441	-0.187887	-0.0120971	-0.0471505	0.0482049	-0.00232975	-0	0.516469	0.0139256	3.67248	-0.00698132	0.00226893	0	0.195231	0.193993	-1080	1080	-600	1700	-10	10	-10	-0	0	-0	250	-1.2	0.2	177	-1.2	-1	2555	0.07	4294967295	3750000128	0	16384	
30.6196	-4.67788	-0.0576956	294	-52	2559	370	-0.108122	-0.0485498	-0.00713298	-0.0818082	-0.0400497	-0.0520708	-0.0114077	-0.00254532	0.0576956	-0.0449063	-0.0802191	0.00610424	0	0	0	0	0	0	0	0	0.062	0	0	0	-0.33441	-0.148679	-0.0102387	-0.153028	-0.128769	-0.00102875	-0.187903	-0.0120799	-0.0470905	0.048202	-0.0023892	-0	0.516716	0.0139322	3.66955	-0.00698132	0.00226893	0	0.219527	0.217768	-1080	1080	-600	1700	-10	10	-10	-0	0	-0	250	-1.2	0.2	177	-1.2	-1	2555	0.07	4294967295	3750000128	0	16384	
30.6297	-4.67851	-0.0580892	295	-51	2560	408	-0.108975	-0.0473352	-0.00836741	-0.082901	-0.0405244	-0.0521547	-0.0112307	-0.00277752	0.0580892	-0.0440868	-0.0813932	0.00732282	0	0	0	0	0	0	0	0	0.062	0	0	0	-0.337398	-0.145877	-0.0127984	-0.153062	-0.128728	-0.0010446	-0.187918	-0.0120641	-0.0470351	0.0481995	-0.0024052	-0	0.516911	0.0139375	3.66723	-0.00698132	0.00226893	0	0.24245	0.240082	-1080	1080	-600	1700	-10	10	-10	-0	0	-0	250	-1.2	0.2	177	-1.2	-1	2555	0.07	4294967295	3750000128	0	16384	
30.6397	-4.67889	-0.0584279	296	-50	2561	445	-0.109628	-0.0460734	-0.00927305	-0.0840016	-0.0409869	-0.0522478	-0.0110985	-0.00301263	0.0584279	-0.0434688	-0.0826128	0.00821477	0	0	0	0	0	0	0	0	0.062	0	0	0	-0.340387	-0.143073	-0.0153581	-0.153097	-0.128686	-0.00105828	-0.187933	-0.012049	-0.0469799	0.0481993	-0.00241904	-0	0.517061	0.0139415	3.66545	-0.00698132	0.00226893	0	0.265059	0.261966	-1080	1080	-600	1700	-10	10	-10	-0	0	-0	250	-1.2	0.2	177	-1.2	-1	2555	0.07	4294967295	3750000128	0	16384	
30.6497	-4.6793	-0.0597099	296	-48	2561	483	-0.110227	-0.0448615	-0.00989084	-0.0851064	-0.0414366	-0.0523469	-0.0109625	-0.00325091	0.0597099	-0.0429057	-0.0837821	0.00877556	0	0	0	0	0	0	0	0	0.063	0	0	0	-0.340387	-0.137351	-0.0153581	-0.153133	-0.128644	-0.00111527	-0.187947	-0.0120335	-0.0469237	0.0481988	-0.0024719	-0	0.516102	0.0150171	3.66414	-0.00680678	0.00244346	0	0.288287	0.284311	-1080	1080	-600	1700	-10	10	-10	-0	0	-0	250	-1.2	0.2	177	-1.2	-1	2555	0.07	4294967295	3750000128	0	16384	
30.6597	-4.67955	-0.0599506	297	-47	2561	517	-0.110632	-0.0436743	-0.0102034	-0.0862138	-0.0418737	-0.052449	-0.0108591	-0.0034699	0.0599506	-0.042534	-0.0849295	0.00907845	0	0	0	0	0	0	0	0	0.063	0	0	0	-0.343245	-0.13449	-0.0153581	-0.153166	-0.128604	-0.00112498	-0.18796	-0.0120198	-0.0468726	0.0481996	-0.00248174	-0	0.516177	0.0150193	3.66325	-0.00680678	0.00244346	0	0.309285	0.304378	-1080	1080	-600	1700	-10	10	-10	-0	0	-0	250	-1.2	0.2	177	-1.2	-1	2555	0.07	4294967295	3750000128	0	16384	
30.6697	-4.67972	-0.0601377	297	-46	2561	551	-0.110959	-0.0425192	-0.0102699	-0.0873236	-0.042299	-0.0525518	-0.0107706	-0.00369639	0.0601377	-0.0422413	-0.0860432	0.00913311	0	0	0	0	0	0	0	0	0.063	0	0	0	-0.343245	-0.131629	-0.0153581	-0.153201	-0.128562	-0.0011368	-0.187974	-0.0120059	-0.0468201	0.0482013	-0.0024894	-0	0.515146	0.0160933	3.6628	-0.00663225	0.00261799	0	0.330597	0.324607	-1080	1080	-600	1700	-10	10	-10	-0	0	-0	250	-1.2	0.2	177	-1.2	-1	2555	0.07	4294967295	3750000128	0	16384	
30.6797	-4.67977	-0.0602817	297	-45	2561	582	-0.111127	-0.0413898	-0.0101173	-0.0884317	-0.0427117	-0.0526526	-0.0107094	-0.00390803	0.0602817	-0.0421066	-0.0871332	0.00897472	0	0	0	0	0	0	0	0	0.063	0	0	0	-0.343245	-0.128768	-0.0153581	-0.153234	-0.128523	-0.00114262	-0.187986	-0.0119932	-0.0467713	0.048204	-0.00249534	-0	0.515154	0.0160936	3.6627	-0.00663225	0.00261799	0	0.3499	0.342804	-1080	1080	-600	1700	-10	10	-10	-0	0	-0	250	-1.2	0.2	177	-1.2	-1	2555	0.07	4294967295	3750000128	0	16384	
30.6896	-4.67982	-0.0613902	298	-44	2561	610	-0.111213	-0.0403804	-0.00983358	-0.0895337	-0.0431118	-0.0527501	-0.0106506	-0.00409979	0.0613902	-0.0420504	-0.088107	0.00864089	0	0	0	0	0	0	0	0	0.064	0	0	0	-0.346103	-0.125906	-0.0153581	-0.153263	-0.128487	-0.0011927	-0.187997	-0.0119817	-0.046727	0.0482061	-0.00254119	-0	0.514066	0.0171659	3.66292	-0.00645772	0.00279253	0	0.367451	0.359238	-1080	1080	-600	1700	-10	10	-10	-0	0	-0	250	-1.2	0.2	177	-1.2	-1	2555	0.07	4294967295	3750000128	0	16384	
30.6997	-4.67975	-0.0624635	297	-42	2561	635	-0.11118	-0.0393915	-0.00934886	-0.0906578	-0.0435101	-0.0528446	-0.0106205	-0.00428131	0.0624635	-0.0421124	-0.089061	0.00811613	0	0	0	0	0	0	0	0	0.065	0	0	0	-0.343245	-0.120184	-0.0153581	-0.153292	-0.128452	-0.00123274	-0.188006	-0.0119713	-0.0466854	0.0482093	-0.00258565	-0	0.515102	0.0160919	3.66333	-0.00663225	0.00261799	0	0.383191	0.373882	-1080	1080	-600	1700	-10	10	-10	-0	0	-0	250	-1.2	0.2	177	-1.2	-1	2555	0.07	4294967295	3750000128	0	16384	
30.7096	-4.67961	-0.063519	297	-42	2560	655	-0.110994	-0.0384871	-0.00874912	-0.0917544	-0.0438904	-0.0529311	-0.0106082	-0.00443536	0.063519	-0.0423226	-0.0899358	0.00752188	0	0	0	0	0	0	0	0	0.066	0	0	0	-0.343111	-0.120137	-0.0127984	-0.153317	-0.128423	-0.00122724	-0.188014	-0.0119626	-0.0466503	0.0482127	-0.0026294	-0	0.516112	0.0171628	3.66402	-0.00680678	0.00279253	0	0.396017	0.385746	-1080	1080	-600	1700	-10	10	-10	-0	0	-0	250	-1.2	0.2	177	-1.2	-1	2555	0.07	4294967295	3750000128	0	16384	
30.7196	-4.67933	-0.0635363	297	-41	2560	675	-0.110754	-0.0375946	-0.00798247	-0.0928651	-0.0442674	-0.0530111	-0.0106201	-0.00459925	0.0635363	-0.0425892	-0.0907963	0.00675446	0	0	0	0	0	0	0	0	0.066	0	0	0	-0.343111	-0.117277	-0.0127984	-0.153344	-0.128391	-0.001228	-0.188022	-0.0119539	-0.0466135	0.0482177	-0.00263027	-0	0.51604	0.0171604	3.66488	-0.00680678	0.00279253	0	0.408686	0.397404	-1080	1080	-600	1700	-10	10	-10	-0	0	-0	250	-1.2	0.2	177	-1.2	-1	2555	0.07	4294967295	3750000128	0	16384	
30.7301	-4.67902	-0.0645361	297	-40	2559	691	-0.110432	-0.0367762	-0.00720249	-0.0940238	-0.0446533	-0.0530867	-0.0106456	-0.00473979	0.0645361	-0.0429347	-0.0915866	0.00593301	0	0	0	0	0	0	0	0	0.067	0	0	0	-0.342977	-0.114372	-0.0102387	-0.153367	-0.128363	-0.00126948	-0.188029	-0.0119467	-0.0465821	0.0482226	-0.00267182	-0	0.515947	0.0171573	3.66598	-0.00680678	0.00279253	0	0.418883	0.40674	-1080	1080	-600	1700	-10	10	-10	-0	0	-0	250	-1.2	0.2	177	-1.2	-1	2555	0.07	4294967295	3750000128	0	16384	
30.7397	-4.67866	-0.065518	296	-39	2559	704	-0.110029	-0.0360395	-0.0063453	-0.0950794	-0.044999	-0.0531476	-0.0106823	-0.00486224	0.065518	-0.0433585	-0.0922985	0.00503506	0	0	0	0	0	0	0	0	0.068	0	0	0	-0.340121	-0.111513	-0.0102387	-0.153387	-0.128338	-0.00131024	-0.188034	-0.0119406	-0.046555	0.0482276	-0.00271265	-0	0.515853	0.0171542	3.66711	-0.00680678	0.00279253	0	0.427145	0.414274	-1080	1080	-600	1700	-10	10	-10	-0	0	-0	250	-1.2	0.2	177	-1.2	-1	2555	0.07	4294967295	3750000128	0	16384	
30.7497	-4.67806	-0.0654801	296	-38	2558	714	-0.109487	-0.0352508	-0.00542021	-0.0961723	-0.0453509	-0.0532017	-0.0107665	-0.00498319	0.0654801	-0.0439213	-0.0930618	0.00413368	0	0	0	0	0	0	0	0	0.068	0	0	0	-0.339989	-0.108612	-0.00767906	-0.153409	-0.128313	-0.00128653	-0.188039	-0.0119355	-0.0465291	0.048235	-0.00271141	-0	0.51575	0.0182226	3.66834	-0.00680678	0.00296706	0	0.433484	0.420035	-1080	1080	-600	1700	-10	10	-10	-0	0	-0	250	-1.2	0.2	177	-1.2	-1	2555	0.07	4294967295	3750000128	0	16384	
30.7597	-4.67785	-0.0654309	295	-38	2558	719	-0.108971	-0.0348545	-0.00449158	-0.0972643	-0.0457002	-0.0532467	-0.0107933	-0.00503822	0.0654309	-0.0444476	-0.0934468	0.003207	0	0	0	0	0	0	0	0	0.068	0	0	0	-0.337134	-0.108612	-0.00767906	-0.153418	-0.128301	-0.00128458	-0.188041	-0.011933	-0.0465172	0.0482379	-0.00270949	-0	0.515638	0.0182187	3.66967	-0.00680678	0.00296706	0	0.436729	0.422978	-1080	1080	-600	1700	-10	10	-10	-0	0	-0	250	-1.2	0.2	177	-1.2	-1	2555	0.07	4294967295	3750000128	0	16384	
30.7697	-4.67752	-0.0673711	295	-37	2557	723	-0.108415	-0.0344341	-0.0036081	-0.098346	-0.0460437	-0.0532827	-0.0108412	-0.00510063	0.0673711	-0.0450147	-0.0938531	0.00224742	0	0	0	0	0	0	0	0	0.07	0	0	0	-0.337002	-0.105712	-0.00511937	-0.153429	-0.128287	-0.00136068	-0.188043	-0.0119303	-0.0465036	0.0482416	-0.00279	-0	0.516593	0.0171433	3.67101	-0.00698132	0.00279253	0	0.43976	0.425723	-1080	1080	-600	1700	-10	10	-10	-0	0	-0	250	-1.2	0.2	177	-1.2	-1	2555	0.07	4294967295	3750000128	0	16384	
30.7797	-4.67704	-0.0683237	294	-37	2557	723	-0.107754	-0.0340472	-0.00274633	-0.0994232	-0.0463841	-0.0533101	-0.0109223	-0.00513919	0.0683237	-0.0456827	-0.0942305	0.00136836	0	0	0	0	0	0	0	0	0.071	0	0	0	-0.334149	-0.105712	-0.00511937	-0.153437	-0.128278	-0.00137797	-0.188043	-0.0119296	-0.0464962	0.0482466	-0.00282971	-0	0.516486	0.018211	3.67228	-0.00698132	0.00296706	0	0.439787	0.425747	-1080	1080	-600	1700	-10	10	-10	-0	0	-0	250	-1.2	0.2	177	-1.2	-1	2555	0.07	4294967295	3750000128	0	16384	
30.7897	-4.67663	-0.0692721	293	-36	2556	721	-0.107073	-0.033778	-0.00192751	-0.100496	-0.0467225	-0.0533294	-0.0109959	-0.00515723	0.0692721	-0.0463684	-0.0944938	0.000514435	0	0	0	0	0	0	0	0	0.072	0	0	0	-0.331166	-0.102815	-0.00255969	-0.153442	-0.128272	-0.00141307	-0.188042	-0.0119299	-0.0464932	0.0482506	-0.00286922	-0	0.517449	0.0171363	3.67352	-0.00715585	0.00279253	0	0.438552	0.424629	-1080	1080	-600	1700	-10	10	-10	-0	0	-0	250	-1.2	0.2	177	-1.2	-1	2555	0.07	4294967295	3750000128	0	16384	
30.7997	-4.6762	-0.0692191	292	-36	2556	717	-0.106384	-0.0335676	-0.00113036	-0.10156	-0.0470581	-0.0533407	-0.0110771	-0.00516112	0.0692191	-0.0470596	-0.0947014	-0.000280763	0	0	0	0	0	0	0	0	0.072	0	0	0	-0.328313	-0.102815	-0.00255969	-0.153444	-0.128269	-0.00141112	-0.188041	-0.0119311	-0.0464937	0.0482547	-0.00286727	-0	0.51735	0.017133	3.67469	-0.00715585	0.00279253	0	0.43602	0.422335	-1080	1080	-600	1700	-10	10	-10	-0	0	-0	250	-1.2	0.2	177	-1.2	-1	2555	0.07	4294967295	3750000128	0	16384	
30.8096	-4.6759	-0.0711872	292	-36	2555	711	-0.105712	-0.0335292	-0.000525054	-0.102607	-0.0473903	-0.0533459	-0.01114	-0.00513779	0.0711872	-0.0477295	-0.094742	-0.000990155	0	0	0	0	0	0	0	0	0.074	0	0	0	-0.328185	-0.102775	0	-0.153441	-0.128271	-0.00151521	-0.188037	-0.0119335	-0.0464997	0.0482569	-0.00294896	-0	0.517253	0.0160592	3.67584	-0.00715585	0.00261799	0	0.43213	0.418806	-1080	1080	-600	1700	-10	10	-10	-0	0	-0	250	-1.2	0.2	177	-1.2	-1	2555	0.07	4294967295	3750000128	0	16384	
30.8196	-4.67551	-0.0711707	291	-36	2555	702	-0.104977	-0.0335258	5.78115e-05	-0.103656	-0.0477252	-0.0533454	-0.0112259	-0.00509379	0.0711707	-0.0484586	-0.0947515	-0.00159498	0	0	0	0	0	0	0	0	0.074	0	0	0	-0.325333	-0.102775	0	-0.153436	-0.128277	-0.00153717	-0.188033	-0.0119374	-0.0465111	0.04826	-0.00294851	-0	0.51718	0.0149864	3.67671	-0.00715585	0.00244346	0	0.425971	0.413205	-1080	1080	-600	1700	-10	10	-10	-0	0	-0	250	-1.2	0.2	177	-1.2	-1	2555	0.07	4294967295	3750000128	0	16384	
30.8297	-4.67526	-0.0721665	290	-36	2555	692	-0.104298	-0.0336246	0.000484495	-0.104705	-0.0480636	-0.0533405	-0.0112881	-0.00503446	0.0721665	-0.0491294	-0.0946624	-0.00208987	0	0	0	0	0	0	0	0	0.075	0	0	0	-0.322482	-0.102775	0	-0.153427	-0.128287	-0.00160538	-0.188028	-0.0119417	-0.0465254	0.0482613	-0.00298991	-0	0.516042	0.0149844	3.67755	-0.00698132	0.00244346	0	0.41952	0.407322	-1080	1080	-600	1700	-10	10	-10	-0	0	-0	250	-1.2	0.2	177	-1.2	-1	2555	0.07	4294967295	3750000128	0	16384	
30.8397	-4.675	-0.0721653	289	-36	2554	680	-0.103623	-0.0337742	0.000894092	-0.10574	-0.048401	-0.0533316	-0.0113548	-0.00496094	0.0721653	-0.0497931	-0.0945254	-0.00249962	0	0	0	0	0	0	0	0	0.075	0	0	0	-0.319505	-0.102735	0.00255969	-0.153417	-0.1283	-0.00160552	-0.188023	-0.0119469	-0.0465431	0.0482627	-0.00299001	-0	0.515991	0.0149829	3.67817	-0.00698132	0.00244346	0	0.411909	0.40036	-1080	1080	-600	1700	-10	10	-10	-0	0	-0	250	-1.2	0.2	177	-1.2	-1	2555	0.07	4294967295	3750000128	0	16384	
30.8497	-4.67476	-0.0741874	289	-37	2554	667	-0.102975	-0.0339657	0.00112154	-0.106773	-0.0487417	-0.0533203	-0.0114219	-0.00487852	0.0741874	-0.050429	-0.0943473	-0.00286021	0	0	0	0	0	0	0	0	0.077	0	0	0	-0.319505	-0.105588	0.00255969	-0.153404	-0.128313	-0.00173866	-0.188017	-0.0119525	-0.0465626	0.0482635	-0.00307392	-0	0.514875	0.0139113	3.67876	-0.00680678	0.00226893	0	0.403664	0.39279	-1080	1080	-600	1700	-10	10	-10	-0	0	-0	250	-1.2	0.2	177	-1.2	-1	2555	0.07	4294967295	3750000128	0	16384	
30.8597	-4.67474	-0.0752417	288	-37	2554	652	-0.102392	-0.0343464	0.00127159	-0.107801	-0.0490864	-0.0533075	-0.0114531	-0.00476239	0.0752417	-0.0509936	-0.0939879	-0.00302724	0	0	0	0	0	0	0	0	0.078	0	0	0	-0.316655	-0.105588	0.00255969	-0.153386	-0.128334	-0.00175565	-0.188009	-0.0119594	-0.0465891	0.0482617	-0.0031176	-0	0.515913	0.0139106	3.67909	-0.00698132	0.00226893	0	0.394068	0.383947	-1080	1080	-600	1700	-10	10	-10	-0	0	-0	250	-1.2	0.2	177	-1.2	-1	2555	0.07	4294967295	3750000128	0	16384	
30.8697	-4.6747	-0.0753043	288	-37	2554	637	-0.101839	-0.0346814	0.00139662	-0.108816	-0.049432	-0.0532936	-0.01149	-0.00464733	0.0753043	-0.0515286	-0.0936742	-0.00315497	0	0	0	0	0	0	0	0	0.078	0	0	0	-0.316655	-0.105588	0.00255969	-0.153368	-0.128356	-0.00175835	-0.188003	-0.0119663	-0.0466157	0.0482604	-0.00312022	-0	0.515895	0.0139101	3.6793	-0.00698132	0.00226893	0	0.384351	0.374957	-1080	1080	-600	1700	-10	10	-10	-0	0	-0	250	-1.2	0.2	177	-1.2	-1	2555	0.07	4294967295	3750000128	0	16384	
30.8797	-4.67473	-0.0753878	287	-38	2554	620	-0.101325	-0.0350871	0.00142203	-0.109831	-0.0497834	-0.0532794	-0.0115165	-0.00451807	0.0753878	-0.0520227	-0.0932931	-0.0031615	0	0	0	0	0	0	0	0	0.078	0	0	0	-0.313804	-0.108442	0.00255969	-0.153348	-0.12838	-0.00173947	-0.187995	-0.0119738	-0.0466453	0.0482583	-0.00312366	-0	0.51588	0.0149797	3.67948	-0.00698132	0.00244346	0	0.373863	0.365214	-1080	1080	-600	1700	-10	10	-10	-0	0	-0	250	-1.2	0.2	177	-1.2	-1	2555	0.07	4294967295	3750000128	0	16384	
30.8896	-4.67502	-0.076489	287	-38	2554	605	-0.100934	-0.035606	0.00137014	-0.110832	-0.0501369	-0.0532658	-0.0114959	-0.00438019	0.076489	-0.0523911	-0.0928013	-0.00310596	0	0	0	0	0	0	0	0	0.079	0	0	0	-0.313804	-0.108442	0.00255969	-0.153325	-0.128407	-0.00173583	-0.187988	-0.0119809	-0.0466759	0.0482534	-0.0031691	-0	0.516943	0.0160495	3.67952	-0.00715585	0.00261799	0	0.364041	0.356053	-1080	1080	-600	1700	-10	10	-10	-0	0	-0	250	-1.2	0.2	177	-1.2	-1	2555	0.07	4294967295	3750000128	0	16384	
30.8996	-4.67523	-0.076597	286	-39	2554	589	-0.100581	-0.0360589	0.00130938	-0.111836	-0.0504965	-0.0532527	-0.0114888	-0.00424876	0.076597	-0.0527232	-0.0923742	-0.00300046	0	0	0	0	0	0	0	0	0.079	0	0	0	-0.310954	-0.111295	0.00255969	-0.153304	-0.128433	-0.00169108	-0.187981	-0.011988	-0.0467054	0.0482494	-0.00317344	-0	0.518015	0.0171197	3.67944	-0.00733038	0.00279253	0	0.354218	0.346857	-1080	1080	-600	1700	-10	10	-10	-0	0	-0	250	-1.2	0.2	177	-1.2	-1	2555	0.07	4294967295	3750000128	0	16384	
30.9096	-4.67557	-0.0767056	286	-39	2554	575	-0.100312	-0.036549	0.00119351	-0.112838	-0.0508618	-0.0532408	-0.0114563	-0.00411884	0.0767056	-0.0529697	-0.0919098	-0.00291139	0	0	0	0	0	0	0	0	0.079	0	0	0	-0.310954	-0.111295	0.00255969	-0.153282	-0.128459	-0.00171787	-0.187975	-0.0119945	-0.0467341	0.0482443	-0.00317772	-0	0.518023	0.01605	3.67936	-0.00733038	0.00261799	0	0.345136	0.338325	-1080	1080	-600	1700	-10	10	-10	-0	0	-0	250	-1.2	0.2	177	-1.2	-1	2555	0.07	4294967295	3750000128	0	16384	
30.9196	-4.67601	-0.0768293	286	-40	2554	560	-0.100121	-0.0370856	0.00102883	-0.113839	-0.0512325	-0.0532305	-0.0114057	-0.00397938	0.0768293	-0.0531371	-0.0914014	-0.00275164	0	0	0	0	0	0	0	0	0.079	0	0	0	-0.310954	-0.114149	0.00255969	-0.153258	-0.128487	-0.00172281	-0.187968	-0.0120012	-0.0467647	0.048238	-0.00318256	-0	0.518037	0.0160504	3.67919	-0.00733038	0.00261799	0	0.335691	0.329421	-1080	1080	-600	1700	-10	10	-10	-0	0	-0	250	-1.2	0.2	177	-1.2	-1	2555	0.07	4294967295	3750000128	0	16384	
30.9297	-4.67641	-0.0779557	286	-41	2555	547	-0.0999847	-0.037525	0.000851401	-0.114849	-0.0516117	-0.0532219	-0.0113599	-0.00386465	0.0779557	-0.0532542	-0.0909852	-0.00257151	0	0	0	0	0	0	0	0	0.08	0	0	0	-0.311075	-0.117048	0	-0.153239	-0.12851	-0.00172011	-0.187962	-0.0120066	-0.0467896	0.0482325	-0.00322895	-0	0.519123	0.0171211	3.67895	-0.00750492	0.00279253	0	0.32792	0.322075	-1080	1080	-600	1700	-10	10	-10	-0	0	-0	250	-1.2	0.2	177	-1.2	-1	2555	0.07	4294967295	3750000128	0	16384	
30.9396	-4.67692	-0.07909	286	-41	2555	535	-0.0999292	-0.0379793	0.000640911	-0.11584	-0.0519883	-0.0532156	-0.0112916	-0.00374868	0.07909	-0.0532896	-0.0905546	-0.00238101	0	0	0	0	0	0	0	0	0.081	0	0	0	-0.311075	-0.117048	0	-0.153219	-0.128534	-0.0017401	-0.187957	-0.0120116	-0.0468144	0.0482258	-0.00327559	-0	0.520211	0.0171218	3.6787	-0.00767945	0.00279253	0	0.32054	0.315079	-1080	1080	-600	1700	-10	10	-10	-0	0	-0	250	-1.2	0.2	177	-1.2	-1	2555	0.07	4294967295	3750000128	0	16384	
30.9497	-4.67746	-0.0802448	286	-42	2555	523	-0.0999141	-0.0384128	0.000377778	-0.116845	-0.0523746	-0.0532118	-0.0112162	-0.00363249	0.0802448	-0.053284	-0.0901448	-0.00218786	0	0	0	0	0	0	0	0	0.082	0	0	0	-0.311075	-0.119902	0	-0.153198	-0.128558	-0.00181008	-0.187951	-0.0120166	-0.0468392	0.0482187	-0.00332304	-0	0.520237	0.0160525	3.6784	-0.00767945	0.00261799	0	0.313203	0.308107	-1080	1080	-600	1700	-10	10	-10	-0	0	-0	250	-1.2	0.2	177	-1.2	-1	2555	0.07	4294967295	3750000128	0	16384	
30.9597	-4.67806	-0.080393	286	-42	2555	514	-0.0999701	-0.0388196	0.000190237	-0.117846	-0.0527634	-0.0532098	-0.0111272	-0.0035307	0.080393	-0.0532096	-0.0897599	-0.00200613	0	0	0	0	0	0	0	0	0.082	0	0	0	-0.311075	-0.119902	0	-0.15318	-0.128579	-0.0018159	-0.187947	-0.0120205	-0.0468606	0.0482115	-0.00332877	-0	0.520269	0.0160535	3.67802	-0.00767945	0.00261799	0	0.307254	0.302443	-1080	1080	-600	1700	-10	10	-10	-0	0	-0	250	-1.2	0.2	177	-1.2	-1	2555	0.07	4294967295	3750000128	0	16384	
30.9697	-4.67867	-0.0805411	286	-42	2555	505	-0.10008	-0.0391708	2.18787e-05	-0.118844	-0.053154	-0.0532096	-0.0110344	-0.00343945	0.0805411	-0.0530829	-0.0894285	-0.00181685	0	0	0	0	0	0	0	0	0.082	0	0	0	-0.311075	-0.119902	0	-0.153163	-0.128599	-0.00179497	-0.187944	-0.0120238	-0.0468795	0.0482045	-0.0033345	-0	0.521358	0.0160542	3.67775	-0.00785398	0.00261799	0	0.302158	0.297582	-1080	1080	-600	1700	-10	10	-10	-0	0	-0	250	-1.2	0.2	177	-1.2	-1	2555	0.07	4294967295	3750000128	0	16384	
30.9797	-4.6793	-0.0806855	286	-43	2555	498	-0.100215	-0.0395084	-0.000146374	-0.119849	-0.0535502	-0.0532111	-0.0109357	-0.00335307	0.0806855	-0.0529323	-0.08911	-0.00162749	0	0	0	0	0	0	0	0	0.082	0	0	0	-0.311075	-0.122757	0	-0.153148	-0.128618	-0.00177387	-0.187941	-0.0120267	-0.0468973	0.0481972	-0.00334005	-0	0.522445	0.0160548	3.6775	-0.00802851	0.00261799	0	0.297515	0.293146	-1080	1080	-600	1700	-10	10	-10	-0	0	-0	250	-1.2	0.2	177	-1.2	-1	2555	0.07	4294967295	3750000128	0	16384	
30.9897	-4.67992	-0.0808261	286	-43	2555	491	-0.100354	-0.0398154	-0.000332257	-0.120858	-0.0539505	-0.0532144	-0.0108388	-0.00327173	0.0808261	-0.0527782	-0.0888211	-0.00144709	0	0	0	0	0	0	0	0	0.082	0	0	0	-0.311075	-0.122757	0	-0.153132	-0.128636	-0.00177935	-0.187939	-0.0120294	-0.046914	0.0481902	-0.00334545	-0	0.522466	0.0160555	3.67726	-0.00802851	0.00261799	0	0.293156	0.288975	-1080	1080	-600	1700	-10	10	-10	-0	0	-0	250	-1.2	0.2	177	-1.2	-1	2555	0.07	4294967295	3750000128	0	16384	
30.9996	-4.68064	-0.0819759	286	-43	2555	484	-0.100561	-0.0401298	-0.000587267	-0.121848	-0.0543454	-0.0532202	-0.0107225	-0.00319161	0.0819759	-0.0525557	-0.0885246	-0.00123925	0	0	0	0	0	0	0	0	0.083	0	0	0	-0.311075	-0.122757	0	-0.153117	-0.128654	-0.00182652	-0.187936	-0.0120317	-0.0469299	0.0481821	-0.00339255	-0	0.522489	0.0160562	3.67699	-0.00802851	0.00261799	0	0.289306	0.285287	-1080	1080	-600	1700	-10	10	-10	-0	0	-0	250	-1.2	0.2	177	-1.2	-1	2555	0.07	4294967295	3750000128	0	16384	
31.0096	-4.6812	-0.0821106	287	-44	2555	482	-0.10079	-0.0402889	-0.000750446	-0.122859	-0.0547494	-0.0532277	-0.0106269	-0.0031461	0.0821106	-0.0523172	-0.0883763	-0.00110376	0	0	0	0	0	0	0	0	0.083	0	0	0	-0.313927	-0.125611	0	-0.153107	-0.128665	-0.00185421	-0.187935	-0.0120324	-0.0469385	0.0481761	-0.00339773	-0	0.52252	0.0149866	3.67663	-0.00802851	0.00244346	0	0.28783	0.283872	-1080	1080	-600	1700	-10	10	-10	-0	0	-0	250	-1.2	0.2	177	-1.2	-1	2555	0.07	4294967295	3750000128	0	16384	
31.0196	-4.68201	-0.0822438	287	-44	2556	478	-0.101067	-0.0405945	-0.00089288	-0.123866	-0.055154	-0.0532366	-0.0104892	-0.00307898	0.0822438	-0.0520268	-0.088087	-0.000939639	0	0	0	0	0	0	0	0	0.083	0	0	0	-0.31405	-0.125661	-0.00255969	-0.153094	-0.128681	-0.00183252	-0.187934	-0.0120336	-0.0469513	0.0481675	-0.00340269	-0	0.523607	0.0149872	3.67639	-0.00820305	0.00244346	0	0.285519	0.281655	-1080	1080	-600	1700	-10	10	-10	-0	0	-0	250	-1.2	0.2	177	-1.2	-1	2555	0.07	4294967295	3750000128	0	16384	
31.0297	-4.6826	-0.0823722	287	-44	2556	476	-0.101291	-0.0407115	-0.0010696	-0.124887	-0.0555646	-0.0532474	-0.0103876	-0.00303292	0.0823722	-0.0517925	-0.0879815	-0.000794592	0	0	0	0	0	0	0	0	0.083	0	0	0	-0.31405	-0.125661	-0.00255969	-0.153084	-0.128693	-0.00186419	-0.187933	-0.0120343	-0.0469599	0.0481612	-0.0034076	-0	0.522558	0.0149877	3.67619	-0.00802851	0.00244346	0	0.284078	0.280272	-1080	1080	-600	1700	-10	10	-10	-0	0	-0	250	-1.2	0.2	177	-1.2	-1	2555	0.07	4294967295	3750000128	0	16384	
31.0397	-4.68336	-0.0824951	287	-44	2556	475	-0.10159	-0.0408837	-0.00117702	-0.125909	-0.0559757	-0.0532593	-0.0102551	-0.00298899	0.0824951	-0.0514842	-0.087821	-0.000691794	0	0	0	0	0	0	0	0	0.083	0	0	0	-0.31405	-0.125661	-0.00255969	-0.153074	-0.128705	-0.00186881	-0.187933	-0.0120343	-0.0469675	0.0481534	-0.00341216	-0	0.522579	0.0149883	3.67593	-0.00802851	0.00244346	0	0.283606	0.27982	-1080	1080	-600	1700	-10	10	-10	-0	0	-0	250	-1.2	0.2	177	-1.2	-1	2555	0.07	4294967295	3750000128	0	16384	
31.0496	-4.68421	-0.0826198	288	-44	2556	475	-0.101922	-0.0411	-0.00129645	-0.126915	-0.0563813	-0.0532721	-0.0101035	-0.00294337	0.0826198	-0.0511413	-0.0876176	-0.000581237	0	0	0	0	0	0	0	0	0.083	0	0	0	-0.316903	-0.125661	-0.00255969	-0.153063	-0.128718	-0.00187769	-0.187933	-0.0120341	-0.0469752	0.0481447	-0.00341674	-0	0.521526	0.0160593	3.67578	-0.00785398	0.00261799	0	0.283475	0.279694	-1080	1080	-600	1700	-10	10	-10	-0	0	-0	250	-1.2	0.2	177	-1.2	-1	2555	0.07	4294967295	3750000128	0	16384	
31.0597	-4.68464	-0.0837229	288	-44	2556	478	-0.102171	-0.0410238	-0.00138933	-0.12795	-0.0567968	-0.0532861	-0.0100232	-0.00294278	0.0837229	-0.0508899	-0.0876955	-0.000533678	0	0	0	0	0	0	0	0	0.084	0	0	0	-0.316903	-0.125661	-0.00255969	-0.153061	-0.128719	-0.00192301	-0.187934	-0.0120326	-0.0469738	0.0481405	-0.00346204	-0	0.52154	0.0160598	3.6756	-0.00785398	0.00261799	0	0.285572	0.281707	-1080	1080	-600	1700	-10	10	-10	-0	0	-0	250	-1.2	0.2	177	-1.2	-1	2555	0.07	4294967295	3750000128	0	16384	
31.0697	-4.68531	-0.0838314	288	-44	2556	480	-0.102431	-0.0410891	-0.00147174	-0.128972	-0.0572069	-0.0533008	-0.00990211	-0.00291735	0.0838314	-0.0506234	-0.0876381	-0.000455323	0	0	0	0	0	0	0	0	0.084	0	0	0	-0.316903	-0.125661	-0.00255969	-0.153054	-0.128727	-0.00192706	-0.187935	-0.0120319	-0.0469775	0.0481338	-0.00346606	-0	0.521552	0.0160601	3.67547	-0.00785398	0.00261799	0	0.286512	0.282609	-1080	1080	-600	1700	-10	10	-10	-0	0	-0	250	-1.2	0.2	177	-1.2	-1	2555	0.07	4294967295	3750000128	0	16384	
31.0797	-4.68589	-0.0839194	289	-44	2556	485	-0.102714	-0.0410572	-0.00151596	-0.129999	-0.0576176	-0.053316	-0.00979173	-0.00291727	0.0839194	-0.0503372	-0.0876728	-0.000441056	0	0	0	0	0	0	0	0	0.084	0	0	0	-0.319755	-0.125661	-0.00255969	-0.153051	-0.12873	-0.00195702	-0.187937	-0.0120299	-0.0469756	0.0481284	-0.0034693	-0	0.520495	0.0160605	3.67535	-0.00767945	0.00261799	0	0.289558	0.285529	-1080	1080	-600	1700	-10	10	-10	-0	0	-0	250	-1.2	0.2	177	-1.2	-1	2555	0.07	4294967295	3750000128	0	16384	
31.0898	-4.6865	-0.0840165	289	-44	2556	489	-0.102968	-0.0410801	-0.00155413	-0.131034	-0.0580305	-0.0533316	-0.00967712	-0.0029075	0.0840165	-0.0500577	-0.0876813	-0.000379889	0	0	0	0	0	0	0	0	0.084	0	0	0	-0.319755	-0.125661	-0.00255969	-0.153025	-0.128761	-0.00193402	-0.187938	-0.0120284	-0.0469758	0.0481224	-0.00347289	-0	0.521567	0.0160606	3.67529	-0.00785398	0.00261799	0	0.29187	0.287744	-1080	1080	-600	1700	-10	10	-10	-0	0	-0	250	-1.2	0.2	177	-1.2	-1	2555	0.07	4294967295	3750000128	0	16384	
31.0997	-4.68705	-0.0840882	289	-44	2556	495	-0.103215	-0.0410151	-0.00156207	-0.132063	-0.0584391	-0.0533472	-0.00956978	-0.00291674	0.0840882	-0.0497869	-0.0877734	-0.000397117	0	0	0	0	0	0	0	0	0.084	0	0	0	-0.319755	-0.125661	-0.00255969	-0.153002	-0.128789	-0.00195919	-0.187941	-0.012026	-0.0469719	0.0481174	-0.00347547	-0	0.521572	0.01499	3.67523	-0.00785398	0.00244346	0	0.295842	0.291546	-1080	1080	-600	1700	-10	10	-10	-0	0	-0	250	-1.2	0.2	177	-1.2	-1	2555	0.07	4294967295	3750000128	0	16384	
31.1096	-4.68751	-0.0841601	290	-44	2556	501	-0.103424	-0.040888	-0.00156369	-0.133083	-0.0588425	-0.0533626	-0.00947941	-0.0029292	0.0841601	-0.0495783	-0.0879004	-0.000398153	0	0	0	0	0	0	0	0	0.084	0	0	0	-0.322608	-0.125661	-0.00255969	-0.153002	-0.128788	-0.00196184	-0.187943	-0.0120237	-0.0469676	0.0481132	-0.00347812	-0	0.521573	0.0149901	3.67522	-0.00785398	0.00244346	0	0.299699	0.295233	-1080	1080	-600	1700	-10	10	-10	-0	0	-0	250	-1.2	0.2	177	-1.2	-1	2555	0.07	4294967295	3750000128	0	16384	
31.1196	-4.68805	-0.0842196	290	-44	2556	509	-0.103664	-0.0407978	-0.00155672	-0.134125	-0.0592525	-0.0533782	-0.00937393	-0.00294224	0.0842196	-0.0493381	-0.0879907	-0.000433904	0	0	0	0	0	0	0	0	0.084	0	0	0	-0.322608	-0.125661	-0.00255969	-0.153002	-0.128789	-0.00199063	-0.187945	-0.0120211	-0.0469628	0.0481084	-0.0034802	-0	0.520506	0.0149901	3.67522	-0.00767945	0.00244346	0	0.304137	0.29947	-1080	1080	-600	1700	-10	10	-10	-0	0	-0	250	-1.2	0.2	177	-1.2	-1	2555	0.07	4294967295	3750000128	0	16384	
31.1296	-4.68855	-0.0842789	290	-44	2556	516	-0.103862	-0.040672	-0.00154319	-0.13516	-0.059658	-0.0533936	-0.00927503	-0.00295772	0.0842789	-0.0491402	-0.0881163	-0.000453761	0	0	0	0	0	0	0	0	0.084	0	0	0	-0.322608	-0.125661	-0.00255969	-0.153002	-0.128788	-0.00199695	-0.187948	-0.0120185	-0.0469577	0.0481039	-0.0034823	-0	0.519439	0.0160608	3.67523	-0.00750492	0.00261799	0	0.308696	0.303817	-1080	1080	-600	1700	-10	10	-10	-0	0	-0	250	-1.2	0.2	177	-1.2	-1	2555	0.07	4294967295	3750000128	0	16384	
