time 	e1	e2	ctrlpitch	ctrlroll	ctrlthrust	ctrlyaw	edx	edy	edz	cumulx	cumuly	cumulz	x_pred	y_pred	z_pred	dxr_pred	dyr_pred	dzr_pred	dxrT	dyrT	dzrT	dxrUn	dyrUn	dzrUn	x	y	z	dx	dy	dz	ux	uy	uz	dxd	dyd	dzd	Perpx	Tangx	Perpy	Tangy	Perpz	Tanz	ax	ay	az	pitch	roll	yaw	yawd	eyaw	kpvx	kpvy	kpvz	kpyaw	kivx	kivy	kivz	kdvx	kdvy	kdvz	kdyaw	ktg	veld	pitchoff	ke1	ke2	gravity	thr_vel	gps_accuracy	height_accuracy	gps_sat_num	gps_status
7.88182	-5.44133	0.117	50	-50	1450	0	-0.11763	-0.161699	0.00409093	-0.000312307	-0.000429311	1.08614e-05	0	0	-0.117	0	0	0	0	0	0	0	0	0	0	0	-0.117	0	0	0	0.205665	-0.0810057	2.82845	-0.11763	-0.161699	0.00409093	-0.165113	0.0229881	-0.104238	-0.0364131	0.00419858	0	0	-0	9.81	-0.00244346	-0.00244346	0	0	0	-1080	1080	-500	1700	-10	10	-10	-0	0	-0	250	1.2	0.2	177	-1.2	-1	2555	0.07	3054	6947	7	56579	
7.88917	-5.44133	0.118	100	-100	1500	0	-0.117628	-0.161698	0.00414732	-0.00117723	-0.00161828	4.13567e-05	0	0	-0.118	0	0	0	0	0	0	0	0	0	0	0	-0.118	0	0	0	0.129036	-0.167558	2.70047	-0.117628	-0.161698	0.00414732	-0.165113	0.022988	-0.104238	-0.036413	0.00423445	0	0.488887	-0.0149695	3.68366	-0.00261799	-0.00244346	0	0	0	-1080	1080	-500	1700	-10	10	-10	-0	0	-0	250	1.2	0.2	177	-1.2	-1	2555	0.07	3054	6947	7	56579	
7.89925	-5.44133	0.118	150	-150	1550	0	-0.119629	-0.161265	0.00412548	-0.00238261	-0.00324319	8.2925e-05	0	0	-0.118	0.00200092	-0.000433993	-6.37463e-06	0.00190502	-0.000750332	0	0.00190502	-0.000750332	0	0	0	-0.118	0	0	0.0261991	0.0467625	-0.259612	2.57249	-0.117628	-0.161699	0.0041191	-0.165113	0.022988	-0.104238	-0.036413	0.00423445	0	0.488882	-0.0160385	3.68373	-0.00261799	-0.00261799	0	0	0	-1080	1080	-500	1700	-10	10	-10	-0	0	-0	250	1.2	0.2	177	-1.2	-1	2555	0.07	3054	6947	7	56579	
7.90926	-5.4414	0.118	200	-172	1600	50	-0.120959	-0.159977	0.00413228	-0.00359414	-0.00484551	0.000124314	1.66201e-05	-6.54616e-06	-0.118	0.00332914	-0.00172116	-1.32217e-05	0.0030088	-0.00223446	0	0.0030088	-0.00223446	0	0	0	-0.117771	0	0	0.0497023	-0.04112	-0.307222	2.4445	-0.11763	-0.161698	0.00411906	-0.165114	0.0229874	-0.104236	-0.0364128	0.0042344	0	0.488884	-0.0160386	3.6837	-0.00261799	-0.00261799	0	2.76638	0.36647	-1080	1080	-500	1700	-10	10	-10	-0	0	-0	250	1.2	0.2	177	-1.2	-1	2555	0.07	3054	6947	7	56579	
7.91921	-5.44148	0.118	250	-170	1650	100	-0.121763	-0.15773	0.00409143	-0.00480532	-0.00641446	0.000165011	4.38476e-05	-2.67426e-05	-0.118	0.00412805	-0.00396501	-2.11592e-05	0.00343623	-0.00457765	0	0.00343623	-0.00457765	0	0	0	-0.117322	0	0	0.0729775	-0.134569	-0.313146	2.31652	-0.117635	-0.161695	0.00407027	-0.165116	0.0229862	-0.104232	-0.0364128	0.00423434	0	0.487817	-0.0171078	3.68371	-0.00244346	-0.00279253	0	2.59393	0.520696	-1080	1080	-500	1700	-10	10	-10	-0	0	-0	250	1.2	0.2	177	-1.2	-1	2555	0.07	3054	6947	7	56579	
7.92918	-5.4415	0.118	300	-167	1700	150	-0.121848	-0.154937	0.00412646	-0.00601966	-0.00795856	0.000206136	7.47265e-05	-6.79102e-05	-0.118	0.00420569	-0.00675262	-2.79549e-05	0.00306429	-0.00734143	0	0.00306429	-0.00734143	0	0	0	-0.116666	0	0	0.0949501	-0.233538	-0.316951	2.18853	-0.117643	-0.161689	0.00409851	-0.165121	0.0229845	-0.104225	-0.0364137	0.00423433	0	0.487821	-0.0160387	3.68366	-0.00244346	-0.00261799	0	2.40395	0.672548	-1080	1080	-500	1700	-10	10	-10	-0	0	-0	250	1.2	0.2	177	-1.2	-1	2555	0.07	3054	6947	7	56579	
7.93917	-5.44143	0.118	307	-164	1750	200	-0.121118	-0.151948	0.00411142	-0.00722963	-0.00947652	0.000247209	0.000102386	-0.000134101	-0.118	0.00346477	-0.0097336	-3.33439e-05	0.00185334	-0.0101643	0	0.00185334	-0.0101643	0	0	0	-0.115809	0	0	0.115847	-0.254074	-0.320422	2.06055	-0.117653	-0.161682	0.00407807	-0.165128	0.0229824	-0.104214	-0.0364157	0.00423438	0	0.486752	-0.0160386	3.68371	-0.00226893	-0.00261799	0	2.22288	0.79482	-1080	1080	-500	1700	-10	10	-10	-0	0	-0	250	1.2	0.2	177	-1.2	-1	2555	0.07	3034	6901	7	56579	
7.94919	-5.44121	0.118	306	-160	1800	250	-0.119513	-0.148788	0.00411621	-0.00842751	-0.0109678	0.000288466	0.000118989	-0.000225477	-0.118	0.00184746	-0.0128847	-3.79238e-05	-0.000249953	-0.0130141	0	-0.000249953	-0.0130141	0	0	0	-0.114768	0	0	0.135507	-0.259325	-0.321552	1.93256	-0.117666	-0.161673	0.00407828	-0.165136	0.0229802	-0.1042	-0.036419	0.00423454	0	0.486753	-0.0160386	3.68369	-0.00226893	-0.00261799	0	2.05637	0.884406	-1080	1080	-500	1700	-10	10	-10	-0	0	-0	250	1.2	0.2	177	-1.2	-1	2555	0.07	3034	6901	7	56579	
7.95922	-5.44081	0.118	304	-157	1850	300	-0.117735	-0.145572	0.00407494	-0.00960887	-0.0124285	0.000329353	0.000116609	-0.000342265	-0.118	5.39741e-05	-0.016091	-4.50478e-05	-0.00253602	-0.0158901	0	-0.00253602	-0.0158901	0	0	0	-0.113553	0	0	0.153973	-0.262401	-0.324297	1.80458	-0.117681	-0.161663	0.00402989	-0.165147	0.022978	-0.104182	-0.036424	0.00423484	0	0.485687	-0.0171078	3.6837	-0.0020944	-0.00279253	0	1.89916	0.946571	-1080	1080	-500	1700	-10	10	-10	-0	0	-0	250	1.2	0.2	177	-1.2	-1	2555	0.07	3034	6901	7	56579	
7.9692	-5.44021	0.118	302	-153	1900	350	-0.115915	-0.142337	0.0040806	-0.0107651	-0.0138483	0.000370057	9.3714e-05	-0.000484859	-0.118	-0.00178277	-0.0193145	-5.02025e-05	-0.00486754	-0.018776	0	-0.00486754	-0.018776	0	0	0	-0.112173	0	0	0.171294	-0.265253	-0.324589	1.67659	-0.117698	-0.161651	0.0040304	-0.165159	0.0229759	-0.104161	-0.0364306	0.00423528	0	0.485691	-0.017108	3.68365	-0.0020944	-0.00279253	0	1.76172	0.981829	-1080	1080	-500	1700	-10	10	-10	-0	0	-0	250	1.2	0.2	177	-1.2	-1	2555	0.07	3034	6901	7	56579	
7.97965	-5.44001	0.118	302	-149	1950	400	-0.116031	-0.138601	0.00406724	-0.0119773	-0.0152963	0.000412548	0.000200198	-0.000714563	-0.118	-0.001702	-0.0230242	-6.47498e-05	-0.00538478	-0.0224504	0	-0.00538478	-0.0224504	0	0	0	-0.110672	0	0	0.187038	-0.272233	-0.324434	1.54861	-0.117733	-0.161626	0.00400249	-0.165182	0.0229683	-0.104123	-0.0364372	0.00423543	0	0.48569	-0.0181772	3.68366	-0.0020944	-0.00296706	0	1.84396	0.962922	-1080	1080	-500	1700	-10	10	-10	-0	0	-0	250	1.2	0.2	177	-1.2	-1	2555	0.07	3034	6901	7	56579	
7.98915	-5.43792	0.118	297	-145	2000	450	-0.111651	-0.134876	0.00407067	-0.013038	-0.0165776	0.000451219	-7.1014e-05	-0.000913686	-0.118	-0.00608878	-0.0267443	-6.65997e-05	-0.010313	-0.0254161	0	-0.010313	-0.0254161	0	0	0	-0.111113	0	0	0.175831	-0.268056	-0.323832	1.42063	-0.11774	-0.161621	0.00400407	-0.165192	0.0229722	-0.104101	-0.0364534	0.00423699	0	0.485691	-0.0181772	3.68364	-0.0020944	-0.00296706	0	1.49323	0.996993	-1080	1080	-500	1700	-10	10	-10	-0	0	-0	250	1.2	0.2	177	-1.2	-1	2555	0.07	3034	6901	7	56579	
7.99931	-5.43507	0.119	292	-139	2050	500	-0.106871	-0.12938	0.00409241	-0.0141246	-0.0178931	0.000492831	-0.000387811	-0.00126777	-0.119	-0.0108926	-0.0322235	-7.84199e-05	-0.0159359	-0.0300509	0	-0.0159359	-0.0300509	0	0	0	-0.11139	0	0	0.17888	-0.263319	-0.31821	1.29264	-0.117763	-0.161604	0.00401399	-0.165214	0.0229743	-0.104056	-0.0364774	0.00427501	0	0.485691	-0.0192465	3.68365	-0.0020944	-0.00314159	0	1.27393	0.956259	-1080	1080	-500	1700	-10	10	-10	-0	0	-0	250	1.2	0.2	177	-1.2	-1	2555	0.07	3034	6901	7	56579	
8.0091	-5.43296	0.119	288	-137	2100	550	-0.102835	-0.126924	0.00408905	-0.0151307	-0.0191348	0.000532834	-0.000693626	-0.0014144	-0.119	-0.0149252	-0.034682	-8.11458e-05	-0.0203116	-0.0318284	0	-0.0203116	-0.0318284	0	0	0	-0.111555	0	0	0.170814	-0.260366	-0.321287	1.16466	-0.11776	-0.161606	0.00400791	-0.165218	0.0229802	-0.104042	-0.0364924	0.00427659	0	0.486755	-0.0203156	3.68367	-0.00226893	-0.00331613	0	1.11486	0.897847	-1080	1080	-500	1700	-10	10	-10	-0	0	-0	250	1.2	0.2	177	-1.2	-1	2555	0.07	3034	6901	7	56579	
8.01924	-5.43159	0.12	284	-136	2150	600	-0.099716	-0.126226	0.00416069	-0.0161422	-0.0204153	0.00057504	-0.000941381	-0.0014335	-0.12	-0.0180291	-0.0353892	-6.71252e-05	-0.0234889	-0.0320269	0	-0.0234889	-0.0320269	0	0	0	-0.113008	0	0	0.159386	-0.256966	-0.326538	1.03667	-0.117745	-0.161615	0.00409356	-0.165212	0.0229869	-0.104046	-0.0365003	0.00431355	0	0.487821	-0.0192464	3.68367	-0.00244346	-0.00314159	0	0.989725	0.835875	-1080	1080	-500	1700	-10	10	-10	-0	0	-0	250	1.2	0.2	177	-1.2	-1	2555	0.07	3034	6901	7	56579	
8.02922	-5.43061	0.12	282	-136	2200	650	-0.0975507	-0.125838	0.00415736	-0.0171158	-0.0216711	0.000616531	-0.00112561	-0.00143713	-0.12	-0.0201826	-0.0357856	-6.31086e-05	-0.0256781	-0.0320716	0	-0.0256781	-0.0320716	0	0	0	-0.113503	0	0	0.147477	-0.258031	-0.334132	0.908689	-0.117733	-0.161623	0.00409425	-0.165207	0.0229921	-0.104051	-0.0365058	0.00431429	0	0.487814	-0.0192461	3.68376	-0.00244346	-0.00314159	0	0.906365	0.787268	-1080	1080	-500	1700	-10	10	-10	-0	0	-0	250	1.2	0.2	177	-1.2	-1	2555	0.07	3034	6901	7	56579	
8.03929	-5.43032	0.121	282	-135	2250	700	-0.0970959	-0.125569	0.00417134	-0.0180935	-0.0229356	0.000658536	-0.00117223	-0.00145024	-0.121	-0.0206354	-0.0360559	-6.91442e-05	-0.0261685	-0.0322655	0	-0.0261685	-0.0322655	0	0	0	-0.114942	0	0	0.136212	-0.263895	-0.339217	0.780705	-0.117731	-0.161625	0.00410219	-0.165207	0.0229931	-0.10405	-0.0365076	0.00435045	0	0.487814	-0.0203154	3.68375	-0.00244346	-0.00331613	0	0.891013	0.777709	-1080	1080	-500	1700	-10	10	-10	-0	0	-0	250	1.2	0.2	177	-1.2	-1	2555	0.07	3034	6901	7	56579	
8.0492	-5.43024	0.122	281	-135	2300	750	-0.0970242	-0.125403	0.00420276	-0.0190547	-0.024178	0.000700173	-0.00118483	-0.0014538	-0.122	-0.0207053	-0.0362223	-7.22334e-05	-0.0262643	-0.0324185	0	-0.0262643	-0.0324185	0	0	0	-0.116402	0	0	0.124696	-0.267192	-0.346755	0.65272	-0.11773	-0.161625	0.00413053	-0.165206	0.0229933	-0.104049	-0.036508	0.00438645	0	0.488878	-0.0213845	3.68377	-0.00261799	-0.00349066	0	0.886983	0.775169	-1080	1080	-500	1700	-10	10	-10	-0	0	-0	250	1.2	0.2	177	-1.2	-1	2555	0.07	3034	6901	7	56579	
8.05925	-5.43017	0.122	281	-135	2350	800	-0.0969654	-0.12516	0.00418166	-0.0200298	-0.0254366	0.000742223	-0.00119271	-0.0014611	-0.122	-0.0207646	-0.0364653	-7.92908e-05	-0.0263619	-0.0326488	0	-0.0263619	-0.0326488	0	0	0	-0.116858	0	0	0.113235	-0.273001	-0.354293	0.524736	-0.11773	-0.161626	0.00410237	-0.165206	0.0229934	-0.104049	-0.0365085	0.0043865	0	0.488875	-0.0224536	3.68381	-0.00261799	-0.00366519	0	0.886189	0.774668	-1080	1080	-500	1700	-10	10	-10	-0	0	-0	250	1.2	0.2	177	-1.2	-1	2555	0.07	3034	6901	7	56579	
8.0691	-5.43018	0.122	281	-135	2400	850	-0.0969504	-0.124966	0.00418233	-0.0209842	-0.0266667	0.000783394	-0.00119341	-0.00145977	-0.122	-0.0207794	-0.0366599	-7.99654e-05	-0.0264078	-0.0328385	0	-0.0264078	-0.0328385	0	0	0	-0.117331	0	0	0.101581	-0.278809	-0.361831	0.396751	-0.11773	-0.161626	0.00410237	-0.165206	0.0229935	-0.104049	-0.0365085	0.0043865	0	0.488877	-0.0224537	3.68379	-0.00261799	-0.00366519	0	0.885456	0.774203	-1080	1080	-500	1700	-10	10	-10	-0	0	-0	250	1.2	0.2	177	-1.2	-1	2555	0.07	3034	6901	7	56579	
8.07916	-5.43013	0.123	281	-134	2450	900	-0.0968468	-0.124642	0.00423613	-0.0219586	-0.0279208	0.000826014	-0.00119902	-0.00146404	-0.123	-0.0208818	-0.0369834	-7.72384e-05	-0.0265609	-0.0331413	0	-0.0265609	-0.0331413	0	0	0	-0.11879	0	0	0.0900833	-0.284618	-0.366636	0.268767	-0.117729	-0.161625	0.00415889	-0.165206	0.0229934	-0.104048	-0.0365087	0.00442247	0	0.489943	-0.0224537	3.68379	-0.00279253	-0.00366519	0	0.884588	0.773654	-1080	1080	-500	1700	-10	10	-10	-0	0	-0	250	1.2	0.2	177	-1.2	-1	2555	0.07	3034	6901	7	56579	
8.0892	-5.43019	0.123	281	-134	2500	950	-0.0969108	-0.124323	0.00421573	-0.0229315	-0.0291688	0.000868336	-0.00118544	-0.00146653	-0.123	-0.0208189	-0.0373016	-8.50905e-05	-0.0265501	-0.0334654	0	-0.0265501	-0.0334654	0	0	0	-0.11926	0	0	0.0784643	-0.290427	-0.374119	0.140783	-0.11773	-0.161625	0.00413064	-0.165206	0.022993	-0.104047	-0.0365084	0.00442242	0	0.489938	-0.0235227	3.68385	-0.00279253	-0.00383972	0	0.890998	0.777699	-1080	1080	-500	1700	-10	10	-10	-0	0	-0	250	1.2	0.2	177	-1.2	-1	2555	0.07	3034	6901	7	56579	
8.09924	-5.43029	0.123	281	-134	2550	1000	-0.0969342	-0.124084	0.0042119	-0.0239053	-0.0304154	0.000910648	-0.00116981	-0.00146127	-0.123	-0.0207951	-0.0375416	-8.90015e-05	-0.0265652	-0.0337061	0	-0.0265652	-0.0337061	0	0	0	-0.11974	0	0	0.0667546	-0.296235	-0.381601	0.0127984	-0.117729	-0.161626	0.0041229	-0.165206	0.0229927	-0.104047	-0.0365077	0.00442234	0	0.491005	-0.024592	3.68383	-0.00296706	-0.00401426	0	0.895721	0.78066	-1080	1080	-500	1700	-10	10	-10	-0	0	-0	250	1.2	0.2	177	-1.2	-1	2555	0.07	3034	6901	7	56579	
8.10922	-5.43009	0.123	281	-133	2552	1050	-0.096682	-0.123256	0.00421463	-0.0248698	-0.031645	0.000952694	-0.0011835	-0.00150043	-0.123	-0.0210513	-0.0383663	-9.15518e-05	-0.0269507	-0.0344789	0	-0.0269507	-0.0344789	0	0	0	-0.120169	0	0	0.0555608	-0.296467	-0.379053	0.00767906	-0.117733	-0.161623	0.00412308	-0.165209	0.0229923	-0.104042	-0.0365097	0.0044225	0	0.491006	-0.024592	3.68383	-0.00296706	-0.00401426	0	0.90294	0.785151	-1080	1080	-500	1700	-10	10	-10	-0	0	-0	250	1.2	0.2	177	-1.2	-1	2555	0.07	3034	6901	7	56579	
8.11908	-5.43	0.123	281	-132	2552	1100	-0.0964949	-0.122602	0.00423362	-0.0258213	-0.032854	0.000994441	-0.00118654	-0.00152478	-0.123	-0.0212404	-0.0390184	-8.99012e-05	-0.0272423	-0.035092	0	-0.0272423	-0.035092	0	0	0	-0.12064	0	0	0.0439301	-0.296467	-0.376207	0.00767906	-0.117735	-0.161621	0.00414372	-0.165211	0.0229919	-0.104038	-0.0365109	0.00442257	0	0.492071	-0.024592	3.68383	-0.00314159	-0.00401426	0	0.909507	0.789201	-1080	1080	-500	1700	-10	10	-10	-0	0	-0	250	1.2	0.2	177	-1.2	-1	2555	0.07	3034	6901	7	56579	
8.1301	-5.42976	0.123	281	-131	2552	1150	-0.0961532	-0.121866	0.00421442	-0.0268804	-0.0341963	0.00104086	-0.00120778	-0.00156222	-0.123	-0.0215854	-0.039753	-9.87047e-05	-0.0277011	-0.0357616	0	-0.0277011	-0.0357616	0	0	0	-0.1211	0	0	0.0336363	-0.296467	-0.37336	0.00767906	-0.117739	-0.161619	0.00411572	-0.165214	0.0229918	-0.104033	-0.036513	0.00442276	0	0.492069	-0.0256611	3.68385	-0.00314159	-0.00418879	0	0.912663	0.791135	-1080	1080	-500	1700	-10	10	-10	-0	0	-0	250	1.2	0.2	177	-1.2	-1	2555	0.07	3034	6901	7	56579	
8.13915	-5.42961	0.122	280	-131	2552	1200	-0.0958544	-0.121442	0.00419617	-0.0277486	-0.0352962	0.00107887	-0.0012248	-0.00158093	-0.122	-0.0218852	-0.0401766	-9.57173e-05	-0.0280651	-0.0361314	0	-0.0280651	-0.0361314	0	0	0	-0.120562	0	0	0.0244948	-0.293619	-0.37336	0.00767906	-0.11774	-0.161619	0.00410045	-0.165216	0.022992	-0.104031	-0.0365145	0.00438693	0	0.493137	-0.0256612	3.68383	-0.00331613	-0.00418879	0	0.911652	0.790517	-1080	1080	-500	1700	-10	10	-10	-0	0	-0	250	1.2	0.2	177	-1.2	-1	2555	0.07	3034	6901	7	56579	
8.1492	-5.42915	0.122	280	-130	2552	1250	-0.0953429	-0.120549	0.00419856	-0.0287064	-0.0365073	0.00112105	-0.00127086	-0.00164386	-0.122	-0.0224015	-0.0410663	-9.77318e-05	-0.0287179	-0.0369264	0	-0.0287179	-0.0369264	0	0	0	-0.12097	0	0	0.0168748	-0.293619	-0.370513	0.00767906	-0.117744	-0.161615	0.00410083	-0.16522	0.0229921	-0.104023	-0.0365185	0.00438728	0	0.493138	-0.0256612	3.68381	-0.00331613	-0.00418879	0	0.912679	0.791145	-1080	1080	-500	1700	-10	10	-10	-0	0	-0	250	1.2	0.2	177	-1.2	-1	2555	0.07	3034	6901	7	56579	
8.15922	-5.42919	0.121	280	-130	2552	1300	-0.0953041	-0.120573	0.00420004	-0.0296617	-0.0377159	0.00116315	-0.00126812	-0.00163703	-0.121	-0.0224394	-0.0410422	-8.64257e-05	-0.0287514	-0.0368965	0	-0.0287514	-0.0368965	0	0	0	-0.120382	0	0	0.0101885	-0.293619	-0.370513	0.00767906	-0.117743	-0.161615	0.00411361	-0.16522	0.0229922	-0.104024	-0.0365182	0.00435131	0	0.494204	-0.024592	3.68381	-0.00349066	-0.00401426	0	0.911706	0.79055	-1080	1080	-500	1700	-10	10	-10	-0	0	-0	250	1.2	0.2	177	-1.2	-1	2555	0.07	3034	6901	7	56579	
8.16926	-5.42898	0.121	279	-130	2552	1342	-0.0950528	-0.120238	0.00418407	-0.030616	-0.0389231	0.00120516	-0.00129179	-0.00166355	-0.121	-0.0226932	-0.0413763	-9.08417e-05	-0.0290557	-0.0371855	0	-0.0290557	-0.0371855	0	0	0	-0.120722	0	0	0.00495669	-0.29077	-0.370513	0.00767906	-0.117746	-0.161614	0.00409323	-0.165222	0.0229924	-0.104021	-0.03652	0.00435147	0	0.493138	-0.024592	3.68382	-0.00331613	-0.00401426	0	0.910535	0.789832	-1080	1080	-500	1700	-10	10	-10	-0	0	-0	250	1.2	0.2	177	-1.2	-1	2555	0.07	3034	6901	7	56579	
8.17922	-5.42885	0.121	279	-130	2552	1340	-0.094879	-0.120084	0.00418421	-0.0315609	-0.0401189	0.00124682	-0.00130793	-0.00167683	-0.121	-0.0228677	-0.0415293	-9.08773e-05	-0.0292525	-0.0373084	0	-0.0292525	-0.0373084	0	0	0	-0.120997	0	0	0.00101755	-0.29077	-0.370513	0.00767906	-0.117747	-0.161614	0.00409334	-0.165223	0.0229926	-0.104019	-0.0365211	0.00435157	0	0.493139	-0.0245921	3.6838	-0.00331613	-0.00401426	0	0.908369	0.788502	-1080	1080	-500	1700	-10	10	-10	-0	0	-0	250	1.2	0.2	177	-1.2	-1	2555	0.07	3034	6901	7	56579	
8.18918	-5.42869	0.121	279	-129	2552	1339	-0.0947347	-0.11987	0.00422218	-0.0325047	-0.0413131	0.00128889	-0.00132633	-0.00169675	-0.121	-0.0230124	-0.0417424	-7.99505e-05	-0.0294296	-0.0374953	0	-0.0294296	-0.0374953	0	0	0	-0.1212	0	0	-0.00167059	-0.29077	-0.367666	0.00767906	-0.117747	-0.161612	0.00414223	-0.165224	0.0229927	-0.104017	-0.0365224	0.0043517	0	0.494205	-0.0235229	3.6838	-0.00349066	-0.00383972	0	0.907321	0.787857	-1080	1080	-500	1700	-10	10	-10	-0	0	-0	250	1.2	0.2	177	-1.2	-1	2555	0.07	3015	6857	7	56579	
8.19937	-5.42864	0.121	279	-129	2552	1338	-0.094703	-0.119864	0.00425957	-0.0334696	-0.0425344	0.00133229	-0.00133223	-0.00170022	-0.121	-0.0230433	-0.0417477	-6.85549e-05	-0.0294609	-0.0374956	0	-0.0294609	-0.0374956	0	0	0	-0.121312	0	0	-0.00307561	-0.29077	-0.367666	0.00767906	-0.117746	-0.161611	0.00419102	-0.165224	0.0229928	-0.104017	-0.0365228	0.00435173	0	0.495267	-0.0224535	3.68385	-0.00366519	-0.00366519	0	0.90616	0.787141	-1080	1080	-500	1700	-10	10	-10	-0	0	-0	250	1.2	0.2	177	-1.2	-1	2555	0.07	3015	6857	7	56579	
8.20923	-5.4287	0.12	279	-130	2552	1335	-0.094745	-0.120067	0.00424394	-0.0344037	-0.0437182	0.00137413	-0.0013286	-0.00168847	-0.12	-0.0230006	-0.0415449	-6.07169e-05	-0.0293862	-0.0373023	0	-0.0293862	-0.0373023	0	0	0	-0.120313	0	0	-0.00309899	-0.29077	-0.370513	0.00767906	-0.117746	-0.161612	0.00418322	-0.165224	0.022993	-0.104019	-0.0365223	0.00431574	0	0.495263	-0.0213841	3.68389	-0.00366519	-0.00349066	0	0.904114	0.785878	-1080	1080	-500	1700	-10	10	-10	-0	0	-0	250	1.2	0.2	177	-1.2	-1	2555	0.07	3015	6857	7	56579	
8.21922	-5.42871	0.12	279	-130	2552	1334	-0.0947449	-0.120158	0.00424362	-0.0353502	-0.0449185	0.00141652	-0.00132984	-0.00168474	-0.12	-0.0230002	-0.0414544	-6.0403e-05	-0.0293712	-0.0372131	0	-0.0293712	-0.0372131	0	0	0	-0.120312	0	0	-0.00307491	-0.29077	-0.370513	0.00767906	-0.117745	-0.161612	0.00418321	-0.165224	0.0229931	-0.104019	-0.0365222	0.00431573	0	0.495265	-0.0213842	3.68388	-0.00366519	-0.00349066	0	0.902588	0.784933	-1080	1080	-500	1700	-10	10	-10	-0	0	-0	250	1.2	0.2	177	-1.2	-1	2555	0.07	3015	6857	7	56579	
8.22909	-5.42878	0.12	279	-130	2552	1333	-0.0948125	-0.120301	0.00425987	-0.0362862	-0.0461062	0.00145858	-0.0013236	-0.00167369	-0.12	-0.0229308	-0.0413125	-5.61597e-05	-0.0292799	-0.0370842	0	-0.0292799	-0.0370842	0	0	0	-0.120308	0	0	-0.00304285	-0.29077	-0.370513	0.00767906	-0.117743	-0.161613	0.00420371	-0.165223	0.0229932	-0.104021	-0.0365215	0.00431568	0	0.49633	-0.0213842	3.68388	-0.00383972	-0.00349066	0	0.901674	0.784367	-1080	1080	-500	1700	-10	10	-10	-0	0	-0	250	1.2	0.2	177	-1.2	-1	2555	0.07	3015	6857	7	56579	
8.23924	-5.42879	0.119	279	-130	2552	1335	-0.0948638	-0.12029	0.00422415	-0.0372485	-0.0473264	0.00150143	-0.00132073	-0.00167544	-0.119	-0.0228805	-0.0413239	-5.63925e-05	-0.0292321	-0.0371035	0	-0.0292321	-0.0371035	0	0	0	-0.119309	0	0	-0.00304677	-0.29077	-0.370513	0.00767906	-0.117744	-0.161613	0.00416775	-0.165224	0.0229932	-0.104021	-0.0365217	0.00427973	0	0.496329	-0.0213841	3.6839	-0.00383972	-0.00349066	0	0.903238	0.785335	-1080	1080	-500	1700	-10	10	-10	-0	0	-0	250	1.2	0.2	177	-1.2	-1	2555	0.07	3015	6857	7	56579	
8.24909	-5.4291	0.119	280	-130	2552	1334	-0.0951396	-0.120825	0.00421863	-0.0381857	-0.0485166	0.00154298	-0.00128908	-0.00163211	-0.119	-0.0226006	-0.0407921	-5.87859e-05	-0.0288702	-0.0366236	0	-0.0288702	-0.0366236	0	0	0	-0.1193	0	0	-0.00298381	-0.293619	-0.370513	0.00767906	-0.11774	-0.161617	0.00415984	-0.165221	0.0229931	-0.104026	-0.0365189	0.00427949	0	0.497398	-0.0224534	3.68385	-0.00401426	-0.00366519	0	0.902292	0.78475	-1080	1080	-500	1700	-10	10	-10	-0	0	-0	250	1.2	0.2	177	-1.2	-1	2555	0.07	3015	6857	7	56579	
8.25919	-5.42884	0.119	279	-130	2552	1334	-0.0949223	-0.120379	0.00421958	-0.0391442	-0.0497321	0.00158559	-0.00131554	-0.00166758	-0.119	-0.0228206	-0.0412354	-5.95276e-05	-0.0291587	-0.0370258	0	-0.0291587	-0.0370258	0	0	0	-0.119306	0	0	-0.00301657	-0.29077	-0.370513	0.00767906	-0.117743	-0.161615	0.00416005	-0.165223	0.0229932	-0.104022	-0.0365212	0.00427969	0	0.497398	-0.0224535	3.68385	-0.00401426	-0.00366519	0	0.902864	0.785104	-1080	1080	-500	1700	-10	10	-10	-0	0	-0	250	1.2	0.2	177	-1.2	-1	2555	0.07	3015	6857	7	56579	
8.26924	-5.42892	0.119	279	-130	2552	1336	-0.0949938	-0.120464	0.00423608	-0.0400994	-0.0509435	0.00162819	-0.00130559	-0.00166052	-0.119	-0.022748	-0.0411505	-5.55373e-05	-0.0290735	-0.0369536	0	-0.0290735	-0.0369536	0	0	0	-0.119305	0	0	-0.0030107	-0.29077	-0.370513	0.00767906	-0.117742	-0.161615	0.00418054	-0.165223	0.022993	-0.104023	-0.0365206	0.00427963	0	0.498464	-0.0224535	3.68385	-0.00418879	-0.00366519	0	0.904493	0.786112	-1080	1080	-500	1700	-10	10	-10	-0	0	-0	250	1.2	0.2	177	-1.2	-1	2555	0.07	3015	6857	7	56579	
8.28299	-5.4289	0.118	279	-130	2552	1336	-0.0949778	-0.120434	0.00422121	-0.0414048	-0.0525987	0.0016862	-0.00130778	-0.00166237	-0.118	-0.0227646	-0.0411806	-4.83905e-05	-0.0290947	-0.0369806	0	-0.0290947	-0.0369806	0	0	0	-0.118306	0	0	-0.0030129	-0.29077	-0.370513	0.00767906	-0.117742	-0.161615	0.00417282	-0.165223	0.0229931	-0.104023	-0.0365209	0.00424369	0	0.498462	-0.0213842	3.68387	-0.00418879	-0.00349066	0	0.904221	0.785944	-1080	1080	-500	1700	-10	10	-10	-0	0	-0	250	1.2	0.2	177	-1.2	-1	2555	0.07	3015	6857	7	56579	
8.28922	-5.4289	0.118	279	-130	2552	1335	-0.0949684	-0.120455	0.00425869	-0.0419967	-0.0533495	0.00171275	-0.00130848	-0.00165978	-0.118	-0.0227728	-0.0411591	-3.71228e-05	-0.0290994	-0.0369581	0	-0.0290994	-0.0369581	0	0	0	-0.118303	0	0	-0.00298491	-0.29077	-0.370513	0.00767906	-0.117741	-0.161614	0.00422157	-0.165223	0.0229932	-0.104023	-0.0365208	0.00424369	0	0.499529	-0.020315	3.68386	-0.00436332	-0.00331613	0	0.9032	0.785312	-1080	1080	-500	1700	-10	10	-10	-0	0	-0	250	1.2	0.2	177	-1.2	-1	2555	0.07	3015	6857	7	56579	
8.29941	-5.42794	0.118	279	-128	2552	1335	-0.0941204	-0.11886	0.004261	-0.0429555	-0.0545604	0.00175615	-0.00140977	-0.00179001	-0.118	-0.0236304	-0.0427469	-3.8646e-05	-0.0302013	-0.0383872	0	-0.0302013	-0.0383872	0	0	0	-0.118327	0	0	-0.00309795	-0.29077	-0.364818	0.00767906	-0.117751	-0.161607	0.00422235	-0.165232	0.0229936	-0.104006	-0.0365292	0.00424441	0	0.499525	-0.0203149	3.6839	-0.00436332	-0.00331613	0	0.903677	0.785607	-1080	1080	-500	1700	-10	10	-10	-0	0	-0	250	1.2	0.2	177	-1.2	-1	2555	0.07	3015	6857	7	56579	
8.30922	-5.42886	0.117	280	-130	2552	1336	-0.0949702	-0.120347	0.00426072	-0.0438877	-0.0557416	0.00179797	-0.00131052	-0.00166847	-0.117	-0.0227718	-0.0412665	-2.63065e-05	-0.0291157	-0.0370642	0	-0.0291157	-0.0370642	0	0	0	-0.117306	0	0	-0.00301507	-0.293619	-0.370513	0.00767906	-0.117742	-0.161613	0.00423441	-0.165225	0.0229932	-0.104022	-0.0365214	0.00420777	0	0.500591	-0.0192457	3.6839	-0.00453786	-0.00314159	0	0.904984	0.786415	-1080	1080	-500	1700	-10	10	-10	-0	0	-0	250	1.2	0.2	177	-1.2	-1	2555	0.07	3015	6857	7	56579	
8.31918	-5.42886	0.117	280	-130	2552	1336	-0.0949606	-0.120405	0.00425606	-0.0448334	-0.0569407	0.00184036	-0.00131075	-0.00166841	-0.117	-0.0227805	-0.0412095	-2.93042e-05	-0.0291151	-0.0370065	0	-0.0291151	-0.0370065	0	0	0	-0.117306	0	0	-0.00301501	-0.293619	-0.370513	0.00767906	-0.117741	-0.161614	0.00422676	-0.165225	0.0229932	-0.104022	-0.0365214	0.00420777	0	0.501656	-0.0203149	3.68391	-0.00471239	-0.00331613	0	0.904878	0.78635	-1080	1080	-500	1700	-10	10	-10	-0	0	-0	250	1.2	0.2	177	-1.2	-1	2555	0.07	3015	6857	7	56579	
8.3291	-5.42887	0.117	279	-130	2552	1336	-0.0949423	-0.120418	0.00425592	-0.0457749	-0.0581349	0.00188257	-0.00130989	-0.00166637	-0.117	-0.0227986	-0.0411959	-2.9174e-05	-0.0291308	-0.0369903	0	-0.0291308	-0.0369903	0	0	0	-0.117306	0	0	-0.00301368	-0.29077	-0.370513	0.00767906	-0.117741	-0.161614	0.00422675	-0.165224	0.0229932	-0.104023	-0.0365213	0.00420776	0	0.501656	-0.0203149	3.6839	-0.00471239	-0.00331613	0	0.904607	0.786182	-1080	1080	-500	1700	-10	10	-10	-0	0	-0	250	1.2	0.2	177	-1.2	-1	2555	0.07	3015	6857	7	56579	
8.33912	-5.42888	0.117	279	-130	2552	1336	-0.0949211	-0.120427	0.00425579	-0.0467263	-0.0593419	0.00192522	-0.00130964	-0.00166477	-0.117	-0.0228196	-0.0411877	-2.90477e-05	-0.0291502	-0.0369788	0	-0.0291502	-0.0369788	0	0	0	-0.117306	0	0	-0.00301275	-0.29077	-0.370513	0.00767906	-0.117741	-0.161615	0.00422674	-0.165224	0.0229932	-0.104023	-0.0365212	0.00420776	0	0.501656	-0.0203149	3.6839	-0.00471239	-0.00331613	0	0.904229	0.785949	-1080	1080	-500	1700	-10	10	-10	-0	0	-0	250	1.2	0.2	177	-1.2	-1	2555	0.07	3015	6857	7	56579	
8.34916	-5.42885	0.117	279	-130	2552	1334	-0.0948817	-0.120404	0.00427226	-0.0476785	-0.0605501	0.00196809	-0.00131424	-0.0016657	-0.117	-0.022858	-0.0412109	-2.49541e-05	-0.0291918	-0.0369954	0	-0.0291918	-0.0369954	0	0	0	-0.117306	0	0	-0.0030141	-0.29077	-0.370513	0.00767906	-0.11774	-0.161615	0.00424731	-0.165224	0.0229933	-0.104023	-0.0365213	0.00420778	0	0.502722	-0.0203149	3.6839	-0.00488692	-0.00331613	0	0.902797	0.785062	-1080	1080	-500	1700	-10	10	-10	-0	0	-0	250	1.2	0.2	177	-1.2	-1	2555	0.07	2997	6816	7	56579	
8.35909	-5.42891	0.117	280	-130	2552	1336	-0.0949655	-0.120464	0.00425141	-0.0486221	-0.0617472	0.00201034	-0.0013068	-0.0016611	-0.117	-0.0227742	-0.0411518	-3.23503e-05	-0.0290996	-0.0369507	0	-0.0290996	-0.0369507	0	0	0	-0.117305	0	0	-0.00301045	-0.293619	-0.370513	0.00767906	-0.11774	-0.161616	0.00421906	-0.165224	0.0229932	-0.104023	-0.0365209	0.00420774	0	0.50272	-0.021384	3.68392	-0.00488692	-0.00349066	0	0.904214	0.785939	-1080	1080	-500	1700	-10	10	-10	-0	0	-0	250	1.2	0.2	177	-1.2	-1	2555	0.07	2997	6816	7	56579	
8.36914	-5.42886	0.116	280	-130	2552	1335	-0.0949253	-0.120389	0.00417798	-0.0495757	-0.0629566	0.00205231	-0.00131219	-0.00166666	-0.116	-0.0228162	-0.0412276	-4.35876e-05	-0.0291532	-0.0370187	0	-0.0291532	-0.0370187	0	0	0	-0.116306	0	0	-0.003016	-0.293619	-0.370513	0.00767906	-0.117741	-0.161616	0.00413439	-0.165225	0.0229933	-0.104023	-0.0365215	0.00417183	0	0.501657	-0.0224533	3.6839	-0.00471239	-0.00366519	0	0.903836	0.785706	-1080	1080	-500	1700	-10	10	-10	-0	0	-0	250	1.2	0.2	177	-1.2	-1	2555	0.07	2997	6816	7	56579	
8.3792	-5.4289	0.116	280	-130	2552	1335	-0.0949332	-0.12045	0.00417776	-0.0505307	-0.0641682	0.00209434	-0.00130856	-0.00166076	-0.116	-0.0228078	-0.0411663	-4.34024e-05	-0.029135	-0.0369595	0	-0.029135	-0.0369595	0	0	0	-0.116305	0	0	-0.00301118	-0.293619	-0.370513	0.00767906	-0.117741	-0.161617	0.00413436	-0.165225	0.0229934	-0.104024	-0.0365211	0.0041718	0	0.501664	-0.0224536	3.68381	-0.00471239	-0.00366519	0	0.903459	0.785472	-1080	1080	-500	1700	-10	10	-10	-0	0	-0	250	1.2	0.2	177	-1.2	-1	2555	0.07	2997	6816	7	56579	
8.38917	-5.4289	0.116	280	-130	2552	1334	-0.0949072	-0.12045	0.00417764	-0.0514772	-0.0653695	0.002136	-0.00130916	-0.00165986	-0.116	-0.0228336	-0.0411667	-4.32825e-05	-0.0291606	-0.0369558	0	-0.0291606	-0.0369558	0	0	0	-0.116305	0	0	-0.00301088	-0.293619	-0.370513	0.00767906	-0.117741	-0.161617	0.00413436	-0.165224	0.0229934	-0.104024	-0.0365211	0.0041718	0	0.501664	-0.0224536	3.68381	-0.00471239	-0.00366519	0	0.902976	0.785173	-1080	1080	-500	1700	-10	10	-10	-0	0	-0	250	1.2	0.2	177	-1.2	-1	2555	0.07	2997	6816	7	56579	
8.39928	-5.42981	0.116	280	-132	2552	1332	-0.0957049	-0.122025	0.00415825	-0.0524443	-0.0666025	0.00217802	-0.00121541	-0.00153439	-0.116	-0.0220272	-0.0395985	-4.51792e-05	-0.0281123	-0.0355378	0	-0.0281123	-0.0355378	0	0	0	-0.116278	0	0	-0.00284503	-0.293619	-0.376207	0.00767906	-0.117732	-0.161624	0.00411308	-0.165216	0.0229932	-0.10404	-0.0365131	0.00417113	0	0.500598	-0.0224536	3.68381	-0.00453786	-0.00366519	0	0.900885	0.783877	-1080	1080	-500	1700	-10	10	-10	-0	0	-0	250	1.2	0.2	177	-1.2	-1	2555	0.07	2997	6816	7	56579	
8.40924	-5.42885	0.116	279	-130	2552	1334	-0.0948214	-0.120357	0.00414451	-0.0533896	-0.0678024	0.00221934	-0.00131572	-0.00166567	-0.116	-0.0229213	-0.0412593	-5.12094e-05	-0.0292621	-0.0370331	0	-0.0292621	-0.0370331	0	0	0	-0.116306	0	0	-0.00301253	-0.29077	-0.370513	0.00767906	-0.117743	-0.161617	0.0040933	-0.165225	0.0229935	-0.104023	-0.0365215	0.00417184	0	0.499534	-0.0224537	3.68379	-0.00436332	-0.00366519	0	0.902242	0.784719	-1080	1080	-500	1700	-10	10	-10	-0	0	-0	250	1.2	0.2	177	-1.2	-1	2555	0.07	2997	6816	7	56579	
8.41925	-5.42887	0.116	279	-130	2552	1334	-0.0948492	-0.120335	0.0041447	-0.054339	-0.0690069	0.00226082	-0.00131271	-0.00166294	-0.116	-0.0228934	-0.0412816	-5.1413e-05	-0.0292381	-0.0370596	0	-0.0292381	-0.0370596	0	0	0	-0.116305	0	0	-0.00301006	-0.29077	-0.370513	0.00767906	-0.117743	-0.161617	0.00409328	-0.165225	0.0229934	-0.104024	-0.0365213	0.00417182	0	0.499535	-0.0224537	3.68378	-0.00436332	-0.00366519	0	0.902558	0.784914	-1080	1080	-500	1700	-10	10	-10	-0	0	-0	250	1.2	0.2	177	-1.2	-1	2555	0.07	2997	6816	7	56579	
8.42912	-5.42885	0.116	280	-130	2552	1335	-0.0948708	-0.12028	0.00414501	-0.0552754	-0.0701941	0.00230174	-0.00131334	-0.00166864	-0.116	-0.0228724	-0.0413361	-5.17041e-05	-0.0292262	-0.0371167	0	-0.0292262	-0.0371167	0	0	0	-0.116306	0	0	-0.0030147	-0.293619	-0.370513	0.00767906	-0.117743	-0.161616	0.00409331	-0.165225	0.0229933	-0.104023	-0.0365216	0.00417184	0	0.499535	-0.0224537	3.68378	-0.00436332	-0.00366519	0	0.903989	0.7858	-1080	1080	-500	1700	-10	10	-10	-0	0	-0	250	1.2	0.2	177	-1.2	-1	2555	0.07	2997	6816	7	56579	
8.4392	-5.42883	0.116	280	-130	2552	1335	-0.0948601	-0.12026	0.00410751	-0.0562315	-0.0714062	0.00234313	-0.00131611	-0.00167092	-0.116	-0.0228841	-0.0413571	-6.29427e-05	-0.0292411	-0.0371357	0	-0.0292411	-0.0371357	0	0	0	-0.116306	0	0	-0.00301624	-0.293619	-0.370513	0.00767906	-0.117744	-0.161617	0.00404456	-0.165225	0.0229934	-0.104023	-0.0365218	0.00417185	0	0.498469	-0.0235229	3.68378	-0.00418879	-0.00383972	0	0.903627	0.785577	-1080	1080	-500	1700	-10	10	-10	-0	0	-0	250	1.2	0.2	177	-1.2	-1	2555	0.07	2997	6816	7	56579	
8.44921	-5.42883	0.116	280	-130	2552	1335	-0.0948433	-0.120274	0.00409082	-0.0571809	-0.0726101	0.00238408	-0.0013163	-0.00166992	-0.116	-0.0229015	-0.0413423	-6.68099e-05	-0.0292558	-0.0371182	0	-0.0292558	-0.0371182	0	0	0	-0.116306	0	0	-0.00301482	-0.293619	-0.370513	0.00767906	-0.117745	-0.161617	0.00402401	-0.165225	0.0229934	-0.104023	-0.0365217	0.00417185	0	0.497407	-0.0235231	3.68373	-0.00401426	-0.00383972	0	0.903267	0.785353	-1080	1080	-500	1700	-10	10	-10	-0	0	-0	250	1.2	0.2	177	-1.2	-1	2555	0.07	2997	6816	7	56579	
8.4592	-5.42879	0.116	279	-130	2552	1333	-0.0947742	-0.120242	0.0040907	-0.058127	-0.0738105	0.00242492	-0.00132205	-0.00167236	-0.116	-0.0229706	-0.0413746	-6.66566e-05	-0.0293292	-0.037139	0	-0.0293292	-0.037139	0	0	0	-0.116306	0	0	-0.00301651	-0.29077	-0.370513	0.00767906	-0.117745	-0.161617	0.00402404	-0.165225	0.0229935	-0.104022	-0.036522	0.00417188	0	0.497409	-0.0235232	3.68372	-0.00401426	-0.00383972	0	0.901855	0.784479	-1080	1080	-500	1700	-10	10	-10	-0	0	-0	250	1.2	0.2	177	-1.2	-1	2555	0.07	2997	6816	7	56579	
8.46921	-5.4288	0.116	279	-130	2552	1334	-0.0947792	-0.120253	0.00408623	-0.0590759	-0.0750145	0.00246583	-0.00132082	-0.00167209	-0.116	-0.0229649	-0.0413642	-6.98513e-05	-0.0293219	-0.0371297	0	-0.0293219	-0.0371297	0	0	0	-0.116306	0	0	-0.00301576	-0.29077	-0.370513	0.00767906	-0.117744	-0.161617	0.00401638	-0.165225	0.0229935	-0.104022	-0.0365219	0.00417187	0	0.498475	-0.0245924	3.68372	-0.00418879	-0.00401426	0	0.902231	0.784712	-1080	1080	-500	1700	-10	10	-10	-0	0	-0	250	1.2	0.2	177	-1.2	-1	2555	0.07	2997	6816	7	56579	
8.47927	-5.42879	0.116	279	-130	2552	1334	-0.094797	-0.120239	0.00406538	-0.0600293	-0.0762237	0.00250672	-0.00132146	-0.0016742	-0.116	-0.0229473	-0.0413787	-7.72049e-05	-0.0293069	-0.0371468	0	-0.0293069	-0.0371468	0	0	0	-0.116306	0	0	-0.00301715	-0.29077	-0.370513	0.00767906	-0.117744	-0.161618	0.00398818	-0.165225	0.0229935	-0.104022	-0.0365221	0.00417188	0	0.498475	-0.0256617	3.68371	-0.00418879	-0.00418879	0	0.902607	0.784945	-1080	1080	-500	1700	-10	10	-10	-0	0	-0	250	1.2	0.2	177	-1.2	-1	2555	0.07	2997	6816	7	56579	
8.48913	-5.4288	0.117	280	-130	2552	1334	-0.0948324	-0.120257	0.00412239	-0.0609652	-0.0774106	0.0025474	-0.00131971	-0.00167363	-0.117	-0.0229113	-0.04136	-7.00586e-05	-0.0292684	-0.0371342	0	-0.0292684	-0.0371342	0	0	0	-0.117306	0	0	-0.00301612	-0.293619	-0.370513	0.00767906	-0.117744	-0.161617	0.00405233	-0.165225	0.0229933	-0.104022	-0.0365218	0.00420782	0	0.498477	-0.0245925	3.68369	-0.00418879	-0.00401426	0	0.903088	0.785243	-1080	1080	-500	1700	-10	10	-10	-0	0	-0	250	1.2	0.2	177	-1.2	-1	2555	0.07	2997	6816	7	56579	
8.50013	-5.42879	0.117	280	-130	2552	1337	-0.0948709	-0.120205	0.00412276	-0.0620079	-0.0787317	0.00259272	-0.00131852	-0.00167927	-0.117	-0.0228736	-0.0414108	-7.04208e-05	-0.0292393	-0.0371904	0	-0.0292393	-0.0371904	0	0	0	-0.117311	0	0	-0.00307304	-0.293619	-0.370513	0.00767906	-0.117744	-0.161616	0.00405234	-0.165225	0.0229932	-0.104021	-0.036522	0.00420783	0	0.498471	-0.0245922	3.68376	-0.00418879	-0.00401426	0	0.905161	0.786525	-1080	1080	-500	1700	-10	10	-10	-0	0	-0	250	1.2	0.2	177	-1.2	-1	2555	0.07	2997	6816	7	56579	
8.50919	-5.42886	0.117	280	-130	2552	1335	-0.0949033	-0.120366	0.00412219	-0.0628684	-0.0798231	0.00263009	-0.00131179	-0.00166611	-0.117	-0.02284	-0.0412509	-6.99192e-05	-0.0291804	-0.0370379	0	-0.0291804	-0.0370379	0	0	0	-0.117306	0	0	-0.00301293	-0.293619	-0.370513	0.00767906	-0.117743	-0.161617	0.00405227	-0.165224	0.0229933	-0.104023	-0.0365213	0.00420777	0	0.498471	-0.0245922	3.68376	-0.00418879	-0.00401426	0	0.903823	0.785697	-1080	1080	-500	1700	-10	10	-10	-0	0	-0	250	1.2	0.2	177	-1.2	-1	2555	0.07	2997	6816	7	56579	
8.52013	-5.42864	0.117	279	-130	2552	1335	-0.0946754	-0.119995	0.00408543	-0.0639039	-0.0811355	0.00267477	-0.00133631	-0.00169577	-0.117	-0.0230708	-0.0416211	-8.17295e-05	-0.0294678	-0.0373662	0	-0.0294678	-0.0373662	0	0	0	-0.117311	0	0	-0.00303963	-0.29077	-0.370513	0.00767906	-0.117746	-0.161616	0.0040037	-0.165226	0.0229934	-0.104019	-0.0365233	0.00420794	0	0.497405	-0.0256615	3.68376	-0.00401426	-0.00418879	0	0.903401	0.785436	-1080	1080	-500	1700	-10	10	-10	-0	0	-0	250	1.2	0.2	177	-1.2	-1	2555	0.07	2997	6816	7	56579	
8.5292	-5.42884	0.117	280	-130	2552	1333	-0.0948238	-0.12036	0.00406779	-0.0647642	-0.0822275	0.00271168	-0.0013165	-0.00166557	-0.117	-0.0229207	-0.041258	-8.48117e-05	-0.0292612	-0.037032	0	-0.0292612	-0.037032	0	0	0	-0.117305	0	0	-0.00301244	-0.293619	-0.370513	0.00767906	-0.117745	-0.161618	0.00398298	-0.165224	0.0229934	-0.104023	-0.0365214	0.00420779	0	0.496343	-0.0256616	3.68372	-0.00383972	-0.00418879	0	0.901927	0.784523	-1080	1080	-500	1700	-10	10	-10	-0	0	-0	250	1.2	0.2	177	-1.2	-1	2555	0.07	2997	6816	7	56579	
8.53925	-5.42861	0.117	279	-130	2552	1334	-0.0946419	-0.11998	0.00406885	-0.0657153	-0.0834332	0.00275257	-0.00134016	-0.00169661	-0.117	-0.0231049	-0.041636	-8.56878e-05	-0.0295038	-0.0373755	0	-0.0295038	-0.0373755	0	0	0	-0.117311	0	0	-0.00304038	-0.29077	-0.370513	0.00767906	-0.117747	-0.161616	0.00398317	-0.165226	0.0229935	-0.104019	-0.0365234	0.00420796	0	0.496345	-0.0256617	3.6837	-0.00383972	-0.00418879	0	0.902242	0.784719	-1080	1080	-500	1700	-10	10	-10	-0	0	-0	250	1.2	0.2	177	-1.2	-1	2555	0.07	2997	6816	7	56579	
8.54925	-5.42882	0.117	280	-130	2552	1334	-0.0948218	-0.120311	0.00408456	-0.0666629	-0.0846356	0.00279339	-0.00131793	-0.00166991	-0.117	-0.0229224	-0.0413071	-8.10101e-05	-0.0292707	-0.0370802	0	-0.0292707	-0.0370802	0	0	0	-0.117306	0	0	-0.00301636	-0.293619	-0.370513	0.00767906	-0.117744	-0.161618	0.00400355	-0.165224	0.0229934	-0.104022	-0.0365216	0.0042078	0	0.49741	-0.0256617	3.6837	-0.00401426	-0.00418879	0	0.902663	0.78498	-1080	1080	-500	1700	-10	10	-10	-0	0	-0	250	1.2	0.2	177	-1.2	-1	2555	0.07	2997	6816	7	56579	
8.5594	-5.42885	0.117	280	-130	2552	1335	-0.0948843	-0.120331	0.00412227	-0.0676264	-0.0858574	0.00283525	-0.00131343	-0.00166891	-0.117	-0.0228592	-0.0412855	-6.99779e-05	-0.029205	-0.037069	0	-0.029205	-0.037069	0	0	0	-0.117306	0	0	-0.00301546	-0.293619	-0.370513	0.00767906	-0.117744	-0.161617	0.00405229	-0.165225	0.0229932	-0.104022	-0.0365215	0.00420778	0	0.498474	-0.0245924	3.68372	-0.00418879	-0.00401426	0	0.904034	0.785828	-1080	1080	-500	1700	-10	10	-10	-0	0	-0	250	1.2	0.2	177	-1.2	-1	2555	0.07	2997	6816	7	56579	
8.56925	-5.42884	0.116	280	-130	2552	1335	-0.0948603	-0.120334	0.00408621	-0.0685605	-0.0870425	0.00287549	-0.00131415	-0.00166837	-0.116	-0.0228837	-0.0412835	-6.98673e-05	-0.0292288	-0.0370631	0	-0.0292288	-0.0370631	0	0	0	-0.116306	0	0	-0.00301498	-0.293619	-0.370513	0.00767906	-0.117744	-0.161618	0.00401634	-0.165225	0.0229934	-0.104023	-0.0365216	0.00417184	0	0.498471	-0.0245922	3.68376	-0.00418879	-0.00401426	0	0.903612	0.785567	-1080	1080	-500	1700	-10	10	-10	-0	0	-0	250	1.2	0.2	177	-1.2	-1	2555	0.07	2997	6816	7	56579	
8.57922	-5.42879	0.116	280	-130	2552	1334	-0.0947933	-0.120259	0.00408627	-0.0695056	-0.0882415	0.00291623	-0.00132008	-0.00167408	-0.116	-0.022951	-0.0413587	-6.98872e-05	-0.0293073	-0.0371265	0	-0.0293073	-0.0371265	0	0	0	-0.116307	0	0	-0.00302013	-0.293619	-0.370513	0.00767906	-0.117744	-0.161617	0.00401638	-0.165225	0.0229934	-0.104022	-0.036522	0.00417187	0	0.498474	-0.0245924	3.68372	-0.00418879	-0.00401426	0	0.903085	0.785241	-1080	1080	-500	1700	-10	10	-10	-0	0	-0	250	1.2	0.2	177	-1.2	-1	2555	0.07	2997	6816	7	56579	
8.58925	-5.42881	0.116	280	-130	2552	1333	-0.0947748	-0.120317	0.0040904	-0.0704563	-0.0894484	0.00295726	-0.00132003	-0.00166861	-0.116	-0.0229697	-0.0413002	-6.63747e-05	-0.0293163	-0.0370657	0	-0.0293163	-0.0370657	0	0	0	-0.116306	0	0	-0.00301519	-0.293619	-0.370513	0.00767906	-0.117744	-0.161617	0.00402402	-0.165225	0.0229935	-0.104023	-0.0365218	0.00417186	0	0.497408	-0.0235232	3.68372	-0.00401426	-0.00383972	0	0.901506	0.784262	-1080	1080	-500	1700	-10	10	-10	-0	0	-0	250	1.2	0.2	177	-1.2	-1	2555	0.07	2981	6778	7	56579	
8.5993	-5.42884	0.116	280	-130	2552	1333	-0.0947728	-0.120369	0.00410671	-0.0714088	-0.0906581	0.00299853	-0.00131717	-0.00166571	-0.116	-0.0229425	-0.0412683	-6.23571e-05	-0.0292908	-0.0370335	0	-0.0292908	-0.0370335	0	0	0	-0.116306	0	0	-0.00301256	-0.293619	-0.370513	0.00767906	-0.117715	-0.161638	0.00404435	-0.165225	0.0229935	-0.104023	-0.0365216	0.00417184	0	0.498474	-0.0235231	3.68373	-0.00418879	-0.00383972	0	0.901717	0.784393	-1080	1080	-500	1700	-10	10	-10	-0	0	-0	250	1.2	0.2	177	-1.2	-1	2555	0.07	2981	6778	7	56579	
8.60927	-5.4288	0.116	280	-130	2552	1333	-0.094715	-0.120319	0.00410669	-0.0723532	-0.0918578	0.00303948	-0.00132087	-0.00167111	-0.116	-0.0229724	-0.0413392	-6.25037e-05	-0.0293383	-0.0370935	0	-0.0293383	-0.0370935	0	0	0	-0.116307	0	0	-0.00301745	-0.293619	-0.370513	0.00767906	-0.117687	-0.161658	0.00404419	-0.165225	0.0229935	-0.104023	-0.0365219	0.00417187	0	0.498472	-0.0235231	3.68375	-0.00418879	-0.00383972	0	0.901927	0.784523	-1080	1080	-500	1700	-10	10	-10	-0	0	-0	250	1.2	0.2	177	-1.2	-1	2555	0.07	2981	6778	7	56579	
8.61918	-5.42905	0.116	280	-131	2552	1334	-0.0949568	-0.120713	0.00410601	-0.0732941	-0.0930539	0.00308017	-0.00129308	-0.00163984	-0.116	-0.0227286	-0.0409461	-6.20156e-05	-0.0290343	-0.0367449	0	-0.0290343	-0.0367449	0	0	0	-0.116301	0	0	-0.00298909	-0.293619	-0.37336	0.00767906	-0.117685	-0.16166	0.00404399	-0.165223	0.0229933	-0.104027	-0.0365198	0.00417169	0	0.498472	-0.0235231	3.68375	-0.00418879	-0.00383972	0	0.903085	0.785241	-1080	1080	-500	1700	-10	10	-10	-0	0	-0	250	1.2	0.2	177	-1.2	-1	2555	0.07	2981	6778	7	56579	
8.6293	-5.4288	0.116	280	-130	2552	1333	-0.0946944	-0.12033	0.00410209	-0.0742522	-0.0942714	0.00312167	-0.00132132	-0.00166988	-0.116	-0.0229921	-0.0413285	-6.55808e-05	-0.029356	-0.0370798	0	-0.029356	-0.0370798	0	0	0	-0.116306	0	0	-0.00301633	-0.293619	-0.370513	0.00767906	-0.117686	-0.161659	0.00403651	-0.165225	0.0229935	-0.104023	-0.0365219	0.00417187	0	0.499537	-0.0245923	3.68375	-0.00436332	-0.00401426	0	0.901401	0.784197	-1080	1080	-500	1700	-10	10	-10	-0	0	-0	250	1.2	0.2	177	-1.2	-1	2555	0.07	2981	6778	7	56579	
8.6392	-5.42907	0.116	280	-131	2552	1334	-0.0949607	-0.120733	0.00410144	-0.0751923	-0.0954667	0.00316228	-0.00129152	-0.00163575	-0.116	-0.0227235	-0.0409272	-6.51419e-05	-0.0290262	-0.0367271	0	-0.0290262	-0.0367271	0	0	0	-0.1163	0	0	-0.00298535	-0.293619	-0.37336	0.00767906	-0.117684	-0.161661	0.0040363	-0.165223	0.0229934	-0.104027	-0.0365196	0.00417167	0	0.499538	-0.0245923	3.68375	-0.00436332	-0.00401426	0	0.902453	0.784849	-1080	1080	-500	1700	-10	10	-10	-0	0	-0	250	1.2	0.2	177	-1.2	-1	2555	0.07	2981	6778	7	56579	
8.64914	-5.42879	0.116	280	-130	2552	1332	-0.0946661	-0.120291	0.00409767	-0.0761333	-0.0966624	0.00320301	-0.00132377	-0.00167073	-0.116	-0.0230195	-0.0413682	-6.8823e-05	-0.0293895	-0.0371146	0	-0.0293895	-0.0371146	0	0	0	-0.116306	0	0	-0.00301684	-0.293619	-0.370513	0.00767906	-0.117686	-0.16166	0.00402885	-0.165225	0.0229936	-0.104023	-0.036522	0.00417188	0	0.500603	-0.0256615	3.68375	-0.00453786	-0.00418879	0	0.900749	0.783792	-1080	1080	-500	1700	-10	10	-10	-0	0	-0	250	1.2	0.2	177	-1.2	-1	2555	0.07	2981	6778	7	56579	
8.65913	-5.42882	0.116	280	-130	2552	1332	-0.0947046	-0.120325	0.00409768	-0.0770801	-0.0978653	0.00324397	-0.00131983	-0.00166604	-0.116	-0.0229807	-0.0413347	-6.8859e-05	-0.0293457	-0.0370878	0	-0.0293457	-0.0370878	0	0	0	-0.116305	0	0	-0.00301235	-0.293619	-0.370513	0.00767906	-0.117685	-0.16166	0.00402882	-0.165225	0.0229936	-0.104023	-0.0365217	0.00417185	0	0.500604	-0.0256615	3.68374	-0.00453786	-0.00418879	0	0.900832	0.783844	-1080	1080	-500	1700	-10	10	-10	-0	0	-0	250	1.2	0.2	177	-1.2	-1	2555	0.07	2981	6778	7	56579	
8.66921	-5.42883	0.117	280	-130	2552	1332	-0.0947164	-0.120347	0.00413358	-0.0780341	-0.0990774	0.0032856	-0.00131841	-0.00166481	-0.117	-0.0229682	-0.0413124	-6.88218e-05	-0.0293299	-0.0370678	0	-0.0293299	-0.0370678	0	0	0	-0.117305	0	0	-0.00301073	-0.293619	-0.370513	0.00767906	-0.117685	-0.16166	0.00406476	-0.165224	0.0229935	-0.104023	-0.0365214	0.00420779	0	0.500604	-0.0256615	3.68374	-0.00453786	-0.00418879	0	0.900999	0.783947	-1080	1080	-500	1700	-10	10	-10	-0	0	-0	250	1.2	0.2	177	-1.2	-1	2555	0.07	2981	6778	7	56579	
8.6792	-5.42887	0.118	280	-131	2552	1332	-0.0947507	-0.120412	0.00418592	-0.078981	-0.100281	0.00332744	-0.00131426	-0.00166015	-0.118	-0.0229321	-0.0412475	-6.47113e-05	-0.0292838	-0.0370095	0	-0.0292838	-0.0370095	0	0	0	-0.118304	0	0	-0.00300599	-0.293619	-0.37336	0.00767906	-0.117683	-0.161659	0.00412121	-0.165223	0.0229934	-0.104023	-0.036521	0.00424371	0	0.501666	-0.0256613	3.68379	-0.00471239	-0.00418879	0	0.901165	0.78405	-1080	1080	-500	1700	-10	10	-10	-0	0	-0	250	1.2	0.2	177	-1.2	-1	2555	0.07	2981	6778	7	56579	
8.68927	-5.42881	0.118	280	-130	2552	1333	-0.094699	-0.120318	0.00422365	-0.0799343	-0.101492	0.00336996	-0.00132017	-0.00166818	-0.118	-0.0229836	-0.0413402	-5.363e-05	-0.0293495	-0.0370926	0	-0.0293495	-0.0370926	0	0	0	-0.118306	0	0	-0.00301275	-0.293619	-0.370513	0.00767906	-0.117683	-0.161658	0.00417002	-0.165224	0.0229934	-0.104022	-0.0365215	0.00424376	0	0.502726	-0.0245919	3.68385	-0.00488692	-0.00401426	0	0.901331	0.784153	-1080	1080	-500	1700	-10	10	-10	-0	0	-0	250	1.2	0.2	177	-1.2	-1	2555	0.07	2981	6778	7	56579	
8.69922	-5.42881	0.118	280	-130	2552	1333	-0.0946982	-0.12028	0.0042238	-0.0808773	-0.10269	0.00341201	-0.00132081	-0.00166955	-0.118	-0.0229845	-0.0413782	-5.37781e-05	-0.0293566	-0.03713	0	-0.0293566	-0.03713	0	0	0	-0.118306	0	0	-0.00301347	-0.293619	-0.370513	0.00767906	-0.117683	-0.161658	0.00417002	-0.165224	0.0229934	-0.104022	-0.0365216	0.00424376	0	0.502722	-0.0245917	3.6839	-0.00488692	-0.00401426	0	0.901496	0.784256	-1080	1080	-500	1700	-10	10	-10	-0	0	-0	250	1.2	0.2	177	-1.2	-1	2555	0.07	2981	6778	7	56579	
8.70918	-5.42879	0.118	280	-130	2552	1333	-0.0946901	-0.120265	0.00422383	-0.0818201	-0.103887	0.00345407	-0.00132176	-0.00167161	-0.118	-0.0229928	-0.0413931	-5.37975e-05	-0.0293672	-0.0371434	0	-0.0293672	-0.0371434	0	0	0	-0.118306	0	0	-0.00301455	-0.293619	-0.370513	0.00767906	-0.117683	-0.161658	0.00417003	-0.165224	0.0229933	-0.104022	-0.0365217	0.00424377	0	0.502722	-0.0245917	3.6839	-0.00488692	-0.00401426	0	0.901745	0.784411	-1080	1080	-500	1700	-10	10	-10	-0	0	-0	250	1.2	0.2	177	-1.2	-1	2555	0.07	2981	6778	7	56579	
8.71917	-5.42881	0.119	280	-130	2552	1334	-0.0947148	-0.120275	0.00427639	-0.0827663	-0.105089	0.00349679	-0.0013193	-0.00167191	-0.119	-0.0229668	-0.0413827	-4.98741e-05	-0.0293398	-0.0371373	0	-0.0293398	-0.0371373	0	0	0	-0.119308	0	0	-0.0030402	-0.293619	-0.370513	0.00767906	-0.117682	-0.161658	0.00422651	-0.165223	0.0229932	-0.104021	-0.0365215	0.00427971	0	0.503788	-0.0245917	3.6839	-0.00506145	-0.00401426	0	0.902739	0.785026	-1080	1080	-500	1700	-10	10	-10	-0	0	-0	250	1.2	0.2	177	-1.2	-1	2555	0.07	2981	6778	7	56579	
8.72907	-5.42882	0.119	280	-131	2552	1333	-0.0947075	-0.120337	0.00431362	-0.0837039	-0.10628	0.0035395	-0.00131893	-0.00166718	-0.119	-0.0229728	-0.0413208	-3.8374e-05	-0.0293357	-0.0370752	0	-0.0293357	-0.0370752	0	0	0	-0.119305	0	0	-0.00301133	-0.293619	-0.37336	0.00767906	-0.11768	-0.161657	0.00427525	-0.165223	0.0229933	-0.104022	-0.0365213	0.0042797	0	0.504848	-0.0235222	3.68396	-0.00523599	-0.00383972	0	0.901496	0.784256	-1080	1080	-500	1700	-10	10	-10	-0	0	-0	250	1.2	0.2	177	-1.2	-1	2555	0.07	2981	6778	7	56579	
8.73922	-5.42879	0.119	280	-130	2552	1334	-0.094694	-0.120275	0.00431381	-0.0846649	-0.107501	0.00358328	-0.00132107	-0.00167302	-0.119	-0.0229868	-0.0413824	-3.85371e-05	-0.0293595	-0.0371337	0	-0.0293595	-0.0371337	0	0	0	-0.119308	0	0	-0.00304224	-0.293619	-0.370513	0.00767906	-0.117681	-0.161657	0.00427528	-0.165223	0.0229932	-0.104021	-0.0365216	0.00427972	0	0.504844	-0.0235221	3.68401	-0.00523599	-0.00383972	0	0.902408	0.784821	-1080	1080	-500	1700	-10	10	-10	-0	0	-0	250	1.2	0.2	177	-1.2	-1	2555	0.07	2981	6778	7	56579	
8.74919	-5.42886	0.12	280	-131	2552	1332	-0.0947168	-0.12041	0.00434931	-0.0856096	-0.108702	0.00362666	-0.00131532	-0.0016612	-0.12	-0.0229341	-0.0412681	-3.83745e-05	-0.0292955	-0.0370243	0	-0.0292955	-0.0370243	0	0	0	-0.120304	0	0	-0.0030072	-0.293619	-0.37336	0.00767906	-0.117651	-0.161678	0.00431093	-0.165222	0.0229932	-0.104022	-0.0365208	0.00431562	0	0.504844	-0.023522	3.68401	-0.00523599	-0.00383972	0	0.901082	0.783999	-1080	1080	-500	1700	-10	10	-10	-0	0	-0	250	1.2	0.2	177	-1.2	-1	2555	0.07	2966	6742	7	56579	
8.75914	-5.4288	0.121	280	-131	2552	1332	-0.0946378	-0.120321	0.00442275	-0.0865513	-0.109899	0.00367066	-0.00132189	-0.00167007	-0.121	-0.0229841	-0.0413751	-2.72907e-05	-0.0293686	-0.0371167	0	-0.0293686	-0.0371167	0	0	0	-0.121306	0	0	-0.0030147	-0.293619	-0.37336	0.00767906	-0.117622	-0.161697	0.00439546	-0.165222	0.0229931	-0.104021	-0.0365212	0.00435161	0	0.505906	-0.0224527	3.68406	-0.00541052	-0.00366519	0	0.901248	0.784102	-1080	1080	-500	1700	-10	10	-10	-0	0	-0	250	1.2	0.2	177	-1.2	-1	2555	0.07	2966	6742	7	56579	
8.76918	-5.42879	0.121	280	-131	2552	1333	-0.0946129	-0.120295	0.00446023	-0.0875011	-0.111106	0.00371544	-0.00132279	-0.00167177	-0.121	-0.02298	-0.0414213	-1.62416e-05	-0.0293786	-0.0371578	0	-0.0293786	-0.0371578	0	0	0	-0.121306	0	0	-0.00301573	-0.293619	-0.37336	0.00767906	-0.117593	-0.161716	0.00444399	-0.165222	0.0229931	-0.104021	-0.0365213	0.00435162	0	0.506964	-0.0213832	3.68414	-0.00558505	-0.00349066	0	0.901414	0.784205	-1080	1080	-500	1700	-10	10	-10	-0	0	-0	250	1.2	0.2	177	-1.2	-1	2555	0.07	2966	6742	7	56579	
8.7811	-5.42879	0.121	280	-131	2552	1334	-0.0946332	-0.120258	0.00446047	-0.0886287	-0.112539	0.00376859	-0.00132155	-0.00167362	-0.121	-0.02296	-0.0414581	-1.64816e-05	-0.0293648	-0.0371973	0	-0.0293648	-0.0371973	0	0	0	-0.121308	0	0	-0.00304279	-0.293619	-0.37336	0.00767906	-0.117593	-0.161716	0.00444399	-0.165222	0.022993	-0.10402	-0.0365213	0.00435162	0	0.50696	-0.0213831	3.68419	-0.00558505	-0.00349066	0	0.902408	0.784821	-1080	1080	-500	1700	-10	10	-10	-0	0	-0	250	1.2	0.2	177	-1.2	-1	2555	0.07	2966	6742	7	56579	
8.78907	-5.42881	0.123	280	-131	2552	1332	-0.0946141	-0.120316	0.00451552	-0.0893833	-0.113499	0.0038046	-0.00132068	-0.00166853	-0.123	-0.0229498	-0.0414203	-2.04122e-05	-0.0293551	-0.0371566	0	-0.0293551	-0.0371566	0	0	0	-0.123306	0	0	-0.00301332	-0.293619	-0.37336	0.00767906	-0.117564	-0.161736	0.00449511	-0.16522	0.0229929	-0.10402	-0.0365208	0.00442349	0	0.505895	-0.0213831	3.68419	-0.00541052	-0.00349066	0	0.901248	0.784102	-1080	1080	-500	1700	-10	10	-10	-0	0	-0	250	1.2	0.2	177	-1.2	-1	2555	0.07	2966	6742	7	56579	
8.80248	-5.42832	0.125	279	-130	2552	1333	-0.0941814	-0.119486	0.00460921	-0.0906461	-0.115101	0.0038664	-0.00137192	-0.00173445	-0.125	-0.0233861	-0.0422448	-1.35567e-05	-0.0299192	-0.0378996	0	-0.0299192	-0.0378996	0	0	0	-0.125318	0	0	-0.00307122	-0.29077	-0.370513	0.00767906	-0.117567	-0.161731	0.00459565	-0.165224	0.0229929	-0.104011	-0.0365248	0.00449577	0	0.505889	-0.0203137	3.68426	-0.00541052	-0.00331613	0	0.901579	0.784308	-1080	1080	-500	1700	-10	10	-10	-0	0	-0	250	1.2	0.2	177	-1.2	-1	2555	0.07	2966	6742	7	56579	
8.80916	-5.42884	0.126	280	-131	2552	1333	-0.0946611	-0.120327	0.00464902	-0.0912785	-0.115905	0.00389746	-0.00131619	-0.00166541	-0.126	-0.0229016	-0.0414059	-1.01667e-05	-0.0293052	-0.0371502	0	-0.0293052	-0.0371502	0	0	0	-0.126305	0	0	-0.00300819	-0.293619	-0.37336	0.00767906	-0.117563	-0.161733	0.00463885	-0.165218	0.0229926	-0.104019	-0.0365201	0.0045313	0	0.504814	-0.0192442	3.68437	-0.00523599	-0.00314159	0	0.901994	0.784565	-1080	1080	-500	1700	-10	10	-10	-0	0	-0	250	1.2	0.2	177	-1.2	-1	2555	0.07	2966	6742	7	56579	
8.81932	-5.42796	0.126	279	-129	2552	1334	-0.0939071	-0.118893	0.00465028	-0.0922328	-0.117113	0.00394472	-0.00140878	-0.0017844	-0.126	-0.0236645	-0.0428329	-1.06553e-05	-0.0302891	-0.0384348	0	-0.0302891	-0.0384348	0	0	0	-0.126326	0	0	-0.00311221	-0.29077	-0.367666	0.00767906	-0.117572	-0.161726	0.00463962	-0.165226	0.0229929	-0.104004	-0.0365278	0.00453201	0	0.50481	-0.019244	3.68442	-0.00523599	-0.00314159	0	0.902491	0.784873	-1080	1080	-500	1700	-10	10	-10	-0	0	-0	250	1.2	0.2	177	-1.2	-1	2555	0.07	2966	6742	7	56579	
8.82925	-5.42878	0.128	280	-130	2552	1335	-0.0946582	-0.120201	0.00472134	-0.0931724	-0.118306	0.00399158	-0.00132052	-0.00167724	-0.128	-0.0229044	-0.0415301	-1.0542e-05	-0.0293281	-0.0372723	0	-0.0293281	-0.0372723	0	0	0	-0.128308	0	0	-0.00304193	-0.293619	-0.370513	0.00767906	-0.117563	-0.161731	0.0047108	-0.165218	0.0229923	-0.104017	-0.0365204	0.00460324	0	0.50481	-0.019244	3.68442	-0.00523599	-0.00314159	0	0.903834	0.785705	-1080	1080	-500	1700	-10	10	-10	-0	0	-0	250	1.2	0.2	177	-1.2	-1	2555	0.07	2966	6742	7	56579	
8.8392	-5.42875	0.128	280	-131	2552	1334	-0.094634	-0.120218	0.00470466	-0.0941142	-0.119503	0.0040384	-0.00132479	-0.00167987	-0.128	-0.0229296	-0.0415125	-1.43572e-05	-0.02935	-0.0372509	0	-0.02935	-0.0372509	0	0	0	-0.128307	0	0	-0.00301865	-0.293619	-0.37336	0.00767906	-0.117564	-0.161731	0.0046903	-0.165218	0.0229924	-0.104016	-0.0365207	0.00460327	0	0.503737	-0.0192438	3.68451	-0.00506145	-0.00314159	0	0.903031	0.785207	-1080	1080	-500	1700	-10	10	-10	-0	0	-0	250	1.2	0.2	177	-1.2	-1	2555	0.07	2966	6742	7	56579	
8.84931	-5.42873	0.129	280	-131	2552	1336	-0.0946116	-0.120194	0.00476156	-0.0950705	-0.120718	0.00408653	-0.0013249	-0.00168474	-0.129	-0.0229237	-0.0415554	-7.26926e-06	-0.0293576	-0.0372891	0	-0.0293576	-0.0372891	0	0	0	-0.129309	0	0	-0.00304796	-0.293619	-0.37336	0.00767906	-0.117535	-0.161749	0.00475429	-0.165218	0.0229922	-0.104015	-0.0365207	0.00463922	0	0.503739	-0.0181747	3.68449	-0.00506145	-0.00296706	0	0.904396	0.786052	-1080	1080	-500	1700	-10	10	-10	-0	0	-0	250	1.2	0.2	177	-1.2	-1	2555	0.07	2966	6742	7	56579	
8.85917	-5.42879	0.129	280	-131	2552	1336	-0.0946561	-0.120276	0.00476149	-0.0960041	-0.121904	0.0041335	-0.00131913	-0.00167699	-0.129	-0.0228786	-0.0414737	-7.25497e-06	-0.0292999	-0.0372158	0	-0.0292999	-0.0372158	0	0	0	-0.129308	0	0	-0.00304196	-0.293619	-0.37336	0.00767906	-0.117535	-0.16175	0.00475424	-0.165217	0.0229922	-0.104016	-0.0365202	0.00463918	0	0.503733	-0.0181745	3.68456	-0.00506145	-0.00296706	0	0.904276	0.785978	-1080	1080	-500	1700	-10	10	-10	-0	0	-0	250	1.2	0.2	177	-1.2	-1	2555	0.07	2966	6742	7	56579	
8.8691	-5.42876	0.129	280	-131	2552	1336	-0.0946257	-0.12022	0.00476153	-0.0969436	-0.123098	0.00418077	-0.00132209	-0.00168034	-0.129	-0.0229092	-0.0415293	-7.26469e-06	-0.0293392	-0.0372656	0	-0.0293392	-0.0372656	0	0	0	-0.129309	0	0	-0.00304604	-0.293619	-0.37336	0.00767906	-0.117535	-0.16175	0.00475426	-0.165217	0.0229922	-0.104016	-0.0365205	0.0046392	0	0.503733	-0.0181745	3.68456	-0.00506145	-0.00296706	0	0.904156	0.785904	-1080	1080	-500	1700	-10	10	-10	-0	0	-0	250	1.2	0.2	177	-1.2	-1	2555	0.07	2966	6742	7	56579	
8.8792	-5.42879	0.129	280	-131	2552	1335	-0.0946234	-0.120272	0.00479885	-0.0978991	-0.124312	0.00422923	-0.00131923	-0.00167628	-0.129	-0.0228821	-0.0414972	3.9294e-06	-0.0293137	-0.0372333	0	-0.0293137	-0.0372333	0	0	0	-0.129309	0	0	-0.00304339	-0.293619	-0.37336	0.00767906	-0.117505	-0.16177	0.00480278	-0.165217	0.0229922	-0.104016	-0.0365202	0.00463918	0	0.504799	-0.0171054	3.68456	-0.00523599	-0.00279253	0	0.904036	0.785829	-1080	1080	-500	1700	-10	10	-10	-0	0	-0	250	1.2	0.2	177	-1.2	-1	2555	0.07	2966	6742	7	56579	
8.8891	-5.42883	0.129	280	-131	2552	1335	-0.0946482	-0.120318	0.00479882	-0.0988365	-0.125504	0.00427675	-0.00131576	-0.00167146	-0.129	-0.0228569	-0.0414516	3.92508e-06	-0.0292815	-0.0371923	0	-0.0292815	-0.0371923	0	0	0	-0.129308	0	0	-0.00304005	-0.293619	-0.37336	0.00767906	-0.117505	-0.16177	0.00480274	-0.165217	0.0229922	-0.104017	-0.0365199	0.00463915	0	0.504795	-0.0171053	3.68461	-0.00523599	-0.00279253	0	0.903915	0.785755	-1080	1080	-500	1700	-10	10	-10	-0	0	-0	250	1.2	0.2	177	-1.2	-1	2555	0.07	2966	6742	7	56579	
8.89927	-5.4293	0.129	280	-132	2552	1335	-0.0950824	-0.121107	0.00481964	-0.0998028	-0.126734	0.00432574	-0.0012653	-0.00160763	-0.129	-0.022418	-0.0406653	1.09201e-05	-0.0287207	-0.0364877	0	-0.0287207	-0.0364877	0	0	0	-0.129294	0	0	-0.00295681	-0.293619	-0.376207	0.00767906	-0.1175	-0.161772	0.00483056	-0.165213	0.022992	-0.104025	-0.0365157	0.00463876	0	0.504795	-0.0160362	3.68461	-0.00523599	-0.00261799	0	0.903997	0.785805	-1080	1080	-500	1700	-10	10	-10	-0	0	-0	250	1.2	0.2	177	-1.2	-1	2555	0.07	2966	6742	7	56579	
8.90927	-5.42879	0.129	280	-131	2552	1335	-0.0946006	-0.120239	0.00480329	-0.100749	-0.127937	0.00437377	-0.00132008	-0.00167543	-0.129	-0.0229056	-0.0415299	7.21162e-06	-0.0293422	-0.0372617	0	-0.0293422	-0.0372617	0	0	0	-0.129309	0	0	-0.00304339	-0.293619	-0.37336	0.00767906	-0.117506	-0.161769	0.0048105	-0.165217	0.0229922	-0.104017	-0.0365202	0.00463918	0	0.503727	-0.0160361	3.68464	-0.00506145	-0.00261799	0	0.903473	0.785481	-1080	1080	-500	1700	-10	10	-10	-0	0	-0	250	1.2	0.2	177	-1.2	-1	2555	0.07	2966	6742	7	56579	
8.91925	-5.42962	0.128	281	-132	2552	1334	-0.0953587	-0.121624	0.00478811	-0.101701	-0.129151	0.00442156	-0.00123315	-0.00156289	-0.128	-0.0221398	-0.040151	1.39532e-05	-0.0283627	-0.0360254	0	-0.0283627	-0.0360254	0	0	0	-0.128284	0	0	-0.00288956	-0.296467	-0.376207	0.00767906	-0.117499	-0.161775	0.00480206	-0.16521	0.022992	-0.104032	-0.0365131	0.00460256	0	0.503729	-0.0149671	3.68462	-0.00506145	-0.00244346	0	0.902785	0.785055	-1080	1080	-500	1700	-10	10	-10	-0	0	-0	250	1.2	0.2	177	-1.2	-1	2555	0.07	2966	6742	7	56579	
8.92921	-5.42876	0.128	280	-131	2552	1334	-0.0945654	-0.120146	0.0047884	-0.102643	-0.130347	0.00446926	-0.00132406	-0.00167908	-0.128	-0.0229416	-0.0416219	1.44177e-05	-0.0293927	-0.0373467	0	-0.0293927	-0.0373467	0	0	0	-0.128306	0	0	-0.00301718	-0.293619	-0.37336	0.00767906	-0.117507	-0.161768	0.00480282	-0.165218	0.0229924	-0.104017	-0.0365206	0.00460326	0	0.50373	-0.0149672	3.6846	-0.00506145	-0.00244346	0	0.903069	0.785231	-1080	1080	-500	1700	-10	10	-10	-0	0	-0	250	1.2	0.2	177	-1.2	-1	2555	0.07	2966	6742	7	56579	
8.93924	-5.42879	0.128	280	-131	2552	1336	-0.094594	-0.120134	0.00475108	-0.103591	-0.131552	0.00451691	-0.00131925	-0.0016781	-0.128	-0.0229142	-0.0416351	2.9805e-06	-0.0293677	-0.0373641	0	-0.0293677	-0.0373641	0	0	0	-0.128308	0	0	-0.00304014	-0.293619	-0.37336	0.00767906	-0.117508	-0.161769	0.00475406	-0.165218	0.0229922	-0.104017	-0.0365204	0.00460324	0	0.502664	-0.0160362	3.6846	-0.00488692	-0.00261799	0	0.904554	0.786149	-1080	1080	-500	1700	-10	10	-10	-0	0	-0	250	1.2	0.2	177	-1.2	-1	2555	0.07	2966	6742	7	56579	
8.94933	-5.42877	0.128	280	-131	2552	1336	-0.0945651	-0.120136	0.00475094	-0.104545	-0.132764	0.00456483	-0.00132046	-0.00167985	-0.128	-0.0229149	-0.0416537	2.93554e-06	-0.029378	-0.0373772	0	-0.029378	-0.0373772	0	0	0	-0.128308	0	0	-0.0030412	-0.293619	-0.37336	0.00767906	-0.11748	-0.161789	0.00475388	-0.165218	0.0229922	-0.104016	-0.0365205	0.00460325	0	0.502668	-0.0160363	3.68456	-0.00488692	-0.00261799	0	0.904613	0.786186	-1080	1080	-500	1700	-10	10	-10	-0	0	-0	250	1.2	0.2	177	-1.2	-1	2555	0.07	2966	6742	7	56579	
8.95926	-5.42875	0.129	280	-131	2552	1336	-0.0945477	-0.120103	0.00474944	-0.105484	-0.133957	0.004612	-0.00132281	-0.00168304	-0.129	-0.0229328	-0.0416862	-8.34029e-06	-0.0294009	-0.0374064	0	-0.0294009	-0.0374064	0	0	0	-0.129309	0	0	-0.00304358	-0.293619	-0.37336	0.00767906	-0.117481	-0.161789	0.0047411	-0.165218	0.0229921	-0.104015	-0.0365206	0.00463921	0	0.501602	-0.0171054	3.68456	-0.00471239	-0.00279253	0	0.904673	0.786223	-1080	1080	-500	1700	-10	10	-10	-0	0	-0	250	1.2	0.2	177	-1.2	-1	2555	0.07	2966	6742	7	56579	
8.96907	-5.42875	0.129	280	-131	2552	1336	-0.0945525	-0.120112	0.00474943	-0.106412	-0.135136	0.00465862	-0.00132254	-0.0016829	-0.129	-0.022928	-0.0416774	-8.33854e-06	-0.0293948	-0.0373985	0	-0.0293948	-0.0373985	0	0	0	-0.129308	0	0	-0.00304294	-0.293619	-0.37336	0.00767906	-0.117481	-0.161789	0.0047411	-0.165218	0.0229921	-0.104016	-0.0365206	0.00463921	0	0.501603	-0.0171054	3.68456	-0.00471239	-0.00279253	0	0.904733	0.78626	-1080	1080	-500	1700	-10	10	-10	-0	0	-0	250	1.2	0.2	177	-1.2	-1	2555	0.07	2966	6742	7	56579	
8.97927	-5.42873	0.129	280	-131	2552	1336	-0.0945171	-0.120101	0.00471186	-0.107376	-0.136361	0.00470669	-0.00132462	-0.00168576	-0.129	-0.0229364	-0.0417097	-1.96726e-05	-0.0294148	-0.0374239	0	-0.0294148	-0.0374239	0	0	0	-0.129309	0	0	-0.00304501	-0.293619	-0.37336	0.00767906	-0.117453	-0.161811	0.00469218	-0.165218	0.0229921	-0.104015	-0.0365208	0.00463922	0	0.500537	-0.0181745	3.68456	-0.00453786	-0.00296706	0	0.904793	0.786297	-1080	1080	-500	1700	-10	10	-10	-0	0	-0	250	1.2	0.2	177	-1.2	-1	2555	0.07	2966	6742	7	56579	
8.98924	-5.42876	0.129	280	-131	2552	1336	-0.0945428	-0.120148	0.00471181	-0.108318	-0.137558	0.00475362	-0.00132191	-0.00168252	-0.129	-0.0229105	-0.0416626	-1.96503e-05	-0.0293815	-0.0373817	0	-0.0293815	-0.0373817	0	0	0	-0.129308	0	0	-0.00304157	-0.293619	-0.37336	0.00767906	-0.117453	-0.161811	0.00469216	-0.165218	0.0229921	-0.104016	-0.0365205	0.0046392	0	0.500541	-0.0181746	3.68452	-0.00453786	-0.00296706	0	0.904852	0.786334	-1080	1080	-500	1700	-10	10	-10	-0	0	-0	250	1.2	0.2	177	-1.2	-1	2555	0.07	2949	6705	7	56579	
8.99931	-5.42872	0.129	280	-131	2552	1337	-0.0945251	-0.120076	0.00469547	-0.109271	-0.138768	0.00480093	-0.00132495	-0.00168916	-0.129	-0.0229297	-0.0417341	-2.37772e-05	-0.0294121	-0.0374491	0	-0.0294121	-0.0374491	0	0	0	-0.129311	0	0	-0.00307322	-0.293619	-0.37336	0.00767906	-0.117455	-0.16181	0.0046717	-0.165218	0.0229921	-0.104015	-0.0365209	0.00463924	0	0.499475	-0.0181746	3.68452	-0.00436332	-0.00296706	0	0.90565	0.786827	-1080	1080	-500	1700	-10	10	-10	-0	0	-0	250	1.2	0.2	177	-1.2	-1	2555	0.07	2949	6705	7	56579	
