time ;e1;e2;ctrlpitch;ctrlroll;ctrlthrust;ctrlyaw;edx;edy;edz;cumulx;cumuly;cumulz;x_pred;y_pred;z_pred;dxr_pred;dyr_pred;dzr_pred;dxrT;dyrT;dzrT;dxrUn;dyrUn;dzrUn;x;y;z;dx;dy;dz;ux;uy;uz;dxd;dyd;dzd;Perpx;Tangx;Perpy;Tangy;Perpz;Tanz;ax;ay;az;pitch;roll;yaw;yawd;eyaw;kpvx;kpvy;kpvz;kpyaw;kivx;kivy;kivz;kdvx;kdvy;kdvz;kdyaw;ktg;veld;pitchoff;ke1;ke2;gravity;thr_vel;gps_accuracy;height_accuracy;gps_sat_num;gps_status
19,1131;-5,44133;0,008;50;-50;1450;0;0,00349622;-0,199961;-0,00181911;1,84006e-05;-0,0010524;-9,57396e-06;0;0;-0,008;0;0;0;0;0;0;0;0;0;0;0;-0,008;0;0;0;0,205665;-0,0810057;2,82845;0,00349622;-0,199961;-0,00181911;-0,16515;0,0229931;-0,104261;-0,0364211;0,000287145;0;0;-0;9,81;-0,00349066;-0,010472;0;0;0;-1080;1080;-500;1700;-10;10;-10;-0;0;-0;250;1,2;0,2;177;-1,2;-1;2555;0,07;2132;4961;8;56579;
19,1178;-5,44133;0,008;100;-100;1500;0;0,00349627;-0,199961;-0,00178482;3,49345e-05;-0,00199801;-1,80144e-05;0;0;-0,008;0;0;0;0;0;0;0;0;0;0;0;-0,008;0;0;0;0,129036;-0,167558;2,70047;0,00349627;-0,199961;-0,00178482;-0,16515;0,0229931;-0,104261;-0,0364211;0,000287145;0;0,495855;-0,0631576;3,67657;-0,00366519;-0,0102974;0;0;0;-1080;1080;-500;1700;-10;10;-10;-0;0;-0;250;1,2;0,2;177;-1,2;-1;2555;0,07;2132;4961;8;56579;
19,1277;-5,44133;0,007;150;-150;1550;0;0,00158248;-0,200845;-0,00182252;5,06058e-05;-0,00398699;-3,60628e-05;0;0;-0,007;0,00191362;0,000884321;2,4264e-06;0,00196141;-0,000772543;0;0,00196141;-0,000772543;0;0;0;-0,007;0;0;0,0269747;0,0467625;-0,259612;2,57249;0,0034961;-0,199961;-0,0018201;-0,16515;0,0229931;-0,104261;-0,0364211;0,000251252;0;0,494785;-0,0631571;3,67661;-0,00349066;-0,0102974;0;0;0;-1080;1080;-500;1700;-10;10;-10;-0;0;-0;250;1,2;0,2;177;-1,2;-1;2555;0,07;2132;4961;8;56579;
19,1377;-5,4414;0,007;177;-200;1600;50;-0,0002066;-0,200594;-0,00177868;4,85354e-05;-0,00599714;-5,3887e-05;1,66756e-05;-6,56803e-06;-0,007;0,00370032;0,000632665;-6,51262e-06;0,00301382;-0,00223819;0;0,00301382;-0,00223819;0;0;0;-0,00677067;0;0;0,0497852;0;-0,357117;2,4445;0,00349372;-0,199962;-0,00178519;-0,165151;0,0229925;-0,10426;-0,0364209;0,000251249;0;0,494789;-0,0620872;3,67656;-0,00349066;-0,0101229;0;2,76638;0,36647;-1080;1080;-500;1700;-10;10;-10;-0;0;-0;250;1,2;0,2;177;-1,2;-1;2555;0,07;2132;4961;8;56579;
19,1478;-5,44147;0,007;179;-215;1650;100;-0,00214564;-0,199289;-0,00175871;2,68537e-05;-0,00801096;-7,16587e-05;4,30896e-05;-2,62803e-05;-0,007;0,00563415;-0,000672212;-2,64729e-05;0,0034064;-0,00453791;0;0,0034064;-0,00453791;0;0;0;-0,00633357;0;0;0,072344;-0,00368745;-0,395819;2,31652;0,0034885;-0,199962;-0,00178518;-0,165153;0,0229914;-0,104256;-0,036421;0,000251246;0;0,494785;-0,0620866;3,67661;-0,00349066;-0,0101229;0;2,59393;0,520696;-1080;1080;-500;1700;-10;10;-10;-0;0;-0;250;1,2;0,2;177;-1,2;-1;2555;0,07;2132;4961;8;56579;
19,1577;-5,4415;0,006;181;-212;1700;150;-0,00451258;-0,197067;-0,00179903;-1,76674e-05;-0,00995522;-8,94079e-05;7,44793e-05;-6,76856e-05;-0,006;0,00799195;-0,00289417;-5,63074e-05;0,00342883;-0,00777777;0;0,00342883;-0,00777777;0;0;0;-0,00467021;0;0;0,094793;-0,00759838;-0,40214;2,18853;0,00347936;-0,199961;-0,00185533;-0,165158;0,0229897;-0,104249;-0,0364218;0,000215353;0;0,493716;-0,0631568;3,67664;-0,00331613;-0,0102974;0;2,40395;0,672548;-1080;1080;-500;1700;-10;10;-10;-0;0;-0;250;1,2;0,2;177;-1,2;-1;2555;0,07;2132;4961;8;56579;
19,1705;-5,44143;0,006;184;-210;1750;200;-0,00708671;-0,19458;-0,00176611;-0,00010837;-0,0124456;-0,000112012;0,000105527;-0,000137894;-0,006;0,0105526;-0,00538179;-8,85746e-05;0,00339935;-0,0113479;0;0,00339935;-0,0113479;0;0;0;-0,00381345;0;0;0,11574;-0,0136882;-0,410073;2,06055;0,00346592;-0,199961;-0,00185468;-0,165165;0,0229874;-0,104237;-0,0364239;0,000215356;0;0,492653;-0,0631573;3,67659;-0,00314159;-0,0102974;0;2,224;0,794139;-1080;1080;-500;1700;-10;10;-10;-0;0;-0;250;1,2;0,2;177;-1,2;-1;2555;0,07;2132;4961;8;56579;
19,1778;-5,44125;0,004;187;-207;1800;250;-0,00966473;-0,192035;-0,0018388;-0,000178874;-0,0138465;-0,000125426;0,000135922;-0,000239664;-0,004;0,0131122;-0,00792537;-0,000121904;0,00332861;-0,0149558;0;0,00332861;-0,0149558;0;0;0;-0,000776573;0;0;0,135337;-0,0201133;-0,41578;1,93256;0,00344743;-0,199961;-0,00196071;-0,165175;0,0229846;-0,104221;-0,0364273;0,000143575;0;0,491582;-0,0642273;3,67663;-0,00296706;-0,010472;0;2,0867;0,869847;-1080;1080;-500;1700;-10;10;-10;-0;0;-0;250;1,2;0,2;177;-1,2;-1;2555;0,07;2132;4961;8;56579;
19,1878;-5,44094;0,004;190;-204;1850;300;-0,0127451;-0,189082;-0,00179872;-0,000305968;-0,0157321;-0,000143363;0,000175977;-0,000396986;-0,004;0,0161648;-0,0108793;-0,000161896;0,00330192;-0,0192038;0;0,00330192;-0,0192038;0;0;0;0,000711433;0;0;0,158492;-0,0268735;-0,421153;1,80458;0,00341979;-0,199961;-0,00196062;-0,16519;0,0229804;-0,104196;-0,0364327;0,000143583;0;0,491589;-0,0642283;3,67654;-0,00296706;-0,010472;0;1,98805;0,914205;-1080;1080;-500;1700;-10;10;-10;-0;0;-0;250;1,2;0,2;177;-1,2;-1;2555;0,07;2132;4961;8;56579;
19,1979;-5,44055;0,003;193;-201;1900;350;-0,0148914;-0,186674;-0,00180303;-0,000456401;-0,0176179;-0,000161578;0,000195018;-0,000542735;-0,003;0,018287;-0,0132868;-0,000193406;0,00302733;-0,0224014;0;0,00302733;-0,0224014;0;0;0;0,00283414;0;0;0,171393;-0,033969;-0,426191;1,67659;0,00339555;-0,199961;-0,00199644;-0,165204;0,022977;-0,104173;-0,0364383;0,000107694;0;0,491586;-0,0642278;3,67659;-0,00296706;-0,010472;0;1,91575;0,94109;-1080;1080;-500;1700;-10;10;-10;-0;0;-0;250;1,2;0,2;177;-1,2;-1;2555;0,07;2132;4961;8;56579;
19,2079;-5,44063;0,002;197;-199;1950;400;-0,0192881;-0,184741;-0,00184125;-0,000650112;-0,0194732;-0,000180069;0,000370981;-0,000800789;-0,002;0,0226292;-0,0152208;-0,000225251;0,0046289;-0,0268771;0;0,0046289;-0,0268771;0;0;0;0,00529387;0;0;0,186601;-0,0435784;-0,433065;1,54861;0,00334106;-0,199961;-0,0020665;-0,165232;0,0229669;-0,104128;-0,036444;7,17953e-05;0;0,490519;-0,0652982;3,67658;-0,00279253;-0,0106465;0;2,00463;0,907361;-1080;1080;-500;1700;-10;10;-10;-0;0;-0;250;1,2;0,2;177;-1,2;-1;2555;0,07;2132;4961;8;56579;
19,2178;-5,43887;0,001;198;-194;2000;450;-0,0202057;-0,179961;-0,0018551;-0,000850269;-0,0212559;-0,000198446;0,000191715;-0,00104448;-0,001;0,0235235;-0,0200001;-0,000282125;0,00179124;-0,0308258;0;0,00179124;-0,0308258;0;0;0;0,00589003;0;0;0,175871;-0,0469305;-0,433037;1,42063;0,00331786;-0,199961;-0,00213723;-0,165249;0,0229673;-0,104097;-0,0364595;3,59087e-05;0;0,490523;-0,0663692;3,67654;-0,00279253;-0,010821;0;1,75233;0,983569;-1080;1080;-500;1700;-10;10;-10;-0;0;-0;250;1,2;0,2;177;-1,2;-1;2555;0,07;2132;4961;8;56579;
19,2277;-5,43696;0,001;201;-189;2050;500;-0,0222775;-0,17481;-0,00179356;-0,00107064;-0,0229851;-0,000216188;4,78497e-05;-0,00138997;-0,001;0,0255536;-0,0251518;-0,000343542;-0,000530918;-0,035853;0;-0,000530918;-0,035853;0;0;0;0,00615198;0;0;0,173409;-0,0549755;-0,432449;1,29264;0,00327607;-0,199962;-0,0021371;-0,165275;0,0229646;-0,104048;-0,0364782;3,59208e-05;0;0,490524;-0,0663694;3,67652;-0,00279253;-0,010821;0;1,60521;0,999408;-1080;1080;-500;1700;-10;10;-10;-0;0;-0;250;1,2;0,2;177;-1,2;-1;2555;0,07;2132;4961;8;56579;
19,2377;-5,43529;0;203;-184;2100;550;-0,02471;-0,17055;-0,00175114;-0,00131752;-0,0246891;-0,000233683;-4,12533e-05;-0,00175212;-0;0,027937;-0,0294123;-0,000386294;-0,00196462;-0,0405198;0;-0,00196462;-0,0405198;0;0;0;0,00740551;0;0;0,17038;-0,0610092;-0,431303;1,16466;0,00322708;-0,199963;-0,00213743;-0,165305;0,0229601;-0,103996;-0,036496;0;0;0,489451;-0,0652981;3,67659;-0,00261799;-0,0106465;0;1,54726;0,999723;-1080;1080;-500;1700;-10;10;-10;-0;0;-0;250;1,2;0,2;177;-1,2;-1;2555;0,07;2132;4961;8;56579;
19,2478;-5,43489;-0,001;204;-183;2150;600;-0,0251371;-0,169341;-0,00177747;-0,00157198;-0,0264033;-0,000251677;-6,42072e-05;-0,0018346;0,001;0,0283531;-0,030621;-0,000395303;-0,00255104;-0,0416557;0;-0,00255104;-0,0416557;0;0;0;0,00790829;0;0;0,158456;-0,0648641;-0,439177;1,03667;0,00321607;-0,199962;-0,00217278;-0,165312;0,0229591;-0,103984;-0,0365001;-3,59338e-05;0;0,48838;-0,0652976;3,67664;-0,00244346;-0,0106465;0;1,53581;0,999388;-1080;1080;-500;1700;-10;10;-10;-0;0;-0;250;1,2;0,2;177;-1,2;-1;2555;0,07;2132;4961;8;56579;
19,2583;-5,43467;-0,003;204;-182;2200;650;-0,0250098;-0,168618;-0,00190082;-0,00183276;-0,0281615;-0,000271497;-8,94966e-05;-0,0018599;0,003;0,0282238;-0,031343;-0,000413616;-0,00316243;-0,0420611;0;-0,00316243;-0,0420611;0;0;0;0,00943799;0;0;0,14683;-0,0663726;-0,44694;0,908689;0,00321404;-0,199961;-0,00231444;-0,165313;0,0229594;-0,103981;-0,0365019;-0,000107805;0;0,488383;-0,0674388;3,67661;-0,00244346;-0,0109956;0;1,52271;0,998844;-1080;1080;-500;1700;-10;10;-10;-0;0;-0;250;1,2;0,2;177;-1,2;-1;2555;0,07;2132;4961;8;56579;
19,2679;-5,43443;-0,003;203;-181;2250;700;-0,024904;-0,167844;-0,00189257;-0,0020731;-0,0297814;-0,000289762;-0,000119038;-0,0018863;0,003;0,0281163;-0,0321172;-0,000421867;-0,00379648;-0,0425183;0;-0,00379648;-0,0425183;0;0;0;0,00897252;0;0;0,135259;-0,065367;-0,454591;0,780705;0,00321236;-0,199961;-0,00231444;-0,165315;0,0229597;-0,103977;-0,0365039;-0,00010781;0;0,488394;-0,0674404;3,67646;-0,00244346;-0,0109956;0;1,50777;0,998015;-1080;1080;-500;1700;-10;10;-10;-0;0;-0;250;1,2;0,2;177;-1,2;-1;2555;0,07;2132;4961;8;56579;
19,2778;-5,43412;-0,004;203;-180;2300;750;-0,0249646;-0,166938;-0,00192277;-0,00232118;-0,0314402;-0,000308868;-0,000150773;-0,00192804;0,004;0,028173;-0,0330229;-0,000427046;-0,00441213;-0,043185;0;-0,00441213;-0,043185;0;0;0;0,00956871;0;0;0,124379;-0,0668196;-0,462131;0,65272;0,00320842;-0,19996;-0,00234981;-0,165318;0,0229598;-0,103972;-0,0365066;-0,000143754;0;0,487327;-0,0674403;3,67647;-0,00226893;-0,0109956;0;1,49276;0,996956;-1080;1080;-500;1700;-10;10;-10;-0;0;-0;250;1,2;0,2;177;-1,2;-1;2555;0,07;2132;4961;8;56579;
19,2878;-5,43436;-0,005;202;-181;2350;800;-0,0240264;-0,167307;-0,00199829;-0,00255964;-0,0331007;-0,000328701;-0,0001698;-0,0018268;0,005;0,0272521;-0,0326525;-0,000421828;-0,00478062;-0,0422633;0;-0,00478062;-0,0422633;0;0;0;0,00978378;0;0;0,109213;-0,0656465;-0,474796;0,524736;0,00322564;-0,199959;-0,00242011;-0,165308;0,0229623;-0,103988;-0,0365029;-0,000179686;0;0,486262;-0,0685111;3,67644;-0,0020944;-0,0111701;0;1,47811;0,995708;-1080;1080;-500;1700;-10;10;-10;-0;0;-0;250;1,2;0,2;177;-1,2;-1;2555;0,07;2132;4961;8;56579;
19,2979;-5,43377;-0,005;203;-179;2400;850;-0,0247885;-0,165763;-0,00197946;-0,00281045;-0,0347779;-0,00034873;-0,000207755;-0,00194455;0,005;0,027999;-0,0341965;-0,000440639;-0,00538092;-0,0438701;0;-0,00538092;-0,0438701;0;0;0;0,00958113;0;0;0,100602;-0,0697248;-0,479551;0,396751;0,00321047;-0,19996;-0,0024201;-0,165318;0,0229611;-0,103971;-0,0365089;-0,000179704;0;0,48627;-0,0685122;3,67634;-0,0020944;-0,0111701;0;1,46436;0,994341;-1080;1080;-500;1700;-10;10;-10;-0;0;-0;250;1,2;0,2;177;-1,2;-1;2555;0,07;2132;4961;8;56579;
19,3079;-5,43356;-0,006;203;-178;2450;900;-0,0248915;-0,165097;-0,00197894;-0,00305862;-0,036424;-0,00036846;-0,000236023;-0,00196122;0,006;0,0281017;-0,0348622;-0,000442205;-0,00579124;-0,0444042;0;-0,00579124;-0,0444042;0;0;0;0,0101099;0;0;0,0889673;-0,0711774;-0,486812;0,268767;0,00321012;-0,19996;-0,00242115;-0,165318;0,0229616;-0,103969;-0,0365104;-0,000215653;0;0,486268;-0,0674415;3,67637;-0,0020944;-0,0109956;0;1,45103;0,992836;-1080;1080;-500;1700;-10;10;-10;-0;0;-0;250;1,2;0,2;177;-1,2;-1;2555;0,07;2132;4961;8;56579;
19,3178;-5,43343;-0,007;204;-178;2500;950;-0,0250285;-0,164557;-0,00204175;-0,00330825;-0,0380652;-0,000388824;-0,000253456;-0,00197282;0,007;0,0282382;-0,035402;-0,000449678;-0,00608719;-0,0448759;0;-0,00608719;-0,0448759;0;0;0;0,0106504;0;0;0,0774617;-0,0754234;-0,496747;0,140783;0,00320972;-0,199959;-0,00249143;-0,165319;0,0229618;-0,103968;-0,0365114;-0,000251601;0;0,485201;-0,0685119;3,67637;-0,00191986;-0,0111701;0;1,44302;0,991848;-1080;1080;-500;1700;-10;10;-10;-0;0;-0;250;1,2;0,2;177;-1,2;-1;2555;0,07;2132;4961;8;56579;
19,3278;-5,43328;-0,008;204;-177;2550;1000;-0,0251695;-0,163981;-0,00209963;-0,00355944;-0,0397018;-0,000409778;-0,000274235;-0,00198506;0,008;0,028379;-0,0359766;-0,000462647;-0,00640548;-0,0453747;0;-0,00640548;-0,0453747;0;0;0;0,0111854;0;0;0,0658994;-0,0769318;-0,503841;0,0127984;0,00320945;-0,199958;-0,00256228;-0,165319;0,0229622;-0,103967;-0,0365125;-0,000287551;0;0,485207;-0,0695832;3,67629;-0,00191986;-0,0113446;0;1,43352;0,990592;-1080;1080;-500;1700;-10;10;-10;-0;0;-0;250;1,2;0,2;177;-1,2;-1;2555;0,07;2132;4961;8;56579;
19,338;-5,43313;-0,009;204;-176;2556;1050;-0,0254649;-0,163328;-0,00213206;-0,00382003;-0,0413731;-0,000431596;-0,000289158;-0,0020083;0,009;0,0286719;-0,0366289;-0,000465605;-0,00667467;-0,0460372;0;-0,00667467;-0,0460372;0;0;0;0,01173;0;0;0,0544361;-0,0771128;-0,502179;-0,00255969;0,00320705;-0,199957;-0,00259767;-0,165321;0,0229622;-0,103964;-0,0365139;-0,000323504;0;0,484145;-0,069584;3,67622;-0,00174533;-0,0113446;0;1,4278;0,989793;-1080;1080;-500;1700;-10;10;-10;-0;0;-0;250;1,2;0,2;177;-1,2;-1;2555;0,07;2132;4961;8;56579;
19,3478;-5,43294;-0,009;205;-176;2556;1100;-0,0259406;-0,162597;-0,00212294;-0,00407404;-0,0429653;-0,000452384;-0,000298887;-0,00204803;0,009;0,0291423;-0,0373603;-0,000474724;-0,00687851;-0,0468826;0;-0,00687851;-0,0468826;0;0;0;0,011266;0;0;0,0428756;-0,0799687;-0,502179;-0,00255969;0,00320169;-0,199957;-0,00259767;-0,165324;0,0229617;-0,103958;-0,0365159;-0,000323514;0;0,484148;-0,0695845;3,67618;-0,00174533;-0,0113446;0;1,42588;0,989518;-1080;1080;-500;1700;-10;10;-10;-0;0;-0;250;1,2;0,2;177;-1,2;-1;2555;0,07;2132;4961;8;56579;
19,3579;-5,43275;-0,01;205;-175;2556;1150;-0,0264357;-0,161916;-0,00218319;-0,00433961;-0,0445919;-0,000474316;-0,000305582;-0,00209437;0,01;0,0296307;-0,0380409;-0,000484766;-0,00703318;-0,047706;0;-0,00703318;-0,047706;0;0;0;0,0118061;0;0;0,0324739;-0,0799687;-0,499331;-0,00255969;0,00319504;-0,199957;-0,00266795;-0,165328;0,0229609;-0,103951;-0,036518;-0,000359472;0;0,48308;-0,0706548;3,67619;-0,0015708;-0,0115192;0;1,42591;0,989523;-1080;1080;-500;1700;-10;10;-10;-0;0;-0;250;1,2;0,2;177;-1,2;-1;2555;0,07;2132;4961;8;56579;
19,3678;-5,43268;-0,011;205;-174;2556;1200;-0,026709;-0,161515;-0,00224229;-0,0046052;-0,046198;-0,000496613;-0,000306386;-0,00211598;0,011;0,0299007;-0,0384409;-0,000496508;-0,00713589;-0,0481775;0;-0,00713589;-0,0481775;0;0;0;0,0123378;0;0;0,0231771;-0,0799687;-0,496483;-0,00255969;0,00319169;-0,199956;-0,0027388;-0,16533;0,0229605;-0,103948;-0,036519;-0,000395424;0;0,483086;-0,0717262;3,67612;-0,0015708;-0,0116937;0;1,427;0,989679;-1080;1080;-500;1700;-10;10;-10;-0;0;-0;250;1,2;0,2;177;-1,2;-1;2555;0,07;2132;4961;8;56579;
19,3778;-5,43259;-0,011;206;-174;2556;1250;-0,0268635;-0,161186;-0,00223821;-0,00487263;-0,0478026;-0,000518895;-0,000311296;-0,00213357;0,011;0,0300528;-0,0387698;-0,000500594;-0,00726865;-0,0485148;0;-0,00726865;-0,0485148;0;0;0;0,0118986;0;0;0,0152104;-0,0828246;-0,496483;-0,00255969;0,00318936;-0,199956;-0,0027388;-0,165331;0,0229603;-0,103945;-0,0365198;-0,00039543;0;0,483091;-0,071727;3,67605;-0,0015708;-0,0116937;0;1,42591;0,989523;-1080;1080;-500;1700;-10;10;-10;-0;0;-0;250;1,2;0,2;177;-1,2;-1;2555;0,07;2132;4961;8;56579;
19,3877;-5,43239;-0,013;206;-174;2556;1300;-0,0272158;-0,16066;-0,00228013;-0,00514288;-0,0493979;-0,000541536;-0,000318206;-0,00218232;0,013;0,0303982;-0,0392951;-0,000495113;-0,00740969;-0,0491273;0;-0,00740969;-0,0491273;0;0;0;0,0135046;0;0;0,00858106;-0,0828246;-0,496483;-0,00255969;0,00318233;-0,199955;-0,00277524;-0,165335;0,0229595;-0,103938;-0,0365221;-0,000467343;0;0,482024;-0,0706564;3,67605;-0,00139626;-0,0115192;0;1,42601;0,989536;-1080;1080;-500;1700;-10;10;-10;-0;0;-0;250;1,2;0,2;177;-1,2;-1;2555;0,07;2132;4961;8;56579;
19,3978;-5,43226;-0,014;206;-173;2556;1350;-0,027268;-0,160317;-0,00228884;-0,00541684;-0,0510086;-0,000564532;-0,000330486;-0,00220423;0,014;0,0304479;-0,0396384;-0,000486904;-0,00762345;-0,0494004;0;-0,00762345;-0,0494004;0;0;0;0,014162;0;0;0,00326545;-0,0828246;-0,493635;-0,00255969;0,00317997;-0,199955;-0,00277574;-0,165337;0,0229595;-0,103935;-0,0365233;-0,000503304;0;0,480961;-0,0695865;3,676;-0,00122173;-0,0113446;0;1,42197;0,988946;-1080;1080;-500;1700;-10;10;-10;-0;0;-0;250;1,2;0,2;177;-1,2;-1;2555;0,07;2132;4961;8;56579;
19,4078;-5,43214;-0,015;206;-173;2556;1400;-0,0273466;-0,160042;-0,00232159;-0,00569148;-0,052616;-0,000587848;-0,000338375;-0,00222573;0,015;0,0305238;-0,0399126;-0,000490108;-0,00776927;-0,0496447;0;-0,00776927;-0,0496447;0;0;0;0,0148794;0;0;-0,000797753;-0,0828246;-0,493635;-0,00255969;0,00317723;-0,199955;-0,0028117;-0,165338;0,0229592;-0,103932;-0,0365244;-0,000539265;0;0,480961;-0,0695866;3,67599;-0,00122173;-0,0113446;0;1,41992;0,98864;-1080;1080;-500;1700;-10;10;-10;-0;0;-0;250;1,2;0,2;177;-1,2;-1;2555;0,07;2132;4961;8;56579;
19,4179;-5,43204;-0,016;206;-173;2556;1450;-0,0273378;-0,159839;-0,00238793;-0,00596738;-0,0542291;-0,000611947;-0,000348249;-0,00224138;0,016;0,0305135;-0,0401146;-0,000494063;-0,00792248;-0,0497768;0;-0,00792248;-0,0497768;0;0;0;0,01567;0;0;-0,00360618;-0,0828246;-0,493635;-0,00255969;0,00317566;-0,199954;-0,002882;-0,165339;0,0229592;-0,103929;-0,0365254;-0,000575226;0;0,479897;-0,0706576;3,67595;-0,0010472;-0,0115192;0;1,41666;0,988144;-1080;1080;-500;1700;-10;10;-10;-0;0;-0;250;1,2;0,2;177;-1,2;-1;2555;0,07;2132;4961;8;56579;
19,4304;-5,43197;-0,016;206;-173;2556;1500;-0,0273286;-0,159718;-0,00238655;-0,00630885;-0,0562247;-0,000641767;-0,000354014;-0,0022527;0,016;0,030503;-0,0402358;-0,000495448;-0,00801732;-0,049853;0;-0,00801732;-0,049853;0;0;0;0,0155501;0;0;-0,00511233;-0,0828246;-0,493635;-0,00255969;0,00317438;-0,199954;-0,002882;-0,16534;0,0229592;-0,103928;-0,036526;-0,000575233;0;0,479903;-0,0706585;3,67587;-0,0010472;-0,0115192;0;1,41492;0,987876;-1080;1080;-500;1700;-10;10;-10;-0;0;-0;250;1,2;0,2;177;-1,2;-1;2555;0,07;2132;4961;8;56579;
19,4378;-5,43195;-0,018;206;-173;2556;1550;-0,0272362;-0,159707;-0,00249107;-0,00651026;-0,0574058;-0,000660188;-0,000358304;-0,00225149;0,018;0,0304112;-0,0402451;-0,000497177;-0,00808756;-0,0497931;0;-0,00808756;-0,0497931;0;0;0;0,0175383;0;0;-0,00525542;-0,0828246;-0,493635;-0,00255969;0,00317495;-0,199952;-0,00298825;-0,16534;0,0229593;-0,103928;-0,036526;-0,000647138;0;0,478836;-0,0717291;3,67587;-0,000872665;-0,0116937;0;1,41298;0,987573;-1080;1080;-500;1700;-10;10;-10;-0;0;-0;250;1,2;0,2;177;-1,2;-1;2555;0,07;2132;4961;8;56579;
19,4511;-5,43146;-0,019;207;-171;2556;1600;-0,0278916;-0,158692;-0,00254234;-0,0068808;-0,059514;-0,000693963;-0,000383153;-0,00236129;0,019;0,0310515;-0,0412596;-0,000516801;-0,00837872;-0,050957;0;-0,00837872;-0,050957;0;0;0;0,0185147;0;0;-0,00538751;-0,0856805;-0,487939;-0,00255969;0,0031599;-0,199952;-0,00305914;-0,165349;0,0229578;-0,103912;-0,0365314;-0,000683149;0;0,478846;-0,0728011;3,67575;-0,000872665;-0,0118682;0;1,40993;0,98709;-1080;1080;-500;1700;-10;10;-10;-0;0;-0;250;1,2;0,2;177;-1,2;-1;2555;0,07;2132;4961;8;56579;
19,4578;-5,43201;-0,019;206;-173;2556;1650;-0,026911;-0,159891;-0,00255736;-0,00706237;-0,0605928;-0,000711218;-0,000363949;-0,00222451;0,019;0,0300906;-0,0400602;-0,000501727;-0,00817539;-0,0494335;0;-0,00817539;-0,0494335;0;0;0;0,0185438;0;0;-0,00521005;-0,0828246;-0,493635;-0,00255969;0,00317957;-0,199951;-0,00305909;-0,165337;0,02296;-0,103932;-0,0365251;-0,000683083;0;0,478851;-0,0728018;3,67568;-0,000872665;-0,0118682;0;1,40862;0,986879;-1080;1080;-500;1700;-10;10;-10;-0;0;-0;250;1,2;0,2;177;-1,2;-1;2555;0,07;2132;4961;8;56579;
19,4677;-5,43136;-0,02;207;-171;2556;1677;-0,027839;-0,158547;-0,00258149;-0,00733867;-0,0621664;-0,000736839;-0,000392018;-0,00237637;0,02;0,0309974;-0,0414043;-0,00051306;-0,00852067;-0,0510178;0;-0,00852067;-0,0510178;0;0;0;0,019514;0;0;-0,00536311;-0,0856805;-0,487939;-0,00255969;0,00315838;-0,199951;-0,00309455;-0,16535;0,0229578;-0,10391;-0,0365322;-0,000719116;0;0,477785;-0,0728021;3,67566;-0,000698132;-0,0118682;0;1,4073;0,986665;-1080;1080;-500;1700;-10;10;-10;-0;0;-0;250;1,2;0,2;177;-1,2;-1;2555;0,07;2132;4961;8;56579;
19,4779;-5,43197;-0,021;205;-173;2556;1676;-0,0267663;-0,159847;-0,00266612;-0,00760944;-0,0637834;-0,00076381;-0,000372497;-0,00222464;0,021;0,0299468;-0,0401027;-0,000498652;-0,00830545;-0,0493589;0;-0,00830545;-0,0493589;0;0;0;0,0205446;0;0;-0,00519172;-0,0799687;-0,493635;-0,00255969;0,00318045;-0,19995;-0,00316478;-0,165337;0,0229602;-0,103932;-0,0365253;-0,000754991;0;0,47672;-0,073873;3,67563;-0,000523599;-0,0120428;0;1,40489;0,98627;-1080;1080;-500;1700;-10;10;-10;-0;0;-0;250;1,2;0,2;177;-1,2;-1;2555;0,07;2132;4961;8;56579;
19,4879;-5,43198;-0,022;205;-173;2556;1676;-0,0266787;-0,159892;-0,00270267;-0,00787649;-0,0653839;-0,000790864;-0,00037264;-0,00222124;0,022;0,0298597;-0,0400567;-0,000498053;-0,00833241;-0,0492642;0;-0,00833241;-0,0492642;0;0;0;0,0215447;0;0;-0,00519074;-0,0799687;-0,493635;-0,00255969;0,00318097;-0,199949;-0,00320072;-0,165336;0,0229602;-0,103933;-0,0365251;-0,000790941;0;0,476728;-0,0738742;3,67553;-0,000523599;-0,0120428;0;1,40458;0,986218;-1080;1080;-500;1700;-10;10;-10;-0;0;-0;250;1,2;0,2;177;-1,2;-1;2555;0,07;2132;4961;8;56579;
19,4978;-5,43197;-0,022;205;-173;2556;1676;-0,0267054;-0,159888;-0,0027026;-0,00814085;-0,0669666;-0,000817617;-0,000374414;-0,00222241;0,022;0,0298863;-0,0400612;-0,000498121;-0,00831725;-0,0492865;0;-0,00831725;-0,0492865;0;0;0;0,0215458;0;0;-0,0051706;-0,0799687;-0,493635;-0,00255969;0,00318093;-0,199949;-0,00320072;-0,165336;0,0229603;-0,103933;-0,0365252;-0,000790943;0;0,476731;-0,0738747;3,67549;-0,000523599;-0,0120428;0;1,40389;0,986104;-1080;1080;-500;1700;-10;10;-10;-0;0;-0;250;1,2;0,2;177;-1,2;-1;2555;0,07;2132;4961;8;56579;
19,5078;-5,43195;-0,023;205;-173;2556;1676;-0,0267492;-0,159875;-0,00277096;-0,00841054;-0,0685785;-0,000845553;-0,000375299;-0,00222482;0,023;0,02993;-0,0400725;-0,000500051;-0,0082953;-0,0493259;0;-0,0082953;-0,0493259;0;0;0;0,0225451;0;0;-0,00517473;-0,0799687;-0,493635;-0,00255969;0,00318075;-0,199948;-0,00327102;-0,165336;0,0229602;-0,103932;-0,0365253;-0,000826896;0;0,475664;-0,0749453;3,67549;-0,000349066;-0,0122173;0;1,40368;0,986069;-1080;1080;-500;1700;-10;10;-10;-0;0;-0;250;1,2;0,2;177;-1,2;-1;2555;0,07;2131;4961;8;56579;
19,5179;-5,43198;-0,024;205;-173;2556;1676;-0,0267235;-0,159955;-0,00281255;-0,00867959;-0,0701889;-0,00087387;-0,000374191;-0,00221711;0,024;0,0299055;-0,0399927;-0,000493848;-0,00825448;-0,0492531;0;-0,00825448;-0,0492531;0;0;0;0,0235464;0;0;-0,00516709;-0,0799687;-0,493635;-0,00255969;0,00318199;-0,199947;-0,0033064;-0,165336;0,0229603;-0,103933;-0,0365249;-0,000862843;0;0,474603;-0,0749464;3,6754;-0,000174533;-0,0122173;0;1,4036;0,986055;-1080;1080;-500;1700;-10;10;-10;-0;0;-0;250;1,2;0,2;177;-1,2;-1;2555;0,07;2131;4961;8;56579;
19,5277;-5,43198;-0,026;205;-173;2556;1676;-0,026755;-0,159958;-0,00291242;-0,00894254;-0,071761;-0,000902494;-0,000374197;-0,0022177;0,026;0,0299369;-0,0399876;-0,00050077;-0,00822913;-0,0492723;0;-0,00822913;-0,0492723;0;0;0;0,0255461;0;0;-0,0051691;-0,0799687;-0,493635;-0,00255969;0,00318189;-0,199946;-0,00341319;-0,165335;0,0229603;-0,103933;-0,0365249;-0,000934745;0;0,474607;-0,0760176;3,67535;-0,000174533;-0,0123918;0;1,40364;0,986062;-1080;1080;-500;1700;-10;10;-10;-0;0;-0;250;1,2;0,2;177;-1,2;-1;2555;0,07;2131;4961;8;56579;
19,5379;-5,43199;-0,026;206;-173;2556;1676;-0,0267673;-0,159988;-0,00291279;-0,00921323;-0,0733789;-0,000931951;-0,000373446;-0,0022155;0,026;0,0299494;-0,0399573;-0,000500398;-0,00819859;-0,0492604;0;-0,00819859;-0,0492604;0;0;0;0,0255463;0;0;-0,00516786;-0,0828246;-0,493635;-0,00255969;0,00318217;-0,199946;-0,00341319;-0,165335;0,0229603;-0,103933;-0,0365248;-0,000934744;0;0,474616;-0,0760191;3,67523;-0,000174533;-0,0123918;0;1,40381;0,986089;-1080;1080;-500;1700;-10;10;-10;-0;0;-0;250;1,2;0,2;177;-1,2;-1;2555;0,07;2131;4961;8;56579;
19,5478;-5,43249;-0,027;205;-174;2556;1676;-0,0259109;-0,161091;-0,002967;-0,00947203;-0,0749879;-0,000961585;-0,000355421;-0,00209299;0,027;0,0291108;-0,0388537;-0,000481493;-0,00797998;-0,0478915;0;-0,00797998;-0,0478915;0;0;0;0,026575;0;0;-0,00497461;-0,0799687;-0,496483;-0,00255969;0,00319987;-0,199945;-0,00344849;-0,165325;0,0229622;-0,103952;-0,0365191;-0,000970609;0;0,473548;-0,0760191;3,67523;0;-0,0123918;0;1,40259;0,985886;-1080;1080;-500;1700;-10;10;-10;-0;0;-0;250;1,2;0,2;177;-1,2;-1;2555;0,07;2131;4961;8;56579;
19,5578;-5,432;-0,029;206;-173;2556;1676;-0,0268642;-0,159967;-0,00308091;-0,00974065;-0,0765874;-0,000992391;-0,000369251;-0,00222061;0,029;0,0300454;-0,0399757;-0,000509354;-0,00814561;-0,0493426;0;-0,00814561;-0,0493426;0;0;0;0,0285459;0;0;-0,0051705;-0,0828246;-0,493635;-0,00255969;0,00318118;-0,199942;-0,00359027;-0,165335;0,02296;-0,103932;-0,0365248;-0,00104259;0;0,473554;-0,0781612;3,67517;0;-0,0127409;0;1,40602;0,986455;-1080;1080;-500;1700;-10;10;-10;-0;0;-0;250;1,2;0,2;177;-1,2;-1;2555;0,07;2131;4961;8;56579;
19,5679;-5,43261;-0,03;204;-174;2556;1676;-0,0258331;-0,161301;-0,00316191;-0,01;-0,0782069;-0,00102414;-0,000346391;-0,00207137;0,03;0,0290356;-0,0386395;-0,000499074;-0,00787724;-0,0476894;0;-0,00787724;-0,0476894;0;0;0;0,0295801;0;0;-0,00494502;-0,0771128;-0,496483;-0,00255969;0,00320248;-0,199941;-0,00366099;-0,165323;0,0229623;-0,103954;-0,0365178;-0,00107843;0;0,473564;-0,0792336;3,67503;0;-0,0129154;0;1,4051;0,986304;-1080;1080;-500;1700;-10;10;-10;-0;0;-0;250;1,2;0,2;177;-1,2;-1;2555;0,07;2131;4961;8;56579;
19,5779;-5,43204;-0,03;206;-173;2556;1678;-0,0269728;-0,159987;-0,00314504;-0,0102698;-0,0798074;-0,0010556;-0,000360632;-0,00222289;0,03;0,0301529;-0,0399547;-0,000516061;-0,00805625;-0,0494058;0;-0,00805625;-0,0494058;0;0;0;0,0295463;0;0;-0,00516817;-0,0828246;-0,493635;-0,00255969;0,00318012;-0,199941;-0,0036611;-0,165336;0,0229597;-0,103932;-0,0365246;-0,00107854;0;0,473572;-0,0792349;3,67493;0;-0,0129154;0;1,40996;0,987094;-1080;1080;-500;1700;-10;10;-10;-0;0;-0;250;1,2;0,2;177;-1,2;-1;2555;0,07;2131;4961;8;56579;
19,5879;-5,43201;-0,031;206;-173;2556;1677;-0,0270483;-0,159941;-0,00318513;-0,0105398;-0,0814036;-0,00108739;-0,000362035;-0,00222829;0,031;0,0302279;-0,0399997;-0,000511366;-0,00803691;-0,0494912;0;-0,00803691;-0,0494912;0;0;0;0,0305452;0;0;-0,00517411;-0,0828246;-0,493635;-0,00255969;0,00317959;-0,199941;-0,00369649;-0,165336;0,0229596;-0,103931;-0,0365248;-0,00111449;0;0,472503;-0,0792346;3,67495;0,000174533;-0,0129154;0;1,40973;0,987057;-1080;1080;-500;1700;-10;10;-10;-0;0;-0;250;1,2;0,2;177;-1,2;-1;2555;0,07;2131;4961;8;56579;
19,5981;-5,43203;-0,032;206;-173;2556;1677;-0,0269941;-0,159964;-0,00324929;-0,0108155;-0,0830375;-0,00112058;-0,000361511;-0,00222388;0,032;0,0301744;-0,0399755;-0,000518042;-0,00805649;-0,0494358;0;-0,00805649;-0,0494358;0;0;0;0,0315462;0;0;-0,00516833;-0,0828246;-0,493635;-0,00255969;0,00318023;-0,199939;-0,00376733;-0,165335;0,0229597;-0,103931;-0,0365246;-0,00115044;0;0,472506;-0,0803059;3,6749;0,000174533;-0,01309;0;1,40965;0,987043;-1080;1080;-500;1700;-10;10;-10;-0;0;-0;250;1,2;0,2;177;-1,2;-1;2555;0,07;2131;4961;8;56579;
19,6077;-5,43203;-0,033;206;-173;2556;1677;-0,026965;-0,159954;-0,00331774;-0,0110757;-0,0845812;-0,00115259;-0,000361866;-0,00222311;0,033;0,0301456;-0,0399842;-0,000519878;-0,00808263;-0,049421;0;-0,00808263;-0,049421;0;0;0;0,0325465;0;0;-0,00516678;-0,0828246;-0,493635;-0,00255969;0,00318059;-0,199938;-0,00383762;-0,165335;0,0229597;-0,103931;-0,0365245;-0,00118639;0;0,471445;-0,0813777;3,67482;0,000349066;-0,0132645;0;1,40944;0,98701;-1080;1080;-500;1700;-10;10;-10;-0;0;-0;250;1,2;0,2;177;-1,2;-1;2555;0,07;2131;4961;8;56579;
19,6178;-5,43196;-0,033;206;-173;2556;1677;-0,0270422;-0,159807;-0,00331583;-0,0113492;-0,086197;-0,00118612;-0,000365011;-0,00223771;0,033;0,0302208;-0,0401308;-0,000521797;-0,00813674;-0,0495767;0;-0,00813674;-0,0495767;0;0;0;0,0325436;0;0;-0,00518305;-0,0828246;-0,493635;-0,00255969;0,00317858;-0,199938;-0,00383763;-0,165336;0,0229595;-0,103929;-0,0365252;-0,0011864;0;0,471451;-0,0813788;3,67474;0,000349066;-0,0132645;0;1,4091;0,986956;-1080;1080;-500;1700;-10;10;-10;-0;0;-0;250;1,2;0,2;177;-1,2;-1;2555;0,07;2131;4961;8;56579;
19,6279;-5,43204;-0,034;206;-173;2556;1677;-0,0268897;-0,159958;-0,00335842;-0,0116186;-0,0877998;-0,00121977;-0,000363021;-0,00221909;0,034;0,0300712;-0,0399791;-0,000514588;-0,00813031;-0,0493637;0;-0,00813031;-0,0493637;0;0;0;0,0335476;0;0;-0,00516078;-0,0828246;-0,493635;-0,00255969;0,00318153;-0,199937;-0,003873;-0,165335;0,0229597;-0,103932;-0,0365243;-0,00122234;0;0,470383;-0,0813787;3,67474;0,000523599;-0,0132645;0;1,40864;0,986882;-1080;1080;-500;1700;-10;10;-10;-0;0;-0;250;1,2;0,2;177;-1,2;-1;2555;0,07;2131;4961;8;56579;
19,6377;-5,43201;-0,035;206;-173;2556;1677;-0,026863;-0,159899;-0,00337036;-0,0118832;-0,0893748;-0,00125297;-0,000367326;-0,00222157;0,035;0,0300447;-0,0400377;-0,000503146;-0,00819088;-0,0493849;0;-0,00819088;-0,0493849;0;0;0;0,0345472;0;0;-0,005163;-0,0828246;-0,493635;-0,00255969;0,00318173;-0,199937;-0,0038735;-0,165334;0,0229598;-0,103931;-0,0365245;-0,00125829;0;0,46932;-0,0803087;3,67469;0,000698132;-0,01309;0;1,40693;0,986605;-1080;1080;-500;1700;-10;10;-10;-0;0;-0;250;1,2;0,2;177;-1,2;-1;2555;0,07;2131;4961;8;56579;
19,6479;-5,43198;-0,035;206;-173;2556;1677;-0,0269631;-0,159824;-0,00334154;-0,0121566;-0,0909954;-0,00128685;-0,000365304;-0,00223326;0,035;0,0301428;-0,0401138;-0,00049707;-0,00817803;-0,0495083;0;-0,00817803;-0,0495083;0;0;0;0,0345429;0;0;-0,00520144;-0,0828246;-0,493635;-0,00255969;0,00317975;-0,199938;-0,00383861;-0,165336;0,0229595;-0,10393;-0,0365249;-0,0012583;0;0,469321;-0,0792382;3,67468;0,000698132;-0,0129154;0;1,40866;0,986884;-1080;1080;-500;1700;-10;10;-10;-0;0;-0;250;1,2;0,2;177;-1,2;-1;2555;0,07;2131;4961;8;56579;
19,6578;-5,43202;-0,035;206;-173;2556;1677;-0,0268006;-0,159927;-0,00334276;-0,0124245;-0,0925937;-0,00132026;-0,000367659;-0,002217;0,035;0,0299831;-0,0400104;-0,000495846;-0,00821358;-0,0493214;0;-0,00821358;-0,0493214;0;0;0;0,0345478;0;0;-0,00515934;-0,0828246;-0,493635;-0,00255969;0,00318247;-0,199938;-0,0038386;-0,165334;0,0229599;-0,103932;-0,0365243;-0,00125829;0;0,469318;-0,0792377;3,67471;0,000698132;-0,0129154;0;1,40646;0,986526;-1080;1080;-500;1700;-10;10;-10;-0;0;-0;250;1,2;0,2;177;-1,2;-1;2555;0,07;2131;4961;8;56579;
19,6678;-5,43201;-0,035;206;-173;2556;1677;-0,026908;-0,159888;-0,00337493;-0,0126936;-0,0941927;-0,00135401;-0,000363066;-0,0022266;0,035;0,0300888;-0,0400496;-0,000498019;-0,00816896;-0,0494249;0;-0,00816896;-0,0494249;0;0;0;0,0345439;0;0;-0,00519567;-0,0828246;-0,493635;-0,00255969;0,00318082;-0,199937;-0,00387295;-0,165335;0,0229596;-0,103931;-0,0365246;-0,00125829;0;0,468251;-0,0803085;3,67471;0,000872665;-0,01309;0;1,40916;0,986965;-1080;1080;-500;1700;-10;10;-10;-0;0;-0;250;1,2;0,2;177;-1,2;-1;2555;0,07;2132;4963;8;56579;
19,6779;-5,43198;-0,035;206;-173;2556;1676;-0,0267848;-0,159846;-0,00340219;-0,012962;-0,0957946;-0,00138811;-0,000372741;-0,00222154;0,035;0,0299672;-0,0400908;-0,000505662;-0,00828279;-0,0493655;0;-0,00828279;-0,0493655;0;0;0;0,0345465;0;0;-0,00516693;-0,0828246;-0,493635;-0,00255969;0,0031824;-0,199936;-0,00390785;-0,165334;0,0229599;-0,103932;-0,0365247;-0,0012583;0;0,468254;-0,0813797;3,67467;0,000872665;-0,0132645;0;1,40456;0,986214;-1080;1080;-500;1700;-10;10;-10;-0;0;-0;250;1,2;0,2;177;-1,2;-1;2555;0,07;2132;4963;8;56579;
19,6879;-5,43198;-0,036;206;-173;2556;1676;-0,0267726;-0,159861;-0,003443;-0,0132306;-0,0973983;-0,00142265;-0,00037245;-0,0022198;0,036;0,0299555;-0,0400752;-0,000500237;-0,00827956;-0,0493463;0;-0,00827956;-0,0493463;0;0;0;0,0355468;0;0;-0,00516492;-0,0828246;-0,493635;-0,00255969;0,0031829;-0,199936;-0,00394323;-0,165334;0,0229599;-0,103932;-0,0365245;-0,00129425;0;0,467189;-0,0813802;3,67463;0,0010472;-0,0132645;0;1,40456;0,986214;-1080;1080;-500;1700;-10;10;-10;-0;0;-0;250;1,2;0,2;177;-1,2;-1;2555;0,07;2132;4963;8;56579;
19,698;-5,43198;-0,036;206;-173;2556;1676;-0,0267778;-0,159854;-0,00344291;-0,0135006;-0,0990106;-0,00145737;-0,000372577;-0,00222056;0,036;0,0299606;-0,040082;-0,000500322;-0,00828097;-0,0493546;0;-0,00828097;-0,0493546;0;0;0;0,0355467;0;0;-0,00516579;-0,0828246;-0,493635;-0,00255969;0,00318279;-0,199936;-0,00394324;-0,165334;0,0229599;-0,103932;-0,0365246;-0,00129425;0;0,467192;-0,0813808;3,67458;0,0010472;-0,0132645;0;1,40456;0,986214;-1080;1080;-500;1700;-10;10;-10;-0;0;-0;250;1,2;0,2;177;-1,2;-1;2555;0,07;2132;4963;8;56579;
19,7078;-5,43197;-0,037;206;-173;2556;1676;-0,0267934;-0,159832;-0,00351117;-0,0137649;-0,100587;-0,001492;-0,000372964;-0,00222287;0,037;0,0299762;-0,0401028;-0,00050235;-0,00828528;-0,0493803;0;-0,00828528;-0,0493803;0;0;0;0,0365462;0;0;-0,00516848;-0,0828246;-0,493635;-0,00255969;0,00318273;-0,199934;-0,00401352;-0,165334;0,0229599;-0,103931;-0,0365247;-0,0013302;0;0,466125;-0,0824516;3,67458;0,00122173;-0,013439;0;1,40456;0,986214;-1080;1080;-500;1700;-10;10;-10;-0;0;-0;250;1,2;0,2;177;-1,2;-1;2555;0,07;2132;4963;8;56579;
19,7178;-5,432;-0,037;206;-173;2556;1676;-0,0267543;-0,159882;-0,00353971;-0,0140311;-0,102178;-0,00152723;-0,00037201;-0,00221718;0,037;0,0299378;-0,0400514;-0,000508697;-0,00827468;-0,0493171;0;-0,00827468;-0,0493171;0;0;0;0,0365474;0;0;-0,00516187;-0,0828246;-0,493635;-0,00255969;0,00318354;-0,199934;-0,00404841;-0,165334;0,02296;-0,103932;-0,0365244;-0,0013302;0;0,466131;-0,0835234;3,6745;0,00122173;-0,0136136;0;1,40456;0,986214;-1080;1080;-500;1700;-10;10;-10;-0;0;-0;250;1,2;0,2;177;-1,2;-1;2555;0,07;2132;4963;8;56579;
19,728;-5,43196;-0,038;206;-173;2556;1676;-0,0268185;-0,159797;-0,00357927;-0,0143039;-0,103803;-0,00156363;-0,000373583;-0,00222656;0,038;0,030001;-0,0401361;-0,000504536;-0,00829215;-0,0494213;0;-0,00829215;-0,0494213;0;0;0;0,0375455;0;0;-0,00517277;-0,0828246;-0,493635;-0,00255969;0,00318249;-0,199933;-0,00408381;-0,165334;0,0229598;-0,10393;-0,0365248;-0,00136616;0;0,465066;-0,0835239;3,67447;0,00139626;-0,0136136;0;1,40456;0,986214;-1080;1080;-500;1700;-10;10;-10;-0;0;-0;250;1,2;0,2;177;-1,2;-1;2555;0,07;2132;4963;8;56579;
19,7378;-5,43199;-0,038;206;-173;2556;1676;-0,0267699;-0,159861;-0,00358007;-0,0145681;-0,105381;-0,00159896;-0,000372398;-0,00221949;0,038;0,0299534;-0,0400724;-0,000503735;-0,00827898;-0,0493428;0;-0,00827898;-0,0493428;0;0;0;0,0375469;0;0;-0,00516455;-0,0828246;-0,493635;-0,00255969;0,00318349;-0,199933;-0,0040838;-0,165334;0,0229599;-0,103932;-0,0365244;-0,00136615;0;0,46507;-0,0835246;3,67442;0,00139626;-0,0136136;0;1,40456;0,986214;-1080;1080;-500;1700;-10;10;-10;-0;0;-0;250;1,2;0,2;177;-1,2;-1;2555;0,07;2132;4963;8;56579;
19,7478;-5,43196;-0,039;206;-173;2556;1676;-0,0268155;-0,1598;-0,00359205;-0,0148345;-0,106968;-0,00163465;-0,000373516;-0,00222616;0,039;0,0299983;-0,0401326;-0,000492251;-0,00829141;-0,0494168;0;-0,00829141;-0,0494168;0;0;0;0,0385455;0;0;-0,0051723;-0,0828246;-0,493635;-0,00255969;0,00318283;-0,199933;-0,0040843;-0,165334;0,0229598;-0,10393;-0,0365247;-0,00140211;0;0,464002;-0,0824538;3,67442;0,0015708;-0,013439;0;1,40456;0,986214;-1080;1080;-500;1700;-10;10;-10;-0;0;-0;250;1,2;0,2;177;-1,2;-1;2555;0,07;2132;4963;8;56579;
19,7583;-5,43195;-0,04;206;-173;2556;1676;-0,0268216;-0,159793;-0,00354423;-0,0151181;-0,108658;-0,00167212;-0,000373666;-0,00222705;0,04;0,0300043;-0,0401409;-0,000471332;-0,00829306;-0,0494267;0;-0,00829306;-0,0494267;0;0;0;0,0395454;0;0;-0,00517334;-0,0828246;-0,493635;-0,00255969;0,00318276;-0,199934;-0,00401556;-0,165334;0,0229597;-0,10393;-0,0365247;-0,00143806;0;0,464003;-0,0792417;3,6744;0,0015708;-0,0129154;0;1,40456;0,986214;-1080;1080;-500;1700;-10;10;-10;-0;0;-0;250;1,2;0,2;177;-1,2;-1;2555;0,07;2132;4963;8;56579;
19,7677;-5,43199;-0,041;206;-173;2556;1676;-0,0267582;-0,159876;-0,00352999;-0,0153689;-0,110157;-0,00170522;-0,00037213;-0,00221789;0,041;0,0299426;-0,0400586;-0,000451153;-0,008276;-0,049325;0;-0,008276;-0,049325;0;0;0;0,0405472;0;0;-0,00516269;-0,0828246;-0,493635;-0,00255969;0,00318437;-0,199935;-0,00398115;-0,165333;0,0229598;-0,103931;-0,0365242;-0,001474;0;0,462931;-0,0770995;3,67446;0,00174533;-0,0125664;0;1,40456;0,986214;-1080;1080;-500;1700;-10;10;-10;-0;0;-0;250;1,2;0,2;177;-1,2;-1;2555;0,07;2132;4963;8;56579;
19,7777;-5,43188;-0,041;206;-173;2556;1676;-0,0269357;-0,159644;-0,00352741;-0,0156375;-0,111749;-0,00174039;-0,000376462;-0,00224372;0,041;0,0301164;-0,0402911;-0,000453772;-0,00832404;-0,0496113;0;-0,00832404;-0,0496113;0;0;0;0,0405419;0;0;-0,00519266;-0,0828246;-0,493635;-0,00255969;0,00318071;-0,199935;-0,00398118;-0,165335;0,0229594;-0,103928;-0,0365254;-0,00147402;0;0,46293;-0,0770993;3,67447;0,00174533;-0,0125664;0;1,40456;0,986214;-1080;1080;-500;1700;-10;10;-10;-0;0;-0;250;1,2;0,2;177;-1,2;-1;2555;0,07;2132;4963;8;56579;
19,7877;-5,432;-0,042;206;-173;2556;1676;-0,0267438;-0,159894;-0,00357081;-0,0159062;-0,113355;-0,00177627;-0,000371787;-0,00221585;0,042;0,0299288;-0,0400402;-0,000445723;-0,00827219;-0,0493023;0;-0,00827219;-0,0493023;0;0;0;0,0415476;0;0;-0,00516032;-0,0828246;-0,493635;-0,00255969;0,00318498;-0,199934;-0,00401653;-0,165332;0,0229598;-0,103932;-0,0365241;-0,00150994;0;0,461862;-0,0770992;3,67448;0,00191986;-0,0125664;0;1,40456;0,986214;-1080;1080;-500;1700;-10;10;-10;-0;0;-0;250;1,2;0,2;177;-1,2;-1;2555;0,07;2132;4963;8;56579;
19,7986;-5,43201;-0,043;206;-173;2556;1676;-0,0267281;-0,159913;-0,00363488;-0,0161958;-0,115088;-0,00181565;-0,000371407;-0,00221359;0,043;0,0299135;-0,0400197;-0,00045248;-0,00826797;-0,0492771;0;-0,00826797;-0,0492771;0;0;0;0,0425481;0;0;-0,00515768;-0,0828246;-0,493635;-0,00255969;0,00318536;-0,199933;-0,00408736;-0,165332;0,0229598;-0,103932;-0,0365239;-0,00154589;0;0,461866;-0,0781707;3,67442;0,00191986;-0,0127409;0;1,40456;0,986214;-1080;1080;-500;1700;-10;10;-10;-0;0;-0;250;1,2;0,2;177;-1,2;-1;2555;0,07;2132;4963;8;56579;
19,8078;-5,43201;-0,044;206;-173;2556;1676;-0,026733;-0,159904;-0,00375914;-0,0164424;-0,116563;-0,00185033;-0,000371534;-0,00221434;0,044;0,0299186;-0,0400263;-0,000468293;-0,00826937;-0,0492855;0;-0,00826937;-0,0492855;0;0;0;0,0435479;0;0;-0,00515856;-0,0828246;-0,493635;-0,00255969;0,00318559;-0,19993;-0,00422743;-0,165332;0,0229598;-0,103931;-0,0365239;-0,00158184;0;0,460804;-0,081384;3,67435;0,0020944;-0,0132645;0;1,40456;0,986214;-1080;1080;-500;1700;-10;10;-10;-0;0;-0;250;1,2;0,2;177;-1,2;-1;2555;0,07;2132;4963;8;56579;
19,8181;-5,43187;-0,044;206;-173;2556;1676;-0,0269622;-0,159603;-0,00375568;-0,0167211;-0,118213;-0,00188915;-0,000377129;-0,00224769;0,044;0,030143;-0,0403266;-0,000471806;-0,00833141;-0,0496553;0;-0,00833141;-0,0496553;0;0;0;0,0435411;0;0;-0,00519726;-0,0828246;-0,493635;-0,00255969;0,00318087;-0,19993;-0,00422748;-0,165335;0,0229593;-0,103927;-0,0365255;-0,00158188;0;0,460815;-0,081386;3,6742;0,0020944;-0,0132645;0;1,40456;0,986214;-1080;1080;-500;1700;-10;10;-10;-0;0;-0;250;1,2;0,2;177;-1,2;-1;2555;0,07;2132;4963;8;56579;
19,8279;-5,43199;-0,046;206;-173;2557;1676;-0,0267665;-0,159854;-0,00397468;-0,0169816;-0,119768;-0,00192783;-0,00037236;-0,00221927;0,046;0,0299518;-0,0400705;-0,000498555;-0,00827857;-0,0493403;0;-0,00827857;-0,0493403;0;0;0;0,0455469;0;0;-0,0051643;-0,082857;-0,493828;-0,00511937;0,00318532;-0,199925;-0,00447324;-0,165332;0,0229596;-0,10393;-0,036524;-0,00165374;0;0,459747;-0,08674;3,6742;0,00226893;-0,0141372;0;1,40456;0,986214;-1080;1080;-500;1700;-10;10;-10;-0;0;-0;250;1,2;0,2;177;-1,2;-1;2555;0,07;2132;4963;8;56579;
19,8411;-5,43191;-0,049;206;-173;2557;1676;-0,0268838;-0,159697;-0,00410849;-0,0173369;-0,121879;-0,00198212;-0,000375227;-0,00223636;0,049;0,0300669;-0,0402243;-0,000507491;-0,00831037;-0,0495299;0;-0,00831037;-0,0495299;0;0;0;0,0485435;0;0;-0,00518414;-0,082857;-0,493828;-0,00511937;0,00318314;-0,199921;-0,00461598;-0,165332;0,0229593;-0,103927;-0,0365247;-0,00176161;0;0,459767;-0,0878145;3,67393;0,00226893;-0,0143117;0;1,40456;0,986214;-1080;1080;-500;1700;-10;10;-10;-0;0;-0;250;1,2;0,2;177;-1,2;-1;2555;0,07;2132;4963;8;56579;
19,8478;-5,432;-0,052;206;-173;2557;1676;-0,0267507;-0,159869;-0,00419523;-0,0175178;-0,12296;-0,0020105;-0,000371966;-0,00221692;0,052;0,0299371;-0,0400508;-0,000493086;-0,0082745;-0,0493161;0;-0,0082745;-0,0493161;0;0;0;0,0515474;0;0;-0,00518713;-0,082857;-0,493828;-0,00511937;0,00318644;-0,19992;-0,00468832;-0,16533;0,0229595;-0,10393;-0,0365236;-0,00186942;0;0,458711;-0,086746;3,67377;0,00244346;-0,0141372;0;1,40456;0,986214;-1080;1080;-500;1700;-10;10;-10;-0;0;-0;250;1,2;0,2;177;-1,2;-1;2555;0,07;2132;4963;8;56579;
19,858;-5,43136;-0,052;207;-172;2557;1676;-0,0277757;-0,158526;-0,00417897;-0,0178;-0,12457;-0,00205295;-0,000397296;-0,00236788;0,052;0,0309407;-0,0413935;-0,000509616;-0,0085519;-0,0509694;0;-0,0085519;-0,0509694;0;0;0;0,0515163;0;0;-0,00538724;-0,085714;-0,490979;-0,00511937;0,00316507;-0,19992;-0,00468858;-0,165343;0,0229572;-0,103907;-0,0365307;-0,00186963;0;0,458719;-0,0867475;3,67367;0,00244346;-0,0141372;0;1,40456;0,986214;-1080;1080;-500;1700;-10;10;-10;-0;0;-0;250;1,2;0,2;177;-1,2;-1;2555;0,07;2132;4963;8;56579;
19,8679;-5,43196;-0,055;206;-173;2557;1676;-0,026806;-0,159795;-0,00422317;-0,0180645;-0,126147;-0,00209463;-0,00037328;-0,00222475;0,055;0,0299919;-0,0401245;-0,000467745;-0,00828965;-0,0494063;0;-0,00828965;-0,0494063;0;0;0;0,0545451;0;0;-0,00524745;-0,082857;-0,493828;-0,00511937;0,00318592;-0,19992;-0,00469091;-0,16533;0,0229592;-0,103928;-0,0365238;-0,00197728;0;0,457649;-0,0835345;3,67369;0,00261799;-0,0136136;0;1,40456;0,986214;-1080;1080;-500;1700;-10;10;-10;-0;0;-0;250;1,2;0,2;177;-1,2;-1;2555;0,07;2132;4963;8;56579;
19,8777;-5,43204;-0,057;205;-174;2557;1676;-0,0266392;-0,15996;-0,00421307;-0,0183264;-0,12772;-0,00213604;-0,000370185;-0,00220631;0,057;0,0298279;-0,03996;-0,00044501;-0,0082839;-0,049174;0;-0,0082839;-0,049174;0;0;0;0,0565481;0;0;-0,00525109;-0,08;-0,496677;-0,00511937;0,00318871;-0,19992;-0,00465808;-0,165328;0,0229594;-0,10393;-0,0365228;-0,00204914;0;0,457653;-0,0803226;3,67363;0,00261799;-0,01309;0;1,40456;0,986214;-1080;1080;-500;1700;-10;10;-10;-0;0;-0;250;1,2;0,2;177;-1,2;-1;2555;0,07;2132;4963;8;56579;
19,8879;-5,43195;-0,057;206;-173;2557;1676;-0,0267913;-0,159761;-0,00421089;-0,0185989;-0,129345;-0,00217887;-0,000374164;-0,00222802;0,057;0,0299769;-0,0401597;-0,000447233;-0,00832529;-0,0494197;0;-0,00832529;-0,0494197;0;0;0;0,0565426;0;0;-0,00530276;-0,082857;-0,493828;-0,00511937;0,00318566;-0,19992;-0,00465812;-0,165329;0,0229591;-0,103927;-0,0365238;-0,00204918;0;0,457653;-0,0803224;3,67364;0,00261799;-0,01309;0;1,40441;0,98619;-1080;1080;-500;1700;-10;10;-10;-0;0;-0;250;1,2;0,2;177;-1,2;-1;2555;0,07;2132;4963;8;56579;
19,8979;-5,43197;-0,06;206;-173;2557;1676;-0,0267896;-0,159814;-0,00429619;-0,0188673;-0,130946;-0,00222192;-0,000373428;-0,00222166;0,06;0,0299768;-0,0401047;-0,00043428;-0,00828548;-0,0493815;0;-0,00828548;-0,0493815;0;0;0;0,0595426;0;0;-0,005321;-0,082857;-0,493828;-0,00511937;0,00318723;-0,199919;-0,00473047;-0,165328;0,0229591;-0,103928;-0,0365233;-0,00215701;0;0,456584;-0,0792515;3,67365;0,00279253;-0,0129154;0;1,40427;0,986166;-1080;1080;-500;1700;-10;10;-10;-0;0;-0;250;1,2;0,2;177;-1,2;-1;2555;0,07;2134;4965;8;56579;
19,9077;-5,43195;-0,062;206;-173;2557;1676;-0,0268279;-0,159763;-0,00433965;-0,0191315;-0,132519;-0,00226465;-0,000374359;-0,0022272;0,062;0,0300146;-0,0401553;-0,000427819;-0,00829591;-0,0494437;0;-0,00829591;-0,0494437;0;0;0;0,0615399;0;0;-0,00535312;-0,082857;-0,493828;-0,00511937;0,00318664;-0,199918;-0,00476747;-0,165328;0,0229589;-0,103926;-0,0365234;-0,00222891;0;0,456592;-0,0781819;3,67354;0,00279253;-0,0127409;0;1,40427;0,986166;-1080;1080;-500;1700;-10;10;-10;-0;0;-0;250;1,2;0,2;177;-1,2;-1;2555;0,07;2134;4965;8;56579;
19,9178;-5,4321;-0,066;205;-174;2557;1676;-0,0265786;-0,160083;-0,00454731;-0,0193992;-0,134132;-0,00231046;-0,000368305;-0,00219118;0,066;0,0297711;-0,0398295;-0,000433056;-0,00822863;-0,0490427;0;-0,00822863;-0,0490427;0;0;0;0,0655456;0;0;-0,00533492;-0,08;-0,496677;-0,00511937;0,00319252;-0,199912;-0,00498036;-0,165323;0,0229593;-0,103931;-0,0365214;-0,00237262;0;0,455528;-0,0803245;3,67349;0,00296706;-0,01309;0;1,40427;0,986166;-1080;1080;-500;1700;-10;10;-10;-0;0;-0;250;1,2;0,2;177;-1,2;-1;2555;0,07;2134;4965;8;56579;
19,9279;-5,43198;-0,069;206;-173;2557;1676;-0,0267712;-0,159826;-0,00468499;-0,0196679;-0,135736;-0,00235747;-0,000373002;-0,00221913;0,069;0,0299605;-0,0400829;-0,000437578;-0,00828098;-0,0493547;0;-0,00828098;-0,0493547;0;0;0;0,0685377;0;0;-0,00539595;-0,082857;-0,493828;-0,00511937;0,0031893;-0,199909;-0,00512256;-0,165325;0,0229587;-0,103926;-0,0365225;-0,00248051;0;0,454478;-0,0813987;3,67324;0,00314159;-0,0132645;0;1,40427;0,986166;-1080;1080;-500;1700;-10;10;-10;-0;0;-0;250;1,2;0,2;177;-1,2;-1;2555;0,07;2134;4965;8;56579;
19,9377;-5,43203;-0,069;206;-174;2557;1676;-0,0267312;-0,159932;-0,00468625;-0,0199324;-0,137318;-0,00240384;-0,000371049;-0,00220751;0,069;0,0299222;-0,0399768;-0,000436292;-0,00823079;-0,0492537;0;-0,00823079;-0,0492537;0;0;0;0,0685401;0;0;-0,0053818;-0,082857;-0,496677;-0,00511937;0,00319094;-0,199909;-0,00512254;-0,165324;0,0229589;-0,103928;-0,0365219;-0,00248048;0;0,454491;-0,0814009;3,67307;0,00314159;-0,0132645;0;1,40427;0,986166;-1080;1080;-500;1700;-10;10;-10;-0;0;-0;250;1,2;0,2;177;-1,2;-1;2555;0,07;2134;4965;8;56579;
19,9478;-5,43198;-0,072;206;-173;2557;1676;-0,0268232;-0,159807;-0,00484854;-0,0202026;-0,138928;-0,00245269;-0,000373008;-0,00222114;0,072;0,0300125;-0,0400974;-0,000451606;-0,00825565;-0,0494024;0;-0,00825565;-0,0494024;0;0;0;0,0715373;0;0;-0,00539806;-0,082857;-0,493828;-0,00511937;0,0031893;-0,199904;-0,00530015;-0,165324;0,0229585;-0,103925;-0,0365223;-0,00258834;0;0,454491;-0,0835429;3,67307;0,00314159;-0,0136136;0;1,40441;0,98619;-1080;1080;-500;1700;-10;10;-10;-0;0;-0;250;1,2;0,2;177;-1,2;-1;2555;0,07;2134;4965;8;56579;
19,9579;-5,43258;-0,074;205;-175;2557;1676;-0,0257858;-0,161115;-0,00496734;-0,0204617;-0,140547;-0,00250261;-0,000350783;-0,00207395;0,074;0,0289968;-0,0387859;-0,000438651;-0,00800912;-0,047762;0;-0,00800912;-0,047762;0;0;0;0,0735699;0;0;-0,00519127;-0,08;-0,499526;-0,00511937;0,003211;-0,199901;-0,00540599;-0,16531;0,0229606;-0,103946;-0,0365153;-0,00265994;0;0,453437;-0,0846166;3,67287;0,00331613;-0,0137881;0;1,40324;0,985996;-1080;1080;-500;1700;-10;10;-10;-0;0;-0;250;1,2;0,2;177;-1,2;-1;2555;0,07;2134;4965;8;56579;
19,9678;-5,43198;-0,074;206;-173;2557;1676;-0,0268815;-0,159789;-0,00495297;-0,0207296;-0,14214;-0,00255197;-0,0003698;-0,00222416;0,074;0,0300707;-0,0401125;-0,000453382;-0,00822634;-0,049455;0;-0,00822634;-0,049455;0;0;0;0,0735374;0;0;-0,00539757;-0,082857;-0,493828;-0,00511937;0,00318924;-0,199901;-0,00540635;-0,165323;0,0229582;-0,103924;-0,0365222;-0,00266022;0;0,453448;-0,0846186;3,67273;0,00331613;-0,0137881;0;1,40604;0,986458;-1080;1080;-500;1700;-10;10;-10;-0;0;-0;250;1,2;0,2;177;-1,2;-1;2555;0,07;2134;4965;8;56579;
19,9778;-5,43201;-0,077;206;-174;2557;1677;-0,0269494;-0,159812;-0,00503814;-0,020999;-0,143737;-0,00260233;-0,000365867;-0,00222277;0,077;0,0301393;-0,040087;-0,000440545;-0,00816039;-0,0494869;0;-0,00816039;-0,0494869;0;0;0;0,0765358;0;0;-0,00542019;-0,082857;-0,496677;-0,00511937;0,00318995;-0,199899;-0,00547869;-0,165322;0,022958;-0,103923;-0,0365217;-0,00276804;0;0,452378;-0,0835473;3,67275;0,00349066;-0,0136136;0;1,40766;0,986723;-1080;1080;-500;1700;-10;10;-10;-0;0;-0;250;1,2;0,2;177;-1,2;-1;2555;0,07;2134;4965;8;56579;
19,9878;-5,43198;-0,08;206;-174;2557;1676;-0,0268974;-0,159769;-0,00511733;-0,021266;-0,145323;-0,00265312;-0,00037086;-0,00222339;0,08;0,030088;-0,040128;-0,000434277;-0,00822543;-0,049478;0;-0,00822543;-0,049478;0;0;0;0,0795375;0;0;-0,00539698;-0,082857;-0,496677;-0,00511937;0,00319062;-0,199897;-0,0055516;-0,165321;0,0229579;-0,103923;-0,0365216;-0,00287587;0;0,452386;-0,0824777;3,67264;0,00349066;-0,013439;0;1,40552;0,986373;-1080;1080;-500;1700;-10;10;-10;-0;0;-0;250;1,2;0,2;177;-1,2;-1;2555;0,07;2134;4965;8;56579;
19,9978;-5,43195;-0,082;206;-173;2557;1676;-0,0269681;-0,159682;-0,00516514;-0,0215374;-0,14693;-0,0027051;-0,000371513;-0,00223187;0,082;0,0301582;-0,0402141;-0,000422905;-0,00823901;-0,0495882;0;-0,00823901;-0,0495882;0;0;0;0,0815359;0;0;-0,00540588;-0,082857;-0,493828;-0,00511937;0,0031901;-0,199896;-0,00558804;-0,165321;0,0229577;-0,103921;-0,0365218;-0,00294777;0;0,451325;-0,0814079;3,67255;0,00366519;-0,0132645;0;1,40585;0,986427;-1080;1080;-500;1700;-10;10;-10;-0;0;-0;250;1,2;0,2;177;-1,2;-1;2555;0,07;2134;4965;8;56579;
20,0077;-5,43199;-0,082;206;-174;2557;1677;-0,0269133;-0,159762;-0,00516596;-0,0218029;-0,148506;-0,00275607;-0,00036912;-0,00222234;0,082;0,0301047;-0,0401349;-0,000422051;-0,00821877;-0,0494948;0;-0,00821877;-0,0494948;0;0;0;0,0815382;0;0;-0,0053926;-0,082857;-0,496677;-0,00511937;0,00319138;-0,199896;-0,00558801;-0,16532;0,0229578;-0,103922;-0,0365214;-0,00294775;0;0,451329;-0,0814087;3,67249;0,00366519;-0,0132645;0;1,4062;0,986485;-1080;1080;-500;1700;-10;10;-10;-0;0;-0;250;1,2;0,2;177;-1,2;-1;2555;0,07;2134;4965;8;56579;
20,0177;-5,43199;-0,084;206;-174;2557;1677;-0,0269679;-0,159744;-0,00520992;-0,0220739;-0,150111;-0,00280842;-0,000366307;-0,00222857;0,084;0,0301583;-0,0401517;-0,000415069;-0,00819384;-0,0495451;0;-0,00819384;-0,0495451;0;0;0;0,0835353;0;0;-0,00542345;-0,082857;-0,496677;-0,00511937;0,00319043;-0,199895;-0,00562499;-0,16532;0,0229575;-0,103921;-0,0365213;-0,00301963;0;0,451329;-0,0803376;3,67249;0,00366519;-0,01309;0;1,40788;0,986759;-1080;1080;-500;1700;-10;10;-10;-0;0;-0;250;1,2;0,2;177;-1,2;-1;2555;0,07;2134;4965;8;56579;
20,0278;-5,43197;-0,086;206;-174;2557;1676;-0,026912;-0,159712;-0,0052859;-0,0223445;-0,151717;-0,00286157;-0,000371012;-0,002226;0,086;0,030104;-0,040181;-0,000410397;-0,00825251;-0,049526;0;-0,00825251;-0,049526;0;0;0;0,0855376;0;0;-0,005396;-0,082857;-0,496677;-0,00511937;0,003192;-0,199893;-0,0056963;-0,165318;0,0229575;-0,10392;-0,0365212;-0,00309152;0;0,450265;-0,0803383;3,67243;0,00383972;-0,01309;0;1,40564;0,986393;-1080;1080;-500;1700;-10;10;-10;-0;0;-0;250;1,2;0,2;177;-1,2;-1;2555;0,07;2134;4965;8;56579;
20,0378;-5,43196;-0,088;206;-173;2557;1676;-0,026945;-0,15968;-0,00539009;-0,0226152;-0,153321;-0,00291572;-0,000370534;-0,00222911;0,088;0,0301373;-0,0402099;-0,000412406;-0,00825036;-0,0495701;0;-0,00825036;-0,0495701;0;0;0;0,0875353;0;0;-0,00542307;-0,082857;-0,493828;-0,00511937;0,00319229;-0,19989;-0,00580249;-0,165318;0,0229573;-0,103919;-0,0365211;-0,0031634;0;0,449203;-0,0814106;3,67234;0,00401426;-0,0132645;0;1,40608;0,986464;-1080;1080;-500;1700;-10;10;-10;-0;0;-0;250;1,2;0,2;177;-1,2;-1;2555;0,07;2134;4965;8;56579;
20,0477;-5,43197;-0,088;206;-174;2557;1676;-0,0269304;-0,159692;-0,00539017;-0,0228802;-0,154893;-0,00296876;-0,000370404;-0,00222692;0,088;0,030123;-0,0401987;-0,000412314;-0,00825209;-0,049552;0;-0,00825209;-0,049552;0;0;0;0,0875377;0;0;-0,00539573;-0,082857;-0,496677;-0,00511937;0,00319262;-0,19989;-0,00580249;-0,165317;0,0229574;-0,10392;-0,036521;-0,0031634;0;0,449213;-0,0814123;3,67221;0,00401426;-0,0132645;0;1,40597;0,986448;-1080;1080;-500;1700;-10;10;-10;-0;0;-0;250;1,2;0,2;177;-1,2;-1;2555;0,07;2134;4965;8;56579;
20,0579;-5,43193;-0,089;206;-173;2557;1677;-0,0270391;-0,15961;-0,00545336;-0,0231553;-0,156517;-0,00302424;-0,000368662;-0,00224079;0,089;0,0302295;-0,0402781;-0,00041997;-0,00823597;-0,0496839;0;-0,00823597;-0,0496839;0;0;0;0,0885312;0;0;-0,00546092;-0,082857;-0,493828;-0,00511937;0,00319046;-0,199888;-0,00587333;-0,165318;0,022957;-0,103917;-0,0365214;-0,00319936;0;0,449213;-0,0824835;3,67221;0,00401426;-0,013439;0;1,40773;0,986735;-1080;1080;-500;1700;-10;10;-10;-0;0;-0;250;1,2;0,2;177;-1,2;-1;2555;0,07;2134;4965;8;56579;
20,0677;-5,43198;-0,09;206;-174;2557;1676;-0,0268634;-0,159719;-0,0055505;-0,02342;-0,15809;-0,00307893;-0,000371784;-0,00222208;0,09;0,0300577;-0,0401661;-0,000427931;-0,00827377;-0,0494824;0;-0,00827377;-0,0494824;0;0;0;0,0895385;0;0;-0,00539125;-0,082857;-0,496677;-0,00511937;0,00319431;-0,199885;-0,00597844;-0,165316;0,0229574;-0,10392;-0,0365206;-0,00323527;0;0,44815;-0,0846268;3,67213;0,00418879;-0,0137881;0;1,40502;0,98629;-1080;1080;-500;1700;-10;10;-10;-0;0;-0;250;1,2;0,2;177;-1,2;-1;2555;0,07;2135;4967;8;56579;
20,0779;-5,43194;-0,092;206;-174;2557;1676;-0,0269219;-0,159647;-0,00562637;-0,0236935;-0,159712;-0,00313609;-0,000372707;-0,00223188;0,092;0,0301156;-0,0402357;-0,000423392;-0,00828404;-0,0495724;0;-0,00828404;-0,0495724;0;0;0;0,0915347;0;0;-0,00542643;-0,082857;-0,496677;-0,00511937;0,00319373;-0,199883;-0,00604976;-0,165316;0,0229571;-0,103918;-0,0365208;-0,00330717;0;0,44709;-0,0846285;3,67202;0,00436332;-0,0137881;0;1,40533;0,986342;-1080;1080;-500;1700;-10;10;-10;-0;0;-0;250;1,2;0,2;177;-1,2;-1;2555;0,07;2135;4967;8;56579;
20,0878;-5,43197;-0,092;206;-174;2557;1676;-0,026887;-0,159693;-0,00562683;-0,0239611;-0,161302;-0,00319211;-0,000371865;-0,00222598;0,092;0,0300816;-0,0401903;-0,000422914;-0,00827468;-0,0495163;0;-0,00827468;-0,0495163;0;0;0;0,0915358;0;0;-0,0054203;-0,082857;-0,496677;-0,00511937;0,00319457;-0,199883;-0,00604974;-0,165315;0,0229571;-0,103919;-0,0365206;-0,00330715;0;0,447097;-0,0846297;3,67192;0,00436332;-0,0137881;0;1,40527;0,986331;-1080;1080;-500;1700;-10;10;-10;-0;0;-0;250;1,2;0,2;177;-1,2;-1;2555;0,07;2135;4967;8;56579;
20,0979;-5,43195;-0,093;206;-174;2557;1676;-0,0269158;-0,159646;-0,00566226;-0,0242316;-0,162906;-0,003249;-0,00037308;-0,00222983;0,093;0,0301101;-0,0402362;-0,000423422;-0,00828819;-0,0495686;0;-0,00828819;-0,0495686;0;0;0;0,0925368;0;0;-0,00540065;-0,082857;-0,496677;-0,00511937;0,00319422;-0,199882;-0,00608568;-0,165315;0,022957;-0,103918;-0,0365207;-0,0033431;0;0,447097;-0,0846298;3,67192;0,00436332;-0,0137881;0;1,40502;0,98629;-1080;1080;-500;1700;-10;10;-10;-0;0;-0;250;1,2;0,2;177;-1,2;-1;2555;0,07;2135;4967;8;56579;
20,1078;-5,43193;-0,093;206;-174;2557;1676;-0,0269666;-0,159596;-0,00561077;-0,0244992;-0,16449;-0,00330467;-0,000373312;-0,00223549;0,093;0,0301606;-0,0402883;-0,00040459;-0,00829076;-0,049641;0;-0,00829076;-0,049641;0;0;0;0,092534;0;0;-0,00543083;-0,082857;-0,496677;-0,00511937;0,00319394;-0,199884;-0,00601536;-0,165316;0,0229569;-0,103917;-0,0365209;-0,00334311;0;0,446032;-0,082488;3,67188;0,00453786;-0,013439;0;1,40533;0,986342;-1080;1080;-500;1700;-10;10;-10;-0;0;-0;250;1,2;0,2;177;-1,2;-1;2555;0,07;2135;4967;8;56579;
20,1178;-5,43193;-0,094;206;-174;2557;1676;-0,0269609;-0,159602;-0,00562361;-0,0247684;-0,166084;-0,00336083;-0,000373192;-0,00223421;0,094;0,0301557;-0,040282;-0,000392232;-0,00828943;-0,0496331;0;-0,00828943;-0,0496331;0;0;0;0,0935341;0;0;-0,00542996;-0,082857;-0,496677;-0,00511937;0,00319487;-0,199884;-0,00601584;-0,165315;0,0229569;-0,103917;-0,0365207;-0,00337905;0;0,444959;-0,0814159;3,67194;0,00471239;-0,0132645;0;1,40529;0,986335;-1080;1080;-500;1700;-10;10;-10;-0;0;-0;250;1,2;0,2;177;-1,2;-1;2555;0,07;2135;4967;8;56579;
20,1278;-5,43192;-0,094;206;-174;2557;1676;-0,026978;-0,159579;-0,0056234;-0,0250402;-0,167691;-0,00341748;-0,00037361;-0,00223614;0,094;0,0301726;-0,0403045;-0,000392452;-0,00829407;-0,0496609;0;-0,00829407;-0,0496609;0;0;0;0,0935336;0;0;-0,005433;-0,082857;-0,496677;-0,00511937;0,00319461;-0,199884;-0,00601585;-0,165315;0,0229569;-0,103917;-0,0365208;-0,00337905;0;0,44496;-0,0814162;3,67192;0,00471239;-0,0132645;0;1,40525;0,986328;-1080;1080;-500;1700;-10;10;-10;-0;0;-0;250;1,2;0,2;177;-1,2;-1;2555;0,07;2135;4967;8;56579;
20,1378;-5,43195;-0,094;206;-174;2557;1676;-0,0269657;-0,15962;-0,005596;-0,0253082;-0,169278;-0,0034731;-0,000373147;-0,00223023;0,094;0,0301263;-0,0402652;-0,00038512;-0,00828893;-0,0496016;0;-0,00828893;-0,0496016;0;0;0;0,0935368;0;0;-0,00540113;-0,082857;-0,496677;-0,00511937;0,00316059;-0,199886;-0,00598112;-0,165315;0,022957;-0,103917;-0,0365206;-0,00337904;0;0,44496;-0,080345;3,67192;0,00471239;-0,01309;0;1,40502;0,98629;-1080;1080;-500;1700;-10;10;-10;-0;0;-0;250;1,2;0,2;177;-1,2;-1;2555;0,07;2135;4967;8;56579;
20,1478;-5,43193;-0,095;206;-174;2557;1676;-0,0270406;-0,159567;-0,00563633;-0,0255794;-0,170878;-0,00352964;-0,000373289;-0,00223565;0,095;0,0301662;-0,0403176;-0,000380352;-0,00829051;-0,049668;0;-0,00829051;-0,049668;0;0;0;0,094534;0;0;-0,00543067;-0,082857;-0,496677;-0,00511937;0,00312562;-0,199885;-0,00601668;-0,165315;0,0229568;-0,103916;-0,0365207;-0,00341499;0;0,443889;-0,0803446;3,67195;0,00488692;-0,01309;0;1,40535;0,986345;-1080;1080;-500;1700;-10;10;-10;-0;0;-0;250;1,2;0,2;177;-1,2;-1;2555;0,07;2135;4967;8;56579;
20,1578;-5,43196;-0,097;206;-174;2557;1676;-0,0270138;-0,159623;-0,00571351;-0,0258486;-0,172469;-0,00358658;-0,000372499;-0,00222806;0,097;0,0301066;-0,0402605;-0,000374641;-0,00828172;-0,049587;0;-0,00828172;-0,049587;0;0;0;0,0965376;0;0;-0,00539644;-0,082857;-0,496677;-0,00511937;0,00309277;-0,199883;-0,00608815;-0,165313;0,0229568;-0,103917;-0,0365201;-0,00348684;0;0,442825;-0,0803452;3,6719;0,00506145;-0,01309;0;1,40514;0,986311;-1080;1080;-500;1700;-10;10;-10;-0;0;-0;250;1,2;0,2;177;-1,2;-1;2555;0,07;2135;4967;8;56579;
20,1679;-5,4319;-0,097;206;-174;2557;1676;-0,0271139;-0,159507;-0,00571253;-0,026122;-0,174077;-0,00364417;-0,000373909;-0,00224136;0,097;0,0302047;-0,0403761;-0,000375657;-0,00829738;-0,0497378;0;-0,00829738;-0,0497378;0;0;0;0,0965332;0;0;-0,00543517;-0,082857;-0,496677;-0,00511937;0,00309082;-0,199883;-0,00608819;-0,165314;0,0229566;-0,103915;-0,0365207;-0,00348687;0;0,442831;-0,0803464;3,67181;0,00506145;-0,01309;0;1,4055;0,986369;-1080;1080;-500;1700;-10;10;-10;-0;0;-0;250;1,2;0,2;177;-1,2;-1;2555;0,07;2135;4967;8;56579;
20,1778;-5,43194;-0,098;206;-174;2557;1676;-0,0271057;-0,159578;-0,00580506;-0,0263905;-0,175658;-0,00370167;-0,000372365;-0,0022321;0,098;0,0301282;-0,040303;-0,000389158;-0,00828023;-0,049635;0;-0,00828023;-0,049635;0;0;0;0,0975352;0;0;-0,00542394;-0,082857;-0,496677;-0,00511937;0,00302251;-0,199881;-0,00619422;-0,165313;0,0229566;-0,103916;-0,0365202;-0,00352279;0;0,442831;-0,0824889;3,67181;0,00506145;-0,013439;0;1,4055;0,986369;-1080;1080;-500;1700;-10;10;-10;-0;0;-0;250;1,2;0,2;177;-1,2;-1;2555;0,07;2135;4967;8;56579;
20,1878;-5,4319;-0,1;206;-174;2557;1676;-0,0272031;-0,159478;-0,00590871;-0,0266619;-0,177249;-0,00376063;-0,000374073;-0,00224234;0,1;0,0301902;-0,0404006;-0,000391939;-0,00829921;-0,0497487;0;-0,00829921;-0,0497487;0;0;0;0,099533;0;0;-0,00543636;-0,082857;-0,496677;-0,00511937;0,00298713;-0,199878;-0,00630065;-0,165313;0,0229563;-0,103914;-0,0365204;-0,00359468;0;0,441771;-0,0835616;3,6717;0,00523599;-0,0136136;0;1,4055;0,986369;-1080;1080;-500;1700;-10;10;-10;-0;0;-0;250;1,2;0,2;177;-1,2;-1;2555;0,07;2135;4967;8;56579;
20,1978;-5,43195;-0,101;206;-174;2558;1676;-0,0271519;-0,159573;-0,00597826;-0,0269335;-0,178845;-0,00382043;-0,000372178;-0,00223098;0,101;0,0301066;-0,0403034;-0,000392833;-0,00827816;-0,0496225;0;-0,00827816;-0,0496225;0;0;0;0,100535;0;0;-0,00542258;-0,0828894;-0,496872;-0,00767906;0,00295465;-0,199877;-0,00637109;-0,165311;0,0229564;-0,103915;-0,0365198;-0,00363059;0;0,440711;-0,0846346;3,67157;0,00541052;-0,0137881;0;1,4055;0,986369;-1080;1080;-500;1700;-10;10;-10;-0;0;-0;250;1,2;0,2;177;-1,2;-1;2555;0,07;2135;4967;8;56579;
20,2078;-5,43194;-0,101;206;-174;2558;1676;-0,0271587;-0,159564;-0,00597818;-0,0272056;-0,180444;-0,00388033;-0,000372342;-0,00223197;0,101;0,0301132;-0,0403123;-0,00039292;-0,00827998;-0,0496335;0;-0,00827998;-0,0496335;0;0;0;0,100535;0;0;-0,00542377;-0,0828894;-0,496872;-0,00767906;0,00295452;-0,199877;-0,0063711;-0,165311;0,0229564;-0,103915;-0,0365198;-0,00363059;0;0,440718;-0,0846358;3,67149;0,00541052;-0,0137881;0;1,4055;0,986369;-1080;1080;-500;1700;-10;10;-10;-0;0;-0;250;1,2;0,2;177;-1,2;-1;2555;0,07;2135;4967;8;56579;
20,2177;-5,43195;-0,102;206;-174;2558;1676;-0,0271743;-0,159575;-0,00598648;-0,0274753;-0,182028;-0,00393974;-0,000372022;-0,00223004;0,102;0,0300944;-0,0403018;-0,000385843;-0,00827675;-0,0496141;0;-0,00827675;-0,0496141;0;0;0;0,101536;0;0;-0,00544701;-0,0828894;-0,496872;-0,00767906;0,00292008;-0,199877;-0,00637232;-0,165311;0,0229564;-0,103915;-0,0365196;-0,00366652;0;0,440718;-0,0835645;3,67148;0,00541052;-0,0136136;0;1,4055;0,986369;-1080;1080;-500;1700;-10;10;-10;-0;0;-0;250;1,2;0,2;177;-1,2;-1;2555;0,07;2135;4967;8;56579;
