time ;e1;e2;ctrlpitch;ctrlroll;ctrlthrust;ctrlyaw;edx;edy;edz;cumulx;cumuly;cumulz;x_pred;y_pred;z_pred;dxr_pred;dyr_pred;dzr_pred;dxrT;dyrT;dzrT;dxrUn;dyrUn;dzrUn;x;y;z;dx;dy;dz;ux;uy;uz;dxd;dyd;dzd;Perpx;Tangx;Perpy;Tangy;Perpz;Tanz;ax;ay;az;pitch;roll;yaw;yawd;eyaw;kpvx;kpvy;kpvz;kpyaw;kivx;kivy;kivz;kdvx;kdvy;kdvz;kdyaw;ktg;veld;pitchoff;ke1;ke2;gravity;thr_vel;gps_accuracy;height_accuracy;gps_sat_num;gps_status
8,16522;-120;-0,154;50;50;1450;-50;-0,152215;0,129663;-0,00427754;-0,00116338;0,000991012;-3,26932e-05;4,93412e+06;995415;0,154;0;0;0;0;0;0;0;0;0;4,93412e+06;995415;0,154;0;0;0;0,205665;0,0810057;2,82845;-0,152215;0,129663;-0,00427754;-0,174463;0,000977677;-0,0977677;-0,00174463;-0,000256654;0;0;0;9,81;-0,00139626;0,0326377;0;-2,94252;-0,197757;-1080;1080;-500;1700;-10;10;-10;-0;0;-0;250;1,2;0,2;177;-1,2;-1;2555;0,07;2284;4935;8;56579;
8,16767;-120;-0,165;100;100;1500;-100;-0,150962;0,131118;-0,00429461;-0,00153354;0,00131251;-4,32236e-05;4,93412e+06;995415;0,165;0;0;0;0;0;0;0;0;0;4,93412e+06;995415;0,165;0;0;0;0,129036;0,167558;2,70047;-0,150962;0,131118;-0,00429461;-0,174463;0,000977677;-0,0977677;-0,00174463;-0,000274986;0;0,490756;0,207734;3,67362;-0,00279253;0,0338594;0;-2,94252;-0,197757;-1080;1080;-500;1700;-10;10;-10;-0;0;-0;250;1,2;0,2;177;-1,2;-1;2555;0,07;2284;4935;8;56579;
8,17762;-120;-0,171;150;144;1550;-150;-0,151227;0,134048;-0,00452572;-0,00303719;0,00264535;-8,82228e-05;4,93412e+06;995415;0,171;0,00139239;-0,00164809;5,39306e-05;0,00200806;0,000790916;0;0,00200806;0,000790916;0;4,93412e+06;995415;0,171;0;0;0,0276162;0,0467625;0,249241;2,57249;-0,149835;0,132399;-0,00447179;-0,174463;0,000977677;-0,0977677;-0,00174463;-0,000284985;0;0,497163;0,220579;3,6736;-0,00383972;0,0359538;0;-2,94252;-0,197757;-1080;1080;-500;1700;-10;10;-10;-0;0;-0;250;1,2;0,2;177;-1,2;-1;2555;0,07;2284;4935;8;56579;
8,18752;-120;-0,171;200;145;1600;-200;-0,15292;0,134536;-0,0045368;-0,0045514;0,00397753;-0,000133146;4,93412e+06;995415;0,171;0,0030851;-0,00213694;6,50107e-05;0,00301339;0,00223787;0;0,00301339;0,00223787;0;4,93412e+06;995415;0,171229;0;0;0,049778;-0,04112;0,259066;2,4445;-0,149835;0,132399;-0,00447179;-0,174463;0,000977677;-0,0977677;-0,00174463;-0,000284985;0;0,497186;0,220589;3,67332;-0,00383972;0,0359538;0;-2,94252;-0,197757;-1080;1080;-500;1700;-10;10;-10;-0;0;-0;250;1,2;0,2;177;-1,2;-1;2555;0,07;2284;4935;8;56579;
8,19873;-120;-0,175;250;146;1650;-250;-0,154071;0,135472;-0,00490844;-0,00627792;0,00549563;-0,00018815;4,93412e+06;995415;0,175;0,00532897;-0,00186083;4,76999e-05;0,00343337;0,0044805;0;0,00343337;0,0044805;0;4,93412e+06;995415;0,175677;0;0;0,0729167;-0,134569;0,269002;2,31652;-0,148742;0,133612;-0,00486074;-0,174463;0,000977677;-0,0977677;-0,00174463;-0,000291652;0;0,503592;0,243066;3,6733;-0,00488692;0,039619;0;-2,94252;-0,197757;-1080;1080;-500;1700;-10;10;-10;-0;0;-0;250;1,2;0,2;177;-1,2;-1;2555;0,07;2284;4935;8;56579;
8,20754;-120;-0,176;300;146;1700;-300;-0,155105;0,13559;-0,00555645;-0,00764455;0,00669031;-0,000237108;4,93412e+06;995415;0,176;0,00741771;-0,000839956;-4,62526e-06;0,00306157;0,00680843;0;0,00306157;0,00680843;0;4,93412e+06;995415;0,177332;0;0;0,0948657;-0,233538;0,277153;2,18853;-0,147687;0,13475;-0,00556107;-0,174463;0,000977677;-0,0977677;-0,00174463;-0,000293318;0;0,508966;0,278399;3,67286;-0,00575959;0,0453786;0;-2,94252;-0,197757;-1080;1080;-500;1700;-10;10;-10;-0;0;-0;250;1,2;0,2;177;-1,2;-1;2555;0,07;2287;4945;8;56579;
8,21777;-120;-0,176;345;145;1750;-336;-0,156386;0,134565;-0,00609546;-0,00924532;0,00806772;-0,000299501;4,93412e+06;995415;0,176;0,00947862;0,00100646;-0,000114108;0,00187476;0,00934642;0;0,00187476;0,00934642;0;4,93412e+06;995415;0,178242;0;0;0,117186;-0,328224;0,283353;2,06055;-0,146908;0,135571;-0,00620957;-0,174463;0,000977677;-0,0977677;-0,00174463;-0,000293318;0;0,514368;0,311605;3,67208;-0,00663225;0,0507891;0;-2,94252;-0,197757;-1080;1080;-500;1700;-10;10;-10;-0;0;-0;250;1,2;0,2;177;-1,2;-1;2555;0,07;2287;4945;8;56579;
8,2276;-120;-0,176;347;142;1800;-336;-0,158017;0,13183;-0,00594563;-0,0107986;0,00936361;-0,000357947;4,93412e+06;995415;0,176;0,011109;0,00374101;-0,00026394;-0,000249759;0,0117223;0;-0,000249759;0,0117223;0;4,93412e+06;995415;0,179227;0;0;0,135401;-0,341613;0,285427;1,93256;-0,146908;0,135571;-0,00620957;-0,174463;0,000977677;-0,0977677;-0,00174463;-0,000293318;0;0,514422;0,311638;3,67143;-0,00663225;0,0507891;0;-2,94252;-0,197757;-1080;1080;-500;1700;-10;10;-10;-0;0;-0;250;1,2;0,2;177;-1,2;-1;2555;0,07;2287;4945;8;56579;
8,23755;-120;-0,173;348;139;1850;-336;-0,158866;0,129122;-0,00631556;-0,0123785;0,0106477;-0,000420755;4,93412e+06;995415;0,173;0,0127436;0,00726549;-0,000517271;-0,00321392;0,0143221;0;-0,00321392;0,0143221;0;4,93412e+06;995415;0,177476;0;0;0,154486;-0,353164;0,287165;1,80458;-0,146122;0,136388;-0,00683283;-0,174463;0,000977677;-0,0977677;-0,00174463;-0,000288319;0;0,524015;0,348003;3,67161;-0,00820305;0,0567232;0;-2,94252;-0,197757;-1080;1080;-500;1700;-10;10;-10;-0;0;-0;250;1,2;0,2;177;-1,2;-1;2555;0,07;2287;4945;8;56579;
8,2476;-120;-0,169;349;136;1900;-336;-0,159733;0,126265;-0,00630106;-0,013984;0,0119168;-0,000484087;4,93412e+06;995415;0,169;0,0143061;0,0108495;-0,000816186;-0,00627672;0,0168418;0;-0,00627672;0,0168418;0;4,93412e+06;995415;0,174831;0;0;0,171351;-0,364826;0,288569;1,67659;-0,145427;0,137115;-0,00711725;-0,174463;0,000977677;-0,0977677;-0,00174463;-0,000281652;0;0,538997;0,374767;3,67116;-0,0106465;0,0610865;0;-2,94252;-0,197757;-1080;1080;-500;1700;-10;10;-10;-0;0;-0;250;1,2;0,2;177;-1,2;-1;2555;0,07;2287;4945;8;56579;
8,25757;-120;-0,164;352;134;1950;-336;-0,161959;0,124769;-0,00608672;-0,0155994;0,0131613;-0,000544796;4,93412e+06;995415;0,164;0,0171364;0,0129822;-0,00105065;-0,00759794;0,0201387;0;-0,00759794;0,0201387;0;4,93412e+06;995415;0,17142;0;0;0,18817;-0,380945;0,291812;1,54861;-0,144823;0,137751;-0,00713737;-0,174463;0,000977677;-0,0977677;-0,00174463;-0,000273319;0;0,553936;0,389737;3,67118;-0,01309;0,06353;0;-2,94252;-0,197757;-1080;1080;-500;1700;-10;10;-10;-0;0;-0;250;1,2;0,2;177;-1,2;-1;2555;0,07;2287;4945;8;56579;
8,26755;-120;-0,164;353;128;2000;-336;-0,162858;0,118428;-0,00567153;-0,0172236;0,0143423;-0,000601358;4,93412e+06;995415;0,164;0,0180353;0,0193233;-0,00146584;-0,0134328;0,0228116;0;-0,0134328;0,0228116;0;4,93412e+06;995415;0,171129;0;0;0,178817;-0,392941;0,285908;1,42063;-0,144823;0,137751;-0,00713737;-0,174463;0,000977677;-0,0977677;-0,00174463;-0,000273319;0;0,553913;0,389721;3,67143;-0,01309;0,06353;0;-2,94252;-0,197757;-1080;1080;-500;1700;-10;10;-10;-0;0;-0;250;1,2;0,2;177;-1,2;-1;2555;0,07;2287;4945;8;56579;
8,27761;-120;-0,156;353;122;2050;-336;-0,162974;0,113054;-0,00512461;-0,0188638;0,0154801;-0,000652932;4,93412e+06;995415;0,156;0,0189042;0,0254874;-0,00197261;-0,0192501;0,0253042;0;-0,0192501;0,0253042;0;4,93412e+06;995415;0,163173;0;0;0,173564;-0,402765;0,279332;1,29264;-0,144069;0,138541;-0,00709722;-0,174463;0,000977677;-0,0977677;-0,00174463;-0,000259987;0;0,56987;0,402518;3,67193;-0,015708;0,0656244;0;-2,94252;-0,197757;-1080;1080;-500;1700;-10;10;-10;-0;0;-0;250;1,2;0,2;177;-1,2;-1;2555;0,07;2287;4945;8;56579;
8,2876;-120;-0,151;353;115;2100;-336;-0,162868;0,106747;-0,00464269;-0,0204916;0,0165471;-0,000699336;4,93412e+06;995415;0,151;0,0196034;0,0326216;-0,00255545;-0,0260869;0,0278293;0;-0,0260869;0,0278293;0;4,93412e+06;995415;0,158938;0;0;0,176294;-0,412588;0,269741;1,16466;-0,143264;0,139368;-0,00719813;-0,174463;0,000977677;-0,0977677;-0,00174463;-0,000251654;0;0,580474;0,415301;3,67259;-0,0174533;0,0677188;0;-2,94252;-0,197757;-1080;1080;-500;1700;-10;10;-10;-0;0;-0;250;1,2;0,2;177;-1,2;-1;2555;0,07;2287;4945;8;56579;
8,29754;-120;-0,147;351;111;2150;-336;-0,161395;0,103095;-0,00459227;-0,0220957;0,0175717;-0,000744978;4,93412e+06;995415;0,147;0,018864;0,0370057;-0,00293086;-0,0306691;0,028165;0;-0,0306691;0,028165;0;4,93412e+06;995415;0,154505;0;0;0,165089;-0,417621;0,266565;1,03667;-0,142531;0,140101;-0,00752313;-0,174463;0,000977677;-0,0977677;-0,00174463;-0,000244988;0;0,582552;0,429153;3,67316;-0,0178024;0,0699877;0;-2,94252;-0,197757;-1080;1080;-500;1700;-10;10;-10;-0;0;-0;250;1,2;0,2;177;-1,2;-1;2555;0,07;2287;4945;8;56579;
8,30763;-120;-0,147;350;107;2200;-336;-0,160482;0,0994111;-0,00435028;-0,0237142;0,0185743;-0,000788851;4,93412e+06;995415;0,147;0,0179514;0,04069;-0,00317285;-0,0344707;0,0282802;0;-0,0344707;0,0282802;0;4,93412e+06;995415;0,154065;0;0;0,153796;-0,424882;0,262942;0,908689;-0,142531;0,140101;-0,00752313;-0,174463;0,000977677;-0,0977677;-0,00174463;-0,000244988;0;0,582546;0,429148;3,67322;-0,0178024;0,0699877;0;-2,94252;-0,197757;-1080;1080;-500;1700;-10;10;-10;-0;0;-0;250;1,2;0,2;177;-1,2;-1;2555;0,07;2287;4945;8;56579;
8,31759;-120;-0,145;348;106;2250;-336;-0,158945;0,0981256;-0,00473921;-0,0252974;0,0195517;-0,000836058;4,93412e+06;995415;0,145;0,0171731;0,0427075;-0,00343829;-0,0367891;0,0278788;0;-0,0367891;0,0278788;0;4,93412e+06;995415;0,151443;0;0;0,140528;-0,429524;0,266407;0,780705;-0,141772;0,140833;-0,0081775;-0,174463;0,000977677;-0,0977677;-0,00174463;-0,000241654;0;0,578254;0,450494;3,67351;-0,0171042;0,0734784;0;-2,94252;-0,197757;-1080;1080;-500;1700;-10;10;-10;-0;0;-0;250;1,2;0,2;177;-1,2;-1;2555;0,07;2287;4945;8;56579;
8,32761;-120;-0,146;348;105;2300;-336;-0,158244;0,0972684;-0,00536735;-0,0268837;0,0205267;-0,00088986;4,93412e+06;995415;0,146;0,017136;0,0441718;-0,00376018;-0,0383648;0,0280547;0;-0,0383648;0,0280547;0;4,93412e+06;995415;0,15215;0;0;0,130831;-0,439069;0,26976;0,65272;-0,141108;0,14144;-0,00912753;-0,174463;0,000977677;-0,0977677;-0,00174463;-0,000243321;0;0,571899;0,482568;3,67304;-0,016057;0,0787143;0;-2,94252;-0,197757;-1080;1080;-500;1700;-10;10;-10;-0;0;-0;250;1,2;0,2;177;-1,2;-1;2555;0,07;2287;4945;8;56579;
8,33763;-120;-0,146;347;105;2350;-336;-0,15725;0,0972761;-0,00617388;-0,028459;0,0215012;-0,00095171;4,93412e+06;995415;0,146;0,016909;0,0448489;-0,00406514;-0,0392522;0,0278051;0;-0,0392522;0,0278051;0;4,93412e+06;995415;0,151659;0;0;0,118991;-0,445995;0,275624;0,524736;-0,140341;0,142125;-0,010239;-0,174463;0,000977677;-0,0977677;-0,00174463;-0,000243321;0;0,564503;0,519995;3,67229;-0,0148353;0,084823;0;-2,94252;-0,197757;-1080;1080;-500;1700;-10;10;-10;-0;0;-0;250;1,2;0,2;177;-1,2;-1;2555;0,07;2287;4945;8;56579;
8,3476;-120;-0,146;346;104;2400;-336;-0,15688;0,0962886;-0,00609543;-0,0300226;0,0224609;-0,00101246;4,93412e+06;995415;0,146;0,016539;0,0458363;-0,00414359;-0,0403043;0,0276991;0;-0,0403043;0,0276991;0;4,93412e+06;995415;0,151222;0;0;0,107717;-0,45281;0,278809;0,396751;-0,140341;0,142125;-0,010239;-0,174463;0,000977677;-0,0977677;-0,00174463;-0,000243321;0;0,564593;0,520077;3,67132;-0,0148353;0,084823;0;-2,94252;-0,197757;-1080;1080;-500;1700;-10;10;-10;-0;0;-0;250;1,2;0,2;177;-1,2;-1;2555;0,07;2287;4945;8;56579;
8,35753;-120;-0,143;345;104;2450;-336;-0,156051;0,0961061;-0,00679123;-0,0315719;0,0234151;-0,00107989;4,93412e+06;995415;0,143;0,0164556;0,0466757;-0,00445923;-0,0413074;0,0276222;0;-0,0413074;0,0276222;0;4,93412e+06;995415;0,147771;0;0;0,0962995;-0,459513;0,284618;0,268767;-0,139595;0,142782;-0,0112505;-0,174463;0,000977678;-0,0977678;-0,00174463;-0,000238321;0;0,558183;0,554222;3,67141;-0,0137881;0,0904081;0;-2,94252;-0,197757;-1080;1080;-500;1700;-10;10;-10;-0;0;-0;250;1,2;0,2;177;-1,2;-1;2555;0,07;2287;4945;8;56579;
8,36762;-120;-0,139;344;104;2500;-336;-0,155177;0,0960933;-0,00738744;-0,0331386;0,0243852;-0,00115447;4,93412e+06;995415;0,139;0,0162824;0,0472995;-0,00472403;-0,0421114;0,02741;0;-0,0421114;0,02741;0;4,93412e+06;995415;0,143297;0;0;0,0846411;-0,466105;0,290427;0,140783;-0,138895;0,143393;-0,0121115;-0,174463;0,000977678;-0,0977678;-0,00174463;-0,000231655;0;0,552923;0,583105;3,67058;-0,0129154;0,0951204;0;-2,94252;-0,197757;-1080;1080;-500;1700;-10;10;-10;-0;0;-0;250;1,2;0,2;177;-1,2;-1;2555;0,07;2287;4945;8;56579;
8,37756;-120;-0,128;344;104;2550;-336;-0,154456;0,0960853;-0,00784086;-0,0346739;0,0253403;-0,00123241;4,93412e+06;995415;0,128;0,0162392;0,0479033;-0,004947;-0,0428556;0,0273187;0;-0,0428556;0,0273187;0;4,93412e+06;995415;0,131826;0;0;0,0730231;-0,475427;0,296235;0,0127984;-0,138216;0,143989;-0,0127879;-0,174463;0,000977678;-0,0977678;-0,00174463;-0,000213323;0;0,548718;0,605572;3,66986;-0,0122173;0,0987856;0;-2,94252;-0,197757;-1080;1080;-500;1700;-10;10;-10;-0;0;-0;250;1,2;0,2;177;-1,2;-1;2555;0,07;2301;4969;8;56579;
8,38759;-120;-0,128;344;103;2558;-336;-0,154314;0,0953152;-0,00776627;-0,0362212;0,0262961;-0,00131028;4,93412e+06;995415;0,128;0,0160982;0,0486734;-0,00502159;-0,0436405;0,0273674;0;-0,0436405;0,0273674;0;4,93412e+06;995415;0,131366;0;0;0,0614895;-0,476919;0,294309;-0,00767906;-0,138216;0,143989;-0,0127879;-0,174463;0,000977678;-0,0977678;-0,00174463;-0,000213323;0;0,548767;0,605626;3,66931;-0,0122173;0,0987856;0;-2,94252;-0,197757;-1080;1080;-500;1700;-10;10;-10;-0;0;-0;250;1,2;0,2;177;-1,2;-1;2555;0,07;2301;4969;8;56579;
8,39761;-120;-0,121;343;103;2559;-336;-0,154026;0,0951763;-0,00803286;-0,0377645;0,0272497;-0,00139077;4,93412e+06;995415;0,121;0,0163148;0,0492555;-0,00519782;-0,0442649;0,0275666;0;-0,0442649;0,0275666;0;4,93412e+06;995415;0,123894;0;0;0,0498684;-0,474253;0,294424;-0,0102387;-0,137711;0,144432;-0,0132307;-0,174463;0,000977678;-0,0977678;-0,00174463;-0,000201656;0;0,546624;0,620546;3,6694;-0,0118682;0,101229;0;-2,94252;-0,197757;-1080;1080;-500;1700;-10;10;-10;-0;0;-0;250;1,2;0,2;177;-1,2;-1;2555;0,07;2301;4969;8;56579;
8,40762;-120;-0,108;343;102;2559;-336;-0,153842;0,0948774;-0,00815249;-0,0393049;0,0281997;-0,0014724;4,93412e+06;995415;0,108;0,0165371;0,0499104;-0,00540781;-0,0449445;0,0278166;0;-0,0449445;0,0278166;0;4,93412e+06;995415;0,110432;0;0;0,0394062;-0,474253;0,291567;-0,0102387;-0,137305;0,144788;-0,0135603;-0,174463;0,000977678;-0,0977678;-0,00174463;-0,000179991;0;0,549855;0,636571;3,66908;-0,0123918;0,103847;0;-2,94252;-0,197757;-1080;1080;-500;1700;-10;10;-10;-0;0;-0;250;1,2;0,2;177;-1,2;-1;2555;0,07;2301;4969;8;56579;
8,41773;-120;-0,095;343;102;2559;-336;-0,153867;0,0945517;-0,00820937;-0,0408607;0,0291557;-0,00155541;4,93412e+06;995415;0,095;0,0168702;0,0504939;-0,00570746;-0,0455214;0,0281888;0;-0,0455214;0,0281888;0;4,93412e+06;995415;0,0969886;0;0;0,0302775;-0,474253;0,291567;-0,0102387;-0,136997;0,145046;-0,0139168;-0,174463;0,000977678;-0,0977678;-0,00174463;-0,000158325;0;0,560543;0,6611;3,66893;-0,0141372;0,107861;0;-2,94252;-0,197757;-1080;1080;-500;1700;-10;10;-10;-0;0;-0;250;1,2;0,2;177;-1,2;-1;2555;0,07;2301;4969;8;56579;
8,42753;-120;-0,095;343;101;2559;-336;-0,154006;0,0939977;-0,0081474;-0,0423692;0,0300765;-0,00163521;4,93412e+06;995415;0,095;0,0170096;0,0510479;-0,00576943;-0,0460314;0,0284536;0;-0,0460314;0,0284536;0;4,93412e+06;995415;0,0965621;0;0;0,0223802;-0,474253;0,288711;-0,0102387;-0,136997;0,145046;-0,0139168;-0,174463;0,000977678;-0,0977678;-0,00174463;-0,000158325;0;0,560549;0,661108;3,66886;-0,0141372;0,107861;0;-2,94252;-0,197757;-1080;1080;-500;1700;-10;10;-10;-0;0;-0;250;1,2;0,2;177;-1,2;-1;2555;0,07;2301;4969;8;56579;
8,4381;-120;-0,087;343;101;2559;-336;-0,154067;0,0936621;-0,00822364;-0,0439972;0,0310662;-0,00172211;4,93412e+06;995415;0,087;0,0172788;0,0515372;-0,00612991;-0,0465221;0,0287734;0;-0,0465221;0,0287734;0;4,93412e+06;995415;0,0881804;0;0;0,0158334;-0,474253;0,288711;-0,0102387;-0,136789;0,145199;-0,0143536;-0,174463;0,000977678;-0,0977678;-0,00174463;-0,000144993;0;0,574417;0,691993;3,66894;-0,0164061;0,112923;0;-2,94252;-0,197757;-1080;1080;-500;1700;-10;10;-10;-0;0;-0;250;1,2;0,2;177;-1,2;-1;2555;0,07;2301;4969;8;56579;
8,44765;-120;-0,075;343;101;2559;-336;-0,154064;0,0934626;-0,00830326;-0,0454688;0,0319589;-0,00180142;4,93412e+06;995415;0,075;0,017334;0,0517419;-0,0065478;-0,0467662;0,0288702;0;-0,0467662;0,0288702;0;4,93412e+06;995415;0,0758367;0;0;0,0104838;-0,474253;0,288711;-0,0102387;-0,13673;0,145204;-0,0148511;-0,174463;0,000977678;-0,0977678;-0,00174463;-0,000124994;0;0,593631;0,731395;3,66884;-0,0195477;0,119381;0;-2,94252;-0,197757;-1080;1080;-500;1700;-10;10;-10;-0;0;-0;250;1,2;0,2;177;-1,2;-1;2555;0,07;2301;4969;8;56579;
8,45765;-120;-0,066;344;100;2559;-336;-0,15427;0,0928307;-0,0082439;-0,0470114;0,0328872;-0,00188385;4,93412e+06;995415;0,066;0,0174982;0,0522967;-0,00696974;-0,0473059;0,0291867;0;-0,0473059;0,0291867;0;4,93412e+06;995415;0,0665686;0;0;0,00651101;-0,477105;0,285854;-0,0102387;-0,136772;0,145127;-0,0152136;-0,174463;0,000977678;-0,0977678;-0,00174463;-0,000109994;0;0,61284;0,76545;3,66874;-0,0226893;0,124966;0;-2,94252;-0,197757;-1080;1080;-500;1700;-10;10;-10;-0;0;-0;250;1,2;0,2;177;-1,2;-1;2555;0,07;2301;4969;8;56579;
8,4676;-120;-0,066;344;100;2559;-336;-0,154245;0,0928182;-0,0082429;-0,0485466;0,033811;-0,00196589;4,93412e+06;995415;0,066;0,0174732;0,0523093;-0,00697074;-0,0473239;0,0291652;0;-0,0473239;0,0291652;0;4,93412e+06;995415;0,0663634;0;0;0,0037508;-0,477105;0,285854;-0,0102387;-0,136772;0,145127;-0,0152136;-0,174463;0,000977678;-0,0977678;-0,00174463;-0,000109994;0;0,612833;0,765441;3,66881;-0,0226893;0,124966;0;-2,94252;-0,197757;-1080;1080;-500;1700;-10;10;-10;-0;0;-0;250;1,2;0,2;177;-1,2;-1;2555;0,07;2301;4969;8;56579;
8,47763;-120;-0,054;344;100;2559;-336;-0,154319;0,0924366;-0,00803221;-0,0500941;0,0347379;-0,00204644;4,93412e+06;995415;0,054;0,0173841;0,052516;-0,00737898;-0,047561;0,0291982;0;-0,047561;0,0291982;0;4,93412e+06;995415;0,0542506;0;0;0,00229959;-0,477105;0,285854;-0,0102387;-0,136935;0,144953;-0,0154112;-0,174463;0,000977678;-0,0977678;-0,00174463;-8,99955e-05;0;0,63949;0,800523;3,66881;-0,0270526;0,130725;0;-2,94252;-0,197757;-1080;1080;-500;1700;-10;10;-10;-0;0;-0;250;1,2;0,2;177;-1,2;-1;2555;0,07;2301;4969;8;56579;
8,48772;-120;-0,047;344;100;2558;-336;-0,154308;0,0923102;-0,00762835;-0,0516521;0,03567;-0,00212346;4,93412e+06;995415;0,047;0,0171375;0,0524343;-0,00764824;-0,0475247;0,0290335;0;-0,0475247;0,0290335;0;4,93412e+06;995415;0,04723;0;0;0,00204673;-0,476919;0,285742;-0,00767906;-0,13717;0,144744;-0,0152766;-0,174463;0,000977678;-0,0977678;-0,00174463;-7,83294e-05;0;0,668238;0,823863;3,66906;-0,031765;0,134565;0;-2,94252;-0,197757;-1080;1080;-500;1700;-10;10;-10;-0;0;-0;250;1,2;0,2;177;-1,2;-1;2555;0,07;2301;4969;8;56579;
8,49769;-120;-0,041;344;99;2558;-336;-0,154336;0,0922011;-0,00709012;-0,0531906;0,036589;-0,00219414;4,93412e+06;995415;0,041;0,0170099;0,0524319;-0,00783383;-0,0475418;0,0289756;0;-0,0475418;0,0289756;0;4,93412e+06;995415;0,0412284;0;0;0,00202407;-0,476919;0,282887;-0,00767906;-0,137327;0,144633;-0,014924;-0,174463;0,000977678;-0,0977678;-0,00174463;-6,83299e-05;0;0,695877;0,83654;3,66955;-0,0363028;0,136659;0;-2,94252;-0,197757;-1080;1080;-500;1700;-10;10;-10;-0;0;-0;250;1,2;0,2;177;-1,2;-1;2555;0,07;2301;4969;8;56579;
8,50752;-120;-0,041;344;99;2558;-336;-0,15423;0,092165;-0,00708906;-0,0547068;0,0374951;-0,00226383;4,93412e+06;995415;0,041;0,0169033;0,052468;-0,0078349;-0,0476017;0,0288803;0;-0,0476017;0,0288803;0;4,93412e+06;995415;0,0412262;0;0;0,00202251;-0,476919;0,282887;-0,00767906;-0,137327;0,144633;-0,014924;-0,174463;0,000977678;-0,0977678;-0,00174463;-6,83299e-05;0;0,695804;0,836453;3,67019;-0,0363028;0,136659;0;-2,94252;-0,197757;-1080;1080;-500;1700;-10;10;-10;-0;0;-0;250;1,2;0,2;177;-1,2;-1;2555;0,07;2301;4969;8;56579;
8,51762;-120;-0,039;344;99;2558;-336;-0,154154;0,0921904;-0,0065042;-0,0562639;0,0384263;-0,00232953;4,93412e+06;995415;0,039;0,0167734;0,0524405;-0,00793475;-0,0476037;0,0287785;0;-0,0476037;0,0287785;0;4,93412e+06;995415;0,0392262;0;0;0,00204708;-0,476919;0,282887;-0,00767906;-0,137381;0,144631;-0,014439;-0,174463;0,000977678;-0,0977678;-0,00174463;-6,49967e-05;0;0,721351;0,840699;3,67019;-0,0404916;0,137357;0;-2,94252;-0,197757;-1080;1080;-500;1700;-10;10;-10;-0;0;-0;250;1,2;0,2;177;-1,2;-1;2555;0,07;2301;4969;8;56579;
8,52763;-120;-0,037;343;100;2558;-336;-0,153931;0,092449;-0,00595335;-0,0578038;0,0393512;-0,00238909;4,93412e+06;995415;0,037;0,0166496;0,0523238;-0,0079998;-0,0475437;0,0286109;0;-0,0475437;0,0286109;0;4,93412e+06;995415;0,0372233;0;0;0,00204039;-0,474068;0,285742;-0,00767906;-0,137281;0,144773;-0,0139532;-0,174463;0,000977678;-0,0977678;-0,00174463;-6,16636e-05;0;0,745736;0,842726;3,67089;-0,0445059;0,137706;0;-2,94252;-0,197757;-1080;1080;-500;1700;-10;10;-10;-0;0;-0;250;1,2;0,2;177;-1,2;-1;2555;0,07;2301;4969;8;56579;
8,53752;-120;-0,037;343;100;2557;-336;-0,153717;0,0927155;-0,00555482;-0,059325;0,0402687;-0,00244406;4,93412e+06;995415;0,037;0,0166567;0,0522995;-0,00805607;-0,0475656;0,0285498;0;-0,0475656;0,0285498;0;4,93412e+06;995415;0,037224;0;0;0,00206575;-0,473883;0,285631;-0,00511937;-0,13706;0,145015;-0,0136109;-0,174463;0,000977678;-0,0977678;-0,00174463;-6,16636e-05;0;0,763731;0,843697;3,67155;-0,047473;0,137881;0;-2,94252;-0,197757;-1080;1080;-500;1700;-10;10;-10;-0;0;-0;250;1,2;0,2;177;-1,2;-1;2555;0,07;2301;4969;8;56579;
8,54761;-120;-0,037;343;100;2557;-336;-0,153723;0,0926145;-0,0055405;-0,0608758;0,041203;-0,00249995;4,93412e+06;995415;0,037;0,0166631;0,0524004;-0,00807039;-0,0476633;0,0285798;0;-0,0476633;0,0285798;0;4,93412e+06;995415;0,037226;0;0;0,0020957;-0,473883;0,285631;-0,00511937;-0,13706;0,145015;-0,0136109;-0,174463;0,000977678;-0,0977678;-0,00174463;-6,16636e-05;0;0,763671;0,843631;3,67203;-0,047473;0,137881;0;-2,94252;-0,197757;-1080;1080;-500;1700;-10;10;-10;-0;0;-0;250;1,2;0,2;177;-1,2;-1;2555;0,07;2301;4969;8;56579;
8,55768;-120;-0,038;343;101;2557;-336;-0,153377;0,0932462;-0,00544041;-0,0624204;0,0421421;-0,00255474;4,93412e+06;995415;0,038;0,0165792;0,0520291;-0,00802606;-0,0473684;0,0283292;0;-0,0473684;0,0283292;0;4,93412e+06;995415;0,0382217;0;0;0,00210415;-0,473883;0,288485;-0,00511937;-0,136798;0,145275;-0,0134665;-0,174463;0,000977678;-0,0977678;-0,00174463;-6,33302e-05;0;0,77111;0,842568;3,67204;-0,0486947;0,137706;0;-2,94252;-0,197757;-1080;1080;-500;1700;-10;10;-10;-0;0;-0;250;1,2;0,2;177;-1,2;-1;2555;0,07;2301;4969;8;56579;
8,56763;-120;-0,04;343;101;2557;-336;-0,153295;0,0932907;-0,00536616;-0,0639457;0,0430703;-0,00260813;4,93412e+06;995415;0,04;0,0167753;0,0522557;-0,00799895;-0,0475916;0,0284797;0;-0,0475916;0,0284797;0;4,93412e+06;995415;0,0402259;0;0;0,00216667;-0,473883;0,288485;-0,00511937;-0,13652;0,145546;-0,0133651;-0,174463;0,000977678;-0,0977678;-0,00174463;-6,66633e-05;0;0,770032;0,835123;3,67216;-0,0485202;0,136485;0;-2,94252;-0,197757;-1080;1080;-500;1700;-10;10;-10;-0;0;-0;250;1,2;0,2;177;-1,2;-1;2555;0,07;2301;4969;8;56579;
8,57761;-120;-0,044;343;101;2557;-336;-0,153155;0,093577;-0,00543784;-0,0654737;0,0440039;-0,00266239;4,93412e+06;995415;0,044;0,0169321;0,052252;-0,00787052;-0,0475936;0,0285266;0;-0,0475936;0,0285266;0;4,93412e+06;995415;0,0442285;0;0;0,00221944;-0,473883;0,288485;-0,00511937;-0,136223;0,145829;-0,0133084;-0,174463;0,000977678;-0,0977678;-0,00174463;-7,33297e-05;0;0,761518;0,822374;3,67225;-0,0471239;0,13439;0;-2,94252;-0,197757;-1080;1080;-500;1700;-10;10;-10;-0;0;-0;250;1,2;0,2;177;-1,2;-1;2555;0,07;2301;4969;8;56579;
8,58762;-120;-0,044;343;101;2557;-336;-0,153187;0,093606;-0,00544025;-0,0670065;0,0449406;-0,00271682;4,93412e+06;995415;0,044;0,0169639;0,052223;-0,00786811;-0,0475581;0,0285509;0;-0,0475581;0,0285509;0;4,93412e+06;995415;0,0442312;0;0;0,00226947;-0,473883;0,288485;-0,00511937;-0,136223;0,145829;-0,0133084;-0,174463;0,000977678;-0,0977678;-0,00174463;-7,33297e-05;0;0,761529;0,822386;3,67216;-0,0471239;0,13439;0;-2,94252;-0,197757;-1080;1080;-500;1700;-10;10;-10;-0;0;-0;250;1,2;0,2;177;-1,2;-1;2555;0,07;2301;4969;8;56579;
8,59774;-120;-0,049;342;101;2557;-336;-0,152972;0,0939982;-0,00563137;-0,0685548;0,0458919;-0,00277382;4,93412e+06;995415;0,049;0,0170915;0,0521489;-0,00769498;-0,0475035;0,0285352;0;-0,0475035;0,0285352;0;4,93412e+06;995415;0,0492294;0;0;0,00226535;-0,471033;0,288485;-0,00511937;-0,13588;0,146147;-0,0133263;-0,174463;0,000977678;-0,0977678;-0,00174463;-8,16626e-05;0;0,747709;0,807521;3,67216;-0,044855;0,131947;0;-2,94252;-0,197757;-1080;1080;-500;1700;-10;10;-10;-0;0;-0;250;1,2;0,2;177;-1,2;-1;2555;0,07;2301;4969;8;56579;
8,6075;-120;-0,056;342;102;2557;-336;-0,152743;0,094493;-0,00588817;-0,0700461;0,0468145;-0,00283131;4,93412e+06;995415;0,056;0,0173047;0,0520618;-0,0074622;-0,0474299;0,0285652;0;-0,0474299;0,0285652;0;4,93412e+06;995415;0,0562303;0;0;0,00228886;-0,471033;0,29134;-0,00511937;-0,135438;0,146555;-0,0133504;-0,174463;0,000977678;-0,0977678;-0,00174463;-9,33287e-05;0;0,728593;0,78737;3,67193;-0,0417134;0,128631;0;-2,94252;-0,197757;-1080;1080;-500;1700;-10;10;-10;-0;0;-0;250;1,2;0,2;177;-1,2;-1;2555;0,07;2322;4999;8;56579;
8,61752;-120;-0,065;342;103;2558;-336;-0,152525;0,0949452;-0,0061272;-0,071574;0,0477656;-0,00289269;4,93412e+06;995415;0,065;0,0175843;0,0520647;-0,00725514;-0,0474437;0,0286649;0;-0,0474437;0,0286649;0;4,93412e+06;995415;0,0652325;0;0;0,00231797;-0,471217;0,294309;-0,00767906;-0,134941;0,14701;-0,0133823;-0,174463;0,000977678;-0,0977678;-0,00174463;-0,000108328;0;0,710543;0,76828;3,67162;-0,0387463;0,125489;0;-2,94252;-0,197757;-1080;1080;-500;1700;-10;10;-10;-0;0;-0;250;1,2;0,2;177;-1,2;-1;2555;0,07;2322;4999;8;56579;
8,62759;-120;-0,065;342;103;2558;-336;-0,152643;0,0950407;-0,00613466;-0,0731114;0,0487229;-0,00295447;4,93412e+06;995415;0,065;0,0177019;0,0519692;-0,00724769;-0,0473246;0,0287588;0;-0,0473246;0,0287588;0;4,93412e+06;995415;0,0652366;0;0;0,00237056;-0,471217;0,294309;-0,00767906;-0,134941;0,14701;-0,0133823;-0,174463;0,000977678;-0,0977678;-0,00174463;-0,000108328;0;0,710576;0,768317;3,67133;-0,0387463;0,125489;0;-2,94252;-0,197757;-1080;1080;-500;1700;-10;10;-10;-0;0;-0;250;1,2;0,2;177;-1,2;-1;2555;0,07;2322;4999;8;56579;
8,63755;-120;-0,07;342;103;2558;-336;-0,152385;0,0956067;-0,00643842;-0,0746295;0,0496753;-0,00301861;4,93412e+06;995415;0,07;0,0179699;0,051875;-0,00704196;-0,0472545;0,0288191;0;-0,0472545;0,0288191;0;4,93412e+06;995415;0,0702381;0;0;0,00236745;-0,471217;0,294309;-0,00767906;-0,134415;0,147482;-0,0134804;-0,174463;0,000977678;-0,0977678;-0,00174463;-0,000116661;0;0,691418;0,751307;3,67132;-0,0356047;0,122697;0;-2,94252;-0,197757;-1080;1080;-500;1700;-10;10;-10;-0;0;-0;250;1,2;0,2;177;-1,2;-1;2555;0,07;2322;4999;8;56579;
8,64763;-120;-0,076;342;104;2558;-336;-0,152101;0,0961746;-0,00669613;-0,076162;0,0506444;-0,00308608;4,93412e+06;995415;0,076;0,0182935;0,0518532;-0,00683977;-0,04726;0,0289255;0;-0,04726;0,0289255;0;4,93412e+06;995415;0,0762382;0;0;0,00234348;-0,471217;0,297164;-0,00767906;-0,133808;0,148028;-0,0135359;-0,174463;0,000977678;-0,0977678;-0,00174463;-0,00012666;0;0,673357;0,733271;3,67095;-0,0326377;0,11973;0;-2,94252;-0,197757;-1080;1080;-500;1700;-10;10;-10;-0;0;-0;250;1,2;0,2;177;-1,2;-1;2555;0,07;2322;4999;8;56579;
8,65769;-120;-0,08;341;104;2558;-336;-0,151923;0,0966138;-0,00692198;-0,0776901;0,0516161;-0,00315571;4,93412e+06;995415;0,08;0,0185986;0,0518416;-0,00670479;-0,0472645;0,0290599;0;-0,0472645;0,0290599;0;4,93412e+06;995415;0,0802406;0;0;0,00234798;-0,468366;0,297164;-0,00767906;-0,133324;0,148455;-0,0136268;-0,174463;0,000977678;-0,0977678;-0,00174463;-0,000133327;0;0,659544;0,721604;3,67064;-0,0303687;0,11781;0;-2,94252;-0,197757;-1080;1080;-500;1700;-10;10;-10;-0;0;-0;250;1,2;0,2;177;-1,2;-1;2555;0,07;2322;4999;8;56579;
8,66749;-120;-0,08;341;104;2558;-336;-0,152011;0,0966283;-0,006921;-0,0791805;0,0525635;-0,00322357;4,93412e+06;995415;0,08;0,0186868;0,0518271;-0,00670577;-0,0472322;0,0291432;0;-0,0472322;0,0291432;0;4,93412e+06;995415;0,0802397;0;0;0,00232209;-0,468366;0,297164;-0,00767906;-0,133324;0,148455;-0,0136268;-0,174463;0,000977678;-0,0977678;-0,00174463;-0,000133327;0;0,659573;0,721636;3,67037;-0,0303687;0,11781;0;-2,94252;-0,197757;-1080;1080;-500;1700;-10;10;-10;-0;0;-0;250;1,2;0,2;177;-1,2;-1;2555;0,07;2322;4999;8;56579;
8,67761;-120;-0,087;341;105;2558;-336;-0,151727;0,097244;-0,00719206;-0,0807152;0,0535472;-0,00329631;4,93412e+06;995415;0,087;0,0189914;0,0517291;-0,00653426;-0,0471709;0,0292262;0;-0,0471709;0,0292262;0;4,93412e+06;995415;0,0872387;0;0;0,00229619;-0,468366;0,30002;-0,00767906;-0,132735;0,148973;-0,0137263;-0,174463;0,000977678;-0,0977678;-0,00174463;-0,000144993;0;0,643591;0,707801;3,67037;-0,0277507;0,115541;0;-2,94252;-0,197757;-1080;1080;-500;1700;-10;10;-10;-0;0;-0;250;1,2;0,2;177;-1,2;-1;2555;0,07;2322;4999;8;56579;
8,68765;-120;-0,09;341;106;2558;-336;-0,151479;0,0978329;-0,0073931;-0,0822365;0,0545297;-0,00337056;4,93412e+06;995415;0,09;0,0192333;0,0515696;-0,006394;-0,0470474;0,0292705;0;-0,0470474;0,0292705;0;4,93412e+06;995415;0,0902367;0;0;0,0022673;-0,468366;0,302875;-0,00767906;-0,132245;0,149402;-0,0137871;-0,174463;0,000977678;-0,0977678;-0,00174463;-0,000149992;0;0,631901;0,697192;3,67004;-0,0258309;0,113795;0;-2,94252;-0,197757;-1080;1080;-500;1700;-10;10;-10;-0;0;-0;250;1,2;0,2;177;-1,2;-1;2555;0,07;2322;4999;8;56579;
8,69767;-120;-0,096;341;106;2558;-336;-0,151314;0,0983068;-0,00750129;-0,0837521;0,0555143;-0,0034457;4,93412e+06;995415;0,096;0,0195625;0,0515315;-0,00627951;-0,0470288;0,0294263;0;-0,0470288;0,0294263;0;4,93412e+06;995415;0,0962358;0;0;0,00224484;-0,468366;0,302875;-0,00767906;-0,131752;0,149838;-0,0137808;-0,174463;0,000977678;-0,0977678;-0,00174463;-0,000159992;0;0,623397;0,686572;3,6698;-0,0244346;0,11205;0;-2,94252;-0,197757;-1080;1080;-500;1700;-10;10;-10;-0;0;-0;250;1,2;0,2;177;-1,2;-1;2555;0,07;2322;4999;8;56579;
8,70769;-120;-0,096;341;106;2558;-336;-0,151496;0,0982804;-0,00749386;-0,0852704;0,0564993;-0,0035208;4,93412e+06;995415;0,096;0,019744;0,0515579;-0,00628695;-0,0470195;0,0296097;0;-0,0470195;0,0296097;0;4,93412e+06;995415;0,0962368;0;0;0,00224862;-0,468366;0,302875;-0,00767906;-0,131752;0,149838;-0,0137808;-0,174463;0,000977678;-0,0977678;-0,00174463;-0,000159992;0;0,623411;0,686586;3,66967;-0,0244346;0,11205;0;-2,94252;-0,197757;-1080;1080;-500;1700;-10;10;-10;-0;0;-0;250;1,2;0,2;177;-1,2;-1;2555;0,07;2322;4999;8;56579;
8,71761;-120;-0,102;341;107;2558;-336;-0,151281;0,098855;-0,00748974;-0,0867714;0,0574801;-0,00359511;4,93412e+06;995415;0,102;0,0200517;0,0514554;-0,00613442;-0,0469453;0,0297236;0;-0,0469453;0,0297236;0;4,93412e+06;995415;0,102237;0;0;0,00225035;-0,468366;0,30573;-0,00767906;-0,13123;0,15031;-0,0136242;-0,174463;0,000977678;-0,0977678;-0,00174463;-0,000169991;0;0,617013;0,671674;3,66967;-0,0233874;0,109607;0;-2,94252;-0,197757;-1080;1080;-500;1700;-10;10;-10;-0;0;-0;250;1,2;0,2;177;-1,2;-1;2555;0,07;2322;4999;8;56579;
8,72751;-120;-0,108;341;107;2558;-336;-0,151113;0,0992139;-0,00737849;-0,0882668;0,058462;-0,00366813;4,93412e+06;995415;0,108;0,0203565;0,0515289;-0,00601143;-0,047038;0,0298861;0;-0,047038;0,0298861;0;4,93412e+06;995415;0,108238;0;0;0,00225616;-0,468366;0,30573;-0,00767906;-0,130757;0,150743;-0,0133899;-0,174463;0,000977678;-0,0977678;-0,00174463;-0,000179991;0;0,613814;0,656758;3,66968;-0,0228638;0,107163;0;-2,94252;-0,197757;-1080;1080;-500;1700;-10;10;-10;-0;0;-0;250;1,2;0,2;177;-1,2;-1;2555;0,07;2322;4999;8;56579;
8,73765;-120;-0,112;340;108;2558;-336;-0,150846;0,0998386;-0,00717756;-0,0897969;0,0594746;-0,00374093;4,93412e+06;995415;0,112;0,0206445;0,0514148;-0,00586045;-0,0469648;0,0299721;0;-0,0469648;0,0299721;0;4,93412e+06;995415;0,112238;0;0;0,00225402;-0,465515;0,308586;-0,00767906;-0,130201;0,151253;-0,013038;-0,174463;0,000977678;-0,0977678;-0,00174463;-0,000186657;0;0,6138;0,639693;3,66981;-0,0228638;0,104371;0;-2,94252;-0,197757;-1080;1080;-500;1700;-10;10;-10;-0;0;-0;250;1,2;0,2;177;-1,2;-1;2555;0,07;2322;4999;8;56579;
8,74765;-120;-0,112;340;108;2558;-336;-0,150955;0,0999306;-0,00718469;-0,0913067;0,0604741;-0,00381279;4,93412e+06;995415;0,112;0,0207536;0,0513228;-0,00585332;-0,0468538;0,0300621;0;-0,0468538;0,0300621;0;4,93412e+06;995415;0,112239;0;0;0,00227859;-0,465515;0,308586;-0,00767906;-0,130201;0,151253;-0,013038;-0,174463;0,000977678;-0,0977678;-0,00174463;-0,000186657;0;0,613776;0,639668;3,67005;-0,0228638;0,104371;0;-2,94252;-0,197757;-1080;1080;-500;1700;-10;10;-10;-0;0;-0;250;1,2;0,2;177;-1,2;-1;2555;0,07;2322;4999;8;56579;
8,75762;-120;-0,121;340;109;2558;-336;-0,150769;0,100446;-0,00694908;-0,0928093;0,0614752;-0,00388205;4,93412e+06;995415;0,121;0,0210995;0,0512917;-0,00575139;-0,046853;0,0302308;0;-0,046853;0,0302308;0;4,93412e+06;995415;0,12124;0;0;0,00228272;-0,465515;0,311441;-0,00767906;-0,12967;0,151738;-0,0127005;-0,174463;0,000977678;-0,0977678;-0,00174463;-0,000201656;0;0,616976;0,625812;3,67004;-0,0233874;0,102102;0;-2,94252;-0,197757;-1080;1080;-500;1700;-10;10;-10;-0;0;-0;250;1,2;0,2;177;-1,2;-1;2555;0,07;2322;4999;8;56579;
8,76747;-120;-0,128;340;109;2558;-336;-0,150497;0,101071;-0,00665089;-0,0942924;0,0624712;-0,00394759;4,93412e+06;995415;0,128;0,0213896;0,0511767;-0,00567334;-0,0467899;0,0303227;0;-0,0467899;0,0303227;0;4,93412e+06;995415;0,12824;0;0;0,00228103;-0,465515;0,311441;-0,00767906;-0,129108;0,152247;-0,0123242;-0,174463;0,000977678;-0,0977678;-0,00174463;-0,000213323;0;0,624411;0,614057;3,67032;-0,0246091;0,100182;0;-2,94252;-0,197757;-1080;1080;-500;1700;-10;10;-10;-0;0;-0;250;1,2;0,2;177;-1,2;-1;2555;0,07;2322;4999;8;56579;
8,77751;-120;-0,128;340;109;2558;-336;-0,150651;0,101115;-0,00665158;-0,0958054;0,0634867;-0,00401439;4,93412e+06;995415;0,128;0,0215434;0,0511321;-0,00567266;-0,0467184;0,030466;0;-0,0467184;0,030466;0;4,93412e+06;995415;0,128242;0;0;0,00230747;-0,465515;0,311441;-0,00767906;-0,129108;0,152247;-0,0123242;-0,174463;0,000977678;-0,0977678;-0,00174463;-0,000213323;0;0,624374;0,614021;3,67068;-0,0246091;0,100182;0;-2,94252;-0,197757;-1080;1080;-500;1700;-10;10;-10;-0;0;-0;250;1,2;0,2;177;-1,2;-1;2555;0,07;2322;4999;8;56579;
8,78758;-120;-0,133;340;110;2558;-336;-0,150412;0,1017;-0,00632627;-0,0973195;0,0645104;-0,00407807;4,93412e+06;995415;0,133;0,0218962;0,0510766;-0,00562928;-0,0467132;0,030624;0;-0,0467132;0,030624;0;4,93412e+06;995415;0,133245;0;0;0,00233717;-0,465515;0,314296;-0,00767906;-0,128516;0,152777;-0,0119556;-0,174463;0,000977678;-0,0977678;-0,00174463;-0,000221655;0;0,633967;0,604425;3,67067;-0,0261799;0,0986111;0;-2,94252;-0,197757;-1080;1080;-500;1700;-10;10;-10;-0;0;-0;250;1,2;0,2;177;-1,2;-1;2555;0,07;2338;5033;8;56579;
8,79761;-120;-0,139;340;111;2558;-336;-0,150125;0,102295;-0,00611053;-0,0988245;0,0655359;-0,00413933;4,93412e+06;995415;0,139;0,0221479;0,0509529;-0,00559694;-0,0466511;0,0306875;0;-0,0466511;0,0306875;0;4,93412e+06;995415;0,139244;0;0;0,00233548;-0,465515;0,317151;-0,00767906;-0,127977;0,153248;-0,0117075;-0,174463;0,000977678;-0,0977678;-0,00174463;-0,000231655;0;0,641387;0,597989;3,67106;-0,0274017;0,0975639;0;-2,94252;-0,197757;-1080;1080;-500;1700;-10;10;-10;-0;0;-0;250;1,2;0,2;177;-1,2;-1;2555;0,07;2338;5033;8;56579;
8,80749;-120;-0,143;339;111;2557;-336;-0,149849;0,102888;-0,00587248;-0,100306;0,0665529;-0,00419738;4,93412e+06;995415;0,143;0,0224661;0,0508741;-0,00556277;-0,0466334;0,0308087;0;-0,0466334;0,0308087;0;4,93412e+06;995415;0,143245;0;0;0,00233602;-0,462483;0,317027;-0,00511937;-0,127382;0,153763;-0,0114353;-0,174463;0,000977678;-0,0977678;-0,00174463;-0,000238321;0;0,648818;0,590499;3,67132;-0,0286234;0,0963422;0;-2,94252;-0,197757;-1080;1080;-500;1700;-10;10;-10;-0;0;-0;250;1,2;0,2;177;-1,2;-1;2555;0,07;2338;5033;8;56579;
8,81752;-120;-0,143;340;111;2557;-336;-0,150024;0,102884;-0,00586695;-0,10181;0,0675846;-0,00425621;4,93412e+06;995415;0,143;0,0226416;0,0508791;-0,0055683;-0,0466091;0,0309827;0;-0,0466091;0,0309827;0;4,93412e+06;995415;0,143247;0;0;0,00236477;-0,465333;0,317027;-0,00511937;-0,127382;0,153763;-0,0114353;-0,174463;0,000977678;-0,0977678;-0,00174463;-0,000238321;0;0,648788;0,590472;3,6716;-0,0286234;0,0963422;0;-2,94252;-0,197757;-1080;1080;-500;1700;-10;10;-10;-0;0;-0;250;1,2;0,2;177;-1,2;-1;2555;0,07;2338;5033;8;56579;
8,82757;-120;-0,15;339;112;2557;-336;-0,149749;0,103536;-0,00562845;-0,103316;0,0686256;-0,0043128;4,93412e+06;995415;0,15;0,0229087;0,0506965;-0,00550199;-0,046486;0,0310527;0;-0,046486;0,0310527;0;4,93412e+06;995415;0,150247;0;0;0,00238705;-0,462483;0,319881;-0,00511937;-0,126841;0,154232;-0,0111304;-0,174463;0,000977678;-0,0977678;-0,00174463;-0,000249987;0;0,655179;0,580873;3,67161;-0,0296706;0,0947714;0;-2,94252;-0,197757;-1080;1080;-500;1700;-10;10;-10;-0;0;-0;250;1,2;0,2;177;-1,2;-1;2555;0,07;2338;5033;8;56579;
8,83747;-120;-0,153;339;113;2557;-336;-0,149573;0,104038;-0,00530197;-0,104797;0,0696557;-0,0043653;4,93412e+06;995415;0,153;0,0232502;0,0506464;-0,00543775;-0,0464766;0,031227;0;-0,0464766;0,031227;0;4,93412e+06;995415;0,15325;0;0;0,00244368;-0,462483;0,322734;-0,00511937;-0,126323;0,154684;-0,0107397;-0,174463;0,000977678;-0,0977678;-0,00174463;-0,000254987;0;0,662605;0,569114;3,67189;-0,0308923;0,0928515;0;-2,94252;-0,197757;-1080;1080;-500;1700;-10;10;-10;-0;0;-0;250;1,2;0,2;177;-1,2;-1;2555;0,07;2338;5033;8;56579;
8,84752;-120;-0,157;339;113;2557;-336;-0,149268;0,104643;-0,0049501;-0,106296;0,0707069;-0,00441502;4,93412e+06;995415;0,157;0,023625;0,0506249;-0,00532535;-0,0465197;0,0313894;0;-0,0465197;0,0313894;0;4,93412e+06;995415;0,157251;0;0;0,00247316;-0,462483;0,322734;-0,00511937;-0,125643;0,155268;-0,0102755;-0,174463;0,000977678;-0,0977678;-0,00174463;-0,000261653;0;0,667887;0,55201;3,67228;-0,031765;0,090059;0;-2,94252;-0,197757;-1080;1080;-500;1700;-10;10;-10;-0;0;-0;250;1,2;0,2;177;-1,2;-1;2555;0,07;2338;5033;8;56579;
8,85761;-120;-0,157;339;113;2557;-336;-0,149383;0,104769;-0,00495775;-0,107803;0,0717637;-0,00446503;4,93412e+06;995415;0,157;0,0237404;0,0504995;-0,0053177;-0,0463774;0,0314836;0;-0,0463774;0,0314836;0;4,93412e+06;995415;0,157253;0;0;0,00252126;-0,462483;0,322734;-0,00511937;-0,125643;0,155268;-0,0102755;-0,174463;0,000977678;-0,0977678;-0,00174463;-0,000261653;0;0,667841;0,551972;3,6727;-0,031765;0,090059;0;-2,94252;-0,197757;-1080;1080;-500;1700;-10;10;-10;-0;0;-0;250;1,2;0,2;177;-1,2;-1;2555;0,07;2338;5033;8;56579;
8,86754;-120;-0,157;339;114;2557;-336;-0,149122;0,105322;-0,00467919;-0,109284;0,0728101;-0,00451152;4,93412e+06;995415;0,157;0,0240522;0,0504326;-0,00520989;-0,0463671;0,0316099;0;-0,0463671;0,0316099;0;4,93412e+06;995415;0,157255;0;0;0,00254791;-0,462483;0,325588;-0,00511937;-0,12507;0,155755;-0,00988908;-0,174463;0,000977678;-0,0977678;-0,00174463;-0,000261653;0;0,671037;0,537036;3,67269;-0,0322886;0,0876155;0;-2,94252;-0,197757;-1080;1080;-500;1700;-10;10;-10;-0;0;-0;250;1,2;0,2;177;-1,2;-1;2555;0,07;2338;5033;8;56579;
8,87748;-120;-0,158;338;115;2557;-336;-0,148807;0,105934;-0,00444784;-0,110764;0,0738633;-0,00455574;4,93412e+06;995415;0,158;0,0244186;0,050389;-0,00507598;-0,046393;0,0317612;0;-0,046393;0,0317612;0;4,93412e+06;995415;0,158256;0;0;0,00257659;-0,459633;0,328442;-0,00511937;-0,124389;0,156323;-0,00952382;-0,174463;0,000977678;-0,0977678;-0,00174463;-0,00026332;0;0,671;0,519932;3,67303;-0,0322886;0,084823;0;-2,94252;-0,197757;-1080;1080;-500;1700;-10;10;-10;-0;0;-0;250;1,2;0,2;177;-1,2;-1;2555;0,07;2338;5033;8;56579;
8,88751;-120;-0,159;338;115;2557;-336;-0,148575;0,106499;-0,00429605;-0,112253;0,0749309;-0,00459881;4,93412e+06;995415;0,159;0,0248142;0,0503379;-0,00495174;-0,0463998;0,0319567;0;-0,0463998;0,0319567;0;4,93412e+06;995415;0,159261;0;0;0,00263284;-0,459633;0,328442;-0,00511937;-0,123761;0,156837;-0,00924779;-0,174463;0,000977678;-0,0977678;-0,00174463;-0,000264987;0;0,668841;0,504967;3,6733;-0,0319395;0,0823795;0;-2,94252;-0,197757;-1080;1080;-500;1700;-10;10;-10;-0;0;-0;250;1,2;0,2;177;-1,2;-1;2555;0,07;2338;5033;8;56579;
8,89763;-120;-0,159;338;115;2557;-336;-0,148727;0,106583;-0,00429817;-0,113759;0,0760103;-0,00464233;4,93412e+06;995415;0,159;0,0249658;0,0502534;-0,00494963;-0,0462941;0,0320944;0;-0,0462941;0,0320944;0;4,93412e+06;995415;0,159265;0;0;0,00268431;-0,459633;0,328442;-0,00511937;-0,123761;0,156837;-0,00924779;-0,174463;0,000977678;-0,0977678;-0,00174463;-0,000264987;0;0,668821;0,504952;3,67349;-0,0319395;0,0823795;0;-2,94252;-0,197757;-1080;1080;-500;1700;-10;10;-10;-0;0;-0;250;1,2;0,2;177;-1,2;-1;2555;0,07;2338;5033;8;56579;
8,90744;-120;-0,16;338;116;2557;-336;-0,148416;0,107266;-0,00426652;-0,115215;0,0770619;-0,00468416;4,93412e+06;995415;0,16;0,0252819;0,0500749;-0,00478187;-0,0461861;0,0321928;0;-0,0461861;0,0321928;0;4,93412e+06;995415;0,160267;0;0;0,00270755;-0,459633;0,331295;-0,00511937;-0,123134;0,157341;-0,00904839;-0,174463;0,000977678;-0,0977678;-0,00174463;-0,000266653;0;0,661369;0,488939;3,67348;-0,0307178;0,0797615;0;-2,94252;-0,197757;-1080;1080;-500;1700;-10;10;-10;-0;0;-0;250;1,2;0,2;177;-1,2;-1;2555;0,07;2338;5033;8;56579;
8,91752;-120;-0,161;338;117;2557;-336;-0,148129;0,107789;-0,00418678;-0,116709;0,0781491;-0,00472639;4,93412e+06;995415;0,161;0,0256236;0,0500568;-0,00459662;-0,0462332;0,0323399;0;-0,0462332;0,0323399;0;4,93412e+06;995415;0,161267;0;0;0,00271031;-0,459633;0,334149;-0,00511937;-0,122506;0,157845;-0,0087834;-0,174463;0,000977678;-0,0977678;-0,00174463;-0,00026832;0;0,652846;0,469717;3,67352;-0,0293215;0,07662;0;-2,94252;-0,197757;-1080;1080;-500;1700;-10;10;-10;-0;0;-0;250;1,2;0,2;177;-1,2;-1;2555;0,07;2338;5033;8;56579;
8,9275;-120;-0,162;337;117;2557;-336;-0,147957;0,10835;-0,00409058;-0,118184;0,0792299;-0,00476719;4,93412e+06;995415;0,162;0,0259429;0,0498928;-0,0043772;-0,0461108;0,0324852;0;-0,0461108;0,0324852;0;4,93412e+06;995415;0,162269;0;0;0,00273667;-0,456783;0,334149;-0,00511937;-0,122014;0,158243;-0,00846778;-0,174463;0,000977678;-0,0977678;-0,00174463;-0,000269986;0;0,64325;0,44835;3,67361;-0,0277507;0,0731293;0;-2,94252;-0,197757;-1080;1080;-500;1700;-10;10;-10;-0;0;-0;250;1,2;0,2;177;-1,2;-1;2555;0,07;2338;5033;8;56579;
8,93757;-120;-0,162;338;117;2557;-336;-0,148145;0,108327;-0,00408361;-0,119676;0,0803204;-0,0048083;4,93412e+06;995415;0,162;0,0261314;0,0499164;-0,00438416;-0,046109;0,0326752;0;-0,046109;0,0326752;0;4,93412e+06;995415;0,162272;0;0;0,00276679;-0,459633;0,334149;-0,00511937;-0,122014;0,158243;-0,00846778;-0,174463;0,000977678;-0,0977678;-0,00174463;-0,000269986;0;0,643238;0,448341;3,67373;-0,0277507;0,0731293;0;-2,94252;-0,197757;-1080;1080;-500;1700;-10;10;-10;-0;0;-0;250;1,2;0,2;177;-1,2;-1;2555;0,07;2338;5033;8;56579;
8,94759;-120;-0,163;337;118;2557;-336;-0,147891;0,108897;-0,00390982;-0,121159;0,0814124;-0,00484751;4,93412e+06;995415;0,163;0,0263982;0,0497691;-0,00412946;-0,0460156;0,0327635;0;-0,0460156;0,0327635;0;4,93412e+06;995415;0,163272;0;0;0,00276461;-0,456783;0,337002;-0,00511937;-0,121493;0,158666;-0,00803929;-0,174463;0,000977678;-0,0977678;-0,00174463;-0,000271653;0;0,633651;0,422702;3,67373;-0,0261799;0,0689405;0;-2,94252;-0,197757;-1080;1080;-500;1700;-10;10;-10;-0;0;-0;250;1,2;0,2;177;-1,2;-1;2555;0,07;2338;5033;8;56579;
8,95756;-120;-0,163;337;118;2556;-336;-0,147751;0,109243;-0,00365979;-0,122631;0,082501;-0,00488398;4,93412e+06;995415;0,163;0,0266991;0,0497825;-0,00389591;-0,0460631;0,0329318;0;-0,0460631;0,0329318;0;4,93412e+06;995415;0,163273;0;0;0,00276917;-0,456604;0,33687;-0,00255969;-0,121052;0,159026;-0,0075557;-0,174463;0,000977678;-0,0977678;-0,00174463;-0,000271653;0;0,626173;0,397043;3,67394;-0,0249582;0,0647517;0;-2,94252;-0,197757;-1080;1080;-500;1700;-10;10;-10;-0;0;-0;250;1,2;0,2;177;-1,2;-1;2555;0,07;2338;5033;8;56579;
8,96751;-120;-0,161;337;119;2556;-336;-0,147602;0,10973;-0,00337948;-0,1241;0,083593;-0,00491761;4,93412e+06;995415;0,161;0,0270202;0,049676;-0,00367303;-0,0459982;0,0330976;0;-0,0459982;0,0330976;0;4,93412e+06;995415;0,161275;0;0;0,00279726;-0,456604;0,339723;-0,00255969;-0,120582;0,159406;-0,00705252;-0,174463;0,000977678;-0,0977678;-0,00174463;-0,00026832;0;0,620816;0,372441;3,67424;-0,0240855;0,0607375;0;-2,94252;-0,197757;-1080;1080;-500;1700;-10;10;-10;-0;0;-0;250;1,2;0,2;177;-1,2;-1;2555;0,07;2338;5033;8;56579;
8,9775;-120;-0,161;337;119;2556;-336;-0,14772;0,109859;-0,0033845;-0,125576;0,0846903;-0,00495142;4,93412e+06;995415;0,161;0,0271384;0,0495466;-0,00366802;-0,0458549;0,0331985;0;-0,0458549;0,0331985;0;4,93412e+06;995415;0,161277;0;0;0,00284796;-0,456604;0,339723;-0,00255969;-0,120582;0,159406;-0,00705252;-0,174463;0,000977678;-0,0977678;-0,00174463;-0,00026832;0;0,620782;0,372421;3,67458;-0,0240855;0,0607375;0;-2,94252;-0,197757;-1080;1080;-500;1700;-10;10;-10;-0;0;-0;250;1,2;0,2;177;-1,2;-1;2555;0,07;2338;5033;8;56579;
8,98759;-120;-0,159;337;119;2556;-336;-0,147536;0,110286;-0,00305203;-0,127064;0,0858029;-0,00498221;4,93412e+06;995415;0,159;0,0273977;0,0494787;-0,00344285;-0,0458324;0,033317;0;-0,0458324;0,033317;0;4,93412e+06;995415;0,159277;0;0;0,00287403;-0,456604;0,339723;-0,00255969;-0,120138;0,159765;-0,00649487;-0,174463;0,000977678;-0,0977678;-0,00174463;-0,000264987;0;0,616521;0,346765;3,67457;-0,0233874;0,0565487;0;-2,94252;-0,197757;-1080;1080;-500;1700;-10;10;-10;-0;0;-0;250;1,2;0,2;177;-1,2;-1;2555;0,07;2338;5033;8;56579;
8,99754;-120;-0,157;337;120;2556;-336;-0,147395;0,110646;-0,00275648;-0,128531;0,0869043;-0,00500965;4,93412e+06;995415;0,157;0,0276473;0,0494294;-0,00327171;-0,0458232;0,0334451;0;-0,0458232;0,0334451;0;4,93412e+06;995415;0,157278;0;0;0,00290096;-0,456604;0,342575;-0,00255969;-0,119748;0,160075;-0,00602818;-0,174463;0,000977678;-0,0977678;-0,00174463;-0,000261653;0;0,61435;0,326429;3,67497;-0,0230383;0,0532325;0;-2,94252;-0,197757;-1080;1080;-500;1700;-10;10;-10;-0;0;-0;250;1,2;0,2;177;-1,2;-1;2555;0,07;2338;5033;8;56579;
9,00756;-120;-0,155;337;120;2556;-336;-0,147344;0,110918;-0,00240694;-0,130008;0,0880157;-0,00503376;4,93412e+06;995415;0,155;0,0279039;0,0494053;-0,00309843;-0,0458218;0,0336076;0;-0,0458218;0,0336076;0;4,93412e+06;995415;0,155282;0;0;0,00295696;-0,456604;0,342575;-0,00255969;-0,11944;0,160324;-0,00550537;-0,174463;0,000977678;-0,0977678;-0,00174463;-0,00025832;0;0,613249;0,305025;3,67532;-0,0228638;0,0497419;0;-2,94252;-0,197757;-1080;1080;-500;1700;-10;10;-10;-0;0;-0;250;1,2;0,2;177;-1,2;-1;2555;0,07;2343;5057;8;56579;
9,0175;-120;-0,155;337;120;2556;-336;-0,14744;0,111017;-0,00240967;-0,131473;0,0891191;-0,00505771;4,93412e+06;995415;0,155;0,0279994;0,0493065;-0,0030957;-0,0457123;0,0336907;0;-0,0457123;0,0336907;0;4,93412e+06;995415;0,155284;0;0;0,00300593;-0,456604;0,342575;-0,00255969;-0,11944;0,160324;-0,00550537;-0,174463;0,000977678;-0,0977678;-0,00174463;-0,00025832;0;0,613207;0,305004;3,67574;-0,0228638;0,0497419;0;-2,94252;-0,197757;-1080;1080;-500;1700;-10;10;-10;-0;0;-0;250;1,2;0,2;177;-1,2;-1;2555;0,07;2343;5057;8;56579;
9,02757;-120;-0,152;337;121;2556;-336;-0,147395;0,111228;-0,00196335;-0,132957;0,0902389;-0,00507748;4,93412e+06;995415;0,152;0,0282365;0,049324;-0,00296633;-0,0457523;0,033848;0;-0,0457523;0,033848;0;4,93412e+06;995415;0,152287;0;0;0,00303806;-0,456604;0,345427;-0,00255969;-0,119159;0,160552;-0,00492968;-0,174463;0,000977678;-0,0977678;-0,00174463;-0,00025332;0;0,617469;0,285755;3,67574;-0,0235619;0,0466003;0;-2,94252;-0,197757;-1080;1080;-500;1700;-10;10;-10;-0;0;-0;250;1,2;0,2;177;-1,2;-1;2555;0,07;2343;5057;8;56579;
9,03752;-120;-0,149;337;121;2555;-336;-0,147315;0,111429;-0,00154892;-0,134423;0,0913477;-0,00509289;4,93412e+06;995415;0,149;0,0283266;0,0492647;-0,00286113;-0,0457118;0,0338825;0;-0,0457118;0,0338825;0;4,93412e+06;995415;0,149288;0;0;0,00305919;-0,456425;0,345292;0;-0,118988;0,160694;-0,00441005;-0,174463;0,000977678;-0,0977678;-0,00174463;-0,000248321;0;0,62274;0,269688;3,67627;-0,0244346;0,0439823;0;-2,94252;-0,197757;-1080;1080;-500;1700;-10;10;-10;-0;0;-0;250;1,2;0,2;177;-1,2;-1;2555;0,07;2343;5057;8;56579;
9,04756;-120;-0,143;337;121;2555;-336;-0,147309;0,111669;-0,000998881;-0,135901;0,0924684;-0,00510292;4,93412e+06;995415;0,143;0,0285768;0,0492313;-0,0027371;-0,0456955;0,0340554;0;-0,0456955;0,0340554;0;4,93412e+06;995415;0,143292;0;0;0,0031162;-0,456425;0,345292;0;-0,118732;0,1609;-0,00373598;-0,174463;0,000977678;-0,0977678;-0,00174463;-0,000238321;0;0,630144;0,249346;3,67677;-0,0256563;0,0406662;0;-2,94252;-0,197757;-1080;1080;-500;1700;-10;10;-10;-0;0;-0;250;1,2;0,2;177;-1,2;-1;2555;0,07;2343;5057;8;56579;
9,05758;-120;-0,143;337;121;2555;-336;-0,147357;0,111722;-0,000999797;-0,137378;0,0935882;-0,00511294;4,93412e+06;995415;0,143;0,0286253;0,0491782;-0,00273618;-0,0456372;0,0340975;0;-0,0456372;0,0340975;0;4,93412e+06;995415;0,143294;0;0;0,00316244;-0,456425;0,345292;0;-0,118732;0,1609;-0,00373598;-0,174463;0,000977678;-0,0977678;-0,00174463;-0,000238321;0;0,630076;0,249319;3,67743;-0,0256563;0,0406662;0;-2,94252;-0,197757;-1080;1080;-500;1700;-10;10;-10;-0;0;-0;250;1,2;0,2;177;-1,2;-1;2555;0,07;2343;5057;8;56579;
9,06748;-120;-0,137;337;121;2555;-336;-0,147311;0,111922;-0,000467192;-0,138836;0,094696;-0,00511756;4,93412e+06;995415;0,137;0,0288075;0,04916;-0,0026206;-0,045639;0,0342129;0;-0,045639;0,0342129;0;4,93412e+06;995415;0,137297;0;0;0,00321679;-0,456425;0,345292;0;-0,118503;0,161082;-0,00308779;-0,174463;0,000977678;-0,0977678;-0,00174463;-0,000228322;0;0,637528;0,230068;3,67743;-0,0268781;0,0375246;0;-2,94252;-0,197757;-1080;1080;-500;1700;-10;10;-10;-0;0;-0;250;1,2;0,2;177;-1,2;-1;2555;0,07;2343;5057;8;56579;
9,07761;-120;-0,133;337;122;2555;-336;-0,147186;0,11215;-4,29051e-05;-0,140327;0,0958321;-0,005118;4,93412e+06;995415;0,133;0,0289652;0,0491499;-0,00248495;-0,0456637;0,0342885;0;-0,0456637;0,0342885;0;4,93412e+06;995415;0,133297;0;0;0,00324426;-0,456425;0,348143;0;-0,11822;0,1613;-0,00252786;-0,174463;0,000977678;-0,0977678;-0,00174463;-0,000221655;0;0,640655;0,210793;3,67807;-0,0274017;0,034383;0;-2,94252;-0,197757;-1080;1080;-500;1700;-10;10;-10;-0;0;-0;250;1,2;0,2;177;-1,2;-1;2555;0,07;2343;5057;8;56579;
9,08758;-120;-0,132;337;122;2554;-336;-0,147049;0,112402;0,000279822;-0,141793;0,0969528;-0,00511521;4,93412e+06;995415;0,132;0,0290823;0,0490893;-0,00234019;-0,0456373;0,0343256;0;-0,0456373;0,0343256;0;4,93412e+06;995415;0,132298;0;0;0,0032681;-0,456247;0,348007;0,00255969;-0,117967;0,161492;-0,00206037;-0,174463;0,000977678;-0,0977678;-0,00174463;-0,000219989;0;0,640602;0,192593;3,67858;-0,0274017;0,0314159;0;-2,94252;-0,197757;-1080;1080;-500;1700;-10;10;-10;-0;0;-0;250;1,2;0,2;177;-1,2;-1;2555;0,07;2343;5057;8;56579;
9,09767;-120;-0,132;337;122;2554;-336;-0,147203;0,112322;0,000286558;-0,143279;0,0980862;-0,00511232;4,93412e+06;995415;0,132;0,0292359;0,0491695;-0,00234692;-0,0457003;0,0344872;0;-0,0457003;0,0344872;0;4,93412e+06;995415;0,132302;0;0;0,00332692;-0,456247;0,348007;0,00255969;-0,117967;0,161492;-0,00206037;-0,174463;0,000977678;-0,0977678;-0,00174463;-0,000219989;0;0,640561;0,192581;3,67896;-0,0274017;0,0314159;0;-2,94252;-0,197757;-1080;1080;-500;1700;-10;10;-10;-0;0;-0;250;1,2;0,2;177;-1,2;-1;2555;0,07;2343;5057;8;56579;
9,1076;-120;-0,131;337;122;2554;-336;-0,147066;0,112581;0,000604298;-0,14474;0,0992047;-0,00510631;4,93412e+06;995415;0,131;0,0293245;0,0490803;-0,00218702;-0,0456429;0,0345009;0;-0,0456429;0,0345009;0;4,93412e+06;995415;0,131303;0;0;0,00337418;-0,456247;0,348007;0,00255969;-0,117742;0,161661;-0,00158272;-0,174463;0,000977678;-0,0977678;-0,00174463;-0,000218322;0;0,639496;0,173328;3,67897;-0,0272271;0,0282743;0;-2,94252;-0,197757;-1080;1080;-500;1700;-10;10;-10;-0;0;-0;250;1,2;0,2;177;-1,2;-1;2555;0,07;2343;5057;8;56579;
9,1176;-120;-0,131;337;122;2554;-336;-0,147045;0,112661;0,000923576;-0,146211;0,100332;-0,00509707;4,93412e+06;995415;0,131;0,0294709;0,0491262;-0,00201892;-0,0457018;0,0346026;0;-0,0457018;0,0346026;0;4,93412e+06;995415;0,131306;0;0;0,00343007;-0,456247;0,348007;0,00255969;-0,117574;0,161788;-0,00109534;-0,174463;0,000977678;-0,0977678;-0,00174463;-0,000218322;0;0,637328;0,152994;3,67935;-0,0268781;0,0249582;0;-2,94252;-0,197757;-1080;1080;-500;1700;-10;10;-10;-0;0;-0;250;1,2;0,2;177;-1,2;-1;2555;0,07;2343;5057;8;56579;
9,12749;-120;-0,13;337;122;2554;-336;-0,147027;0,112794;0,00112165;-0,147663;0,101446;-0,00508599;4,93412e+06;995415;0,13;0,0295637;0,0490759;-0,00183485;-0,0456595;0,0346561;0;-0,0456595;0,0346561;0;4,93412e+06;995415;0,13031;0;0;0,0035069;-0,456247;0,348007;0,00255969;-0,117464;0,16187;-0,000713201;-0,174463;0,000977678;-0,0977678;-0,00174463;-0,000216656;0;0,630903;0,133731;3,67974;-0,0258309;0,0218166;0;-2,94252;-0,197757;-1080;1080;-500;1700;-10;10;-10;-0;0;-0;250;1,2;0,2;177;-1,2;-1;2555;0,07;2343;5057;8;56579;
9,13756;-120;-0,13;337;122;2554;-336;-0,147071;0,112765;0,00112339;-0,149145;0,102582;-0,00507467;4,93412e+06;995415;0,13;0,0296072;0,0491041;-0,00183659;-0,0456829;0,0347023;0;-0,0456829;0,0347023;0;4,93412e+06;995415;0,130313;0;0;0,003559;-0,456247;0,348007;0,00255969;-0,117464;0,16187;-0,000713201;-0,174463;0,000977678;-0,0977678;-0,00174463;-0,000216656;0;0,630879;0,133726;3,67997;-0,0258309;0,0218166;0;-2,94252;-0,197757;-1080;1080;-500;1700;-10;10;-10;-0;0;-0;250;1,2;0,2;177;-1,2;-1;2555;0,07;2343;5057;8;56579;
9,14758;-120;-0,129;337;122;2554;-336;-0,147008;0,112901;0,00121653;-0,150618;0,103714;-0,00506248;4,93412e+06;995415;0,129;0,0295971;0,0490082;-0,00167821;-0,0455957;0,0346646;0;-0,0455957;0,0346646;0;4,93412e+06;995415;0,129313;0;0;0,00357793;-0,456247;0,348007;0,00255969;-0,117411;0,161909;-0,000461679;-0,174463;0,000977678;-0,0977678;-0,00174463;-0,000214989;0;0,623428;0,11875;3,67998;-0,0246091;0,0193732;0;-2,94252;-0,197757;-1080;1080;-500;1700;-10;10;-10;-0;0;-0;250;1,2;0,2;177;-1,2;-1;2555;0,07;2343;5057;8;56579;
9,15762;-120;-0,127;337;122;2554;-336;-0,147078;0,112831;0,00115697;-0,152095;0,104846;-0,00505087;4,93412e+06;995415;0,127;0,029663;0,0490752;-0,00152986;-0,0456515;0,0347355;0;-0,0456515;0,0347355;0;4,93412e+06;995415;0,127315;0;0;0,00360805;-0,456247;0,348007;0,00255969;-0,117415;0,161906;-0,000372886;-0,174463;0,000977678;-0,0977678;-0,00174463;-0,000211656;0;0,611708;0,106982;3,68009;-0,0226893;0,0174533;0;-2,94252;-0,197757;-1080;1080;-500;1700;-10;10;-10;-0;0;-0;250;1,2;0,2;177;-1,2;-1;2555;0,07;2343;5057;8;56579;
9,16759;-120;-0,126;337;122;2554;-336;-0,147146;0,11278;0,0010752;-0,153562;0,10597;-0,00504015;4,93412e+06;995415;0,126;0,0296692;0,0490819;-0,00138742;-0,0456419;0,0347568;0;-0,0456419;0,0347568;0;4,93412e+06;995415;0,126316;0;0;0,00363304;-0,456247;0,348007;0,00255969;-0,117476;0,161862;-0,000312221;-0,174463;0,000977678;-0,0977678;-0,00174463;-0,000209989;0;0,600004;0,0962856;3,68002;-0,0207694;0,015708;0;-2,94252;-0,197757;-1080;1080;-500;1700;-10;10;-10;-0;0;-0;250;1,2;0,2;177;-1,2;-1;2555;0,07;2343;5057;8;56579;
9,17752;-120;-0,126;337;122;2554;-336;-0,147206;0,112768;0,00107662;-0,155024;0,107091;-0,00502946;4,93412e+06;995415;0,126;0,0297292;0,0490934;-0,00138884;-0,045647;0,0348177;0;-0,045647;0,0348177;0;4,93412e+06;995415;0,126321;0;0;0,00368772;-0,456247;0,348007;0,00255969;-0,117476;0,161862;-0,000312221;-0,174463;0,000977678;-0,0977678;-0,00174463;-0,000209989;0;0,600014;0,0962871;3,67992;-0,0207694;0,015708;0;-2,94252;-0,197757;-1080;1080;-500;1700;-10;10;-10;-0;0;-0;250;1,2;0,2;177;-1,2;-1;2555;0,07;2343;5057;8;56579;
9,18761;-120;-0,124;337;122;2554;-336;-0,147368;0,112551;0,000863986;-0,15651;0,108226;-0,00502074;4,93412e+06;995415;0,124;0,0296893;0,0491634;-0,00125645;-0,0456758;0,0348396;0;-0,0456758;0,0348396;0;4,93412e+06;995415;0,124323;0;0;0,00371459;-0,456247;0,348007;0,00255969;-0,117679;0,161714;-0,00039246;-0,174463;0,000977678;-0,0977678;-0,00174463;-0,000206656;0;0,585105;0,0887986;3,67992;-0,018326;0,0144862;0;-2,94252;-0,197757;-1080;1080;-500;1700;-10;10;-10;-0;0;-0;250;1,2;0,2;177;-1,2;-1;2555;0,07;2350;5080;8;56579;
9,19768;-120;-0,122;337;122;2554;-336;-0,147474;0,112435;0,000498194;-0,157995;0,109358;-0,00501573;4,93412e+06;995415;0,122;0,0295641;0,0491101;-0,00115364;-0,0455864;0,0347714;0;-0,0455864;0,0347714;0;4,93412e+06;995415;0,122322;0;0;0,00370732;-0,456247;0,348007;0,00255969;-0,11791;0,161545;-0,000655444;-0,174463;0,000977678;-0,0977678;-0,00174463;-0,000203323;0;0,568086;0,0866627;3,67967;-0,0155334;0,0141372;0;-2,94252;-0,197757;-1080;1080;-500;1700;-10;10;-10;-0;0;-0;250;1,2;0,2;177;-1,2;-1;2555;0,07;2350;5080;8;56579;
9,20751;-120;-0,12;338;122;2555;-336;-0,147711;0,112113;-1,21929e-05;-0,159447;0,11046;-0,00501585;4,93412e+06;995415;0,12;0,0295143;0,0492209;-0,00103763;-0,0456397;0,0348122;0;-0,0456397;0,0348122;0;4,93412e+06;995415;0,120323;0;0;0,00371166;-0,459273;0,348143;0;-0,118196;0,161334;-0,00104982;-0,174463;0,000977678;-0,0977678;-0,00174463;-0,00019999;0;0,545749;0,085599;3,67923;-0,0118682;0,0139626;0;-2,94252;-0,197757;-1080;1080;-500;1700;-10;10;-10;-0;0;-0;250;1,2;0,2;177;-1,2;-1;2555;0,07;2350;5080;8;56579;
9,21763;-120;-0,12;338;122;2555;-336;-0,147704;0,112124;-1,24418e-05;-0,160942;0,111595;-0,00501597;4,93412e+06;995415;0,12;0,0295072;0,0492091;-0,00103738;-0,0456288;0,0348038;0;-0,0456288;0,0348038;0;4,93412e+06;995415;0,120322;0;0;0,00371077;-0,459273;0,348143;0;-0,118196;0,161334;-0,00104982;-0,174463;0,000977678;-0,0977678;-0,00174463;-0,00019999;0;0,545804;0,0856075;3,67862;-0,0118682;0,0139626;0;-2,94252;-0,197757;-1080;1080;-500;1700;-10;10;-10;-0;0;-0;250;1,2;0,2;177;-1,2;-1;2555;0,07;2350;5080;8;56579;
9,22757;-120;-0,119;338;121;2555;-336;-0,147871;0,111879;-0,000599062;-0,162412;0,112707;-0,00502192;4,93412e+06;995415;0,119;0,0293898;0,0492412;-0,000918435;-0,0456116;0,034769;0;-0,0456116;0,034769;0;4,93412e+06;995415;0,119322;0;0;0,00368134;-0,459273;0,345292;0;-0,118482;0,16112;-0,0015175;-0,174463;0,000977678;-0,0977678;-0,00174463;-0,000198323;0;0,521284;0,0856075;3,67861;-0,00785398;0,0139626;0;-2,94252;-0,197757;-1080;1080;-500;1700;-10;10;-10;-0;0;-0;250;1,2;0,2;177;-1,2;-1;2555;0,07;2350;5080;8;56579;
9,23752;-120;-0,117;338;121;2555;-336;-0,148064;0,111574;-0,00120388;-0,163886;0,113818;-0,00503391;4,93412e+06;995415;0,117;0,0293551;0,0493736;-0,000810777;-0,0456971;0,0348124;0;-0,0456971;0,0348124;0;4,93412e+06;995415;0,117322;0;0;0,0036602;-0,459273;0,345292;0;-0,118709;0,160948;-0,00201465;-0,174463;0,000977678;-0,0977678;-0,00174463;-0,00019499;0;0,496813;0,0866875;3,67791;-0,00383972;0,0141372;0;-2,94252;-0,197757;-1080;1080;-500;1700;-10;10;-10;-0;0;-0;250;1,2;0,2;177;-1,2;-1;2555;0,07;2350;5080;8;56579;
9,24758;-120;-0,116;338;121;2555;-336;-0,148167;0,111356;-0,00178714;-0,165376;0,114937;-0,00505188;4,93412e+06;995415;0,116;0,0292898;0,0494609;-0,000707918;-0,0457534;0,0348051;0;-0,0457534;0,0348051;0;4,93412e+06;995415;0,116322;0;0;0,00363666;-0,459273;0,345292;0;-0,118877;0,160817;-0,00249506;-0,174463;0,000977678;-0,0977678;-0,00174463;-0,000193324;0;0,473398;0,087768;3,67718;0;0,0143117;0;-2,94252;-0,197757;-1080;1080;-500;1700;-10;10;-10;-0;0;-0;250;1,2;0,2;177;-1,2;-1;2555;0,07;2350;5080;8;56579;
9,2575;-120;-0,116;338;121;2555;-336;-0,148101;0,111389;-0,00178761;-0,166845;0,116043;-0,00506962;4,93412e+06;995415;0,116;0,0292239;0,049428;-0,000707447;-0,0457284;0,0347359;0;-0,0457284;0,0347359;0;4,93412e+06;995415;0,116321;0;0;0,00360668;-0,459273;0,345292;0;-0,118877;0,160817;-0,00249506;-0,174463;0,000977678;-0,0977678;-0,00174463;-0,000193324;0;0,473452;0,087778;3,67648;0;0,0143117;0;-2,94252;-0,197757;-1080;1080;-500;1700;-10;10;-10;-0;0;-0;250;1,2;0,2;177;-1,2;-1;2555;0,07;2350;5080;8;56579;
9,26748;-120;-0,114;338;121;2556;-336;-0,148196;0,11118;-0,00240212;-0,168325;0,117152;-0,00509359;4,93412e+06;995415;0,114;0,0291519;0,049505;-0,000586425;-0,0457751;0,0347213;0;-0,0457751;0,0347213;0;4,93412e+06;995415;0,11432;0;0;0,00358238;-0,459453;0,345427;-0,00255969;-0,119044;0,160685;-0,00298855;-0,174463;0,000977678;-0,0977678;-0,00174463;-0,00018999;0;0,447832;0,0877781;3,67648;0,00418879;0,0143117;0;-2,94252;-0,197757;-1080;1080;-500;1700;-10;10;-10;-0;0;-0;250;1,2;0,2;177;-1,2;-1;2555;0,07;2350;5080;8;56579;
9,2776;-120;-0,113;338;121;2556;-336;-0,148204;0,111099;-0,00299435;-0,169824;0,118277;-0,00512389;4,93412e+06;995415;0,113;0,0290524;0,0494964;-0,000470079;-0,0457522;0,0346539;0;-0,0457522;0,0346539;0;4,93412e+06;995415;0,113318;0;0;0,00355266;-0,459453;0,345427;-0,00255969;-0,119152;0,160595;-0,00346443;-0,174463;0,000977678;-0,0977678;-0,00174463;-0,000188324;0;0,423324;0,0877886;3,67575;0,00820305;0,0143117;0;-2,94252;-0,197757;-1080;1080;-500;1700;-10;10;-10;-0;0;-0;250;1,2;0,2;177;-1,2;-1;2555;0,07;2350;5080;8;56579;
