time 	e1	e2	ctrlpitch	ctrlroll	ctrlthrust	ctrlyaw	edx	edy	edz	cumulx	cumuly	cumulz	x_pred	y_pred	z_pred	dxr_pred	dyr_pred	dzr_pred	dxrT	dyrT	dzrT	dxrUn	dyrUn	dzrUn	x	y	z	dx	dy	dz	ux	uy	uz	dxd	dyd	dzd	Perpx	Tangx	Perpy	Tangy	Perpz	Tanz	ax	ay	az	pitch	roll	yaw	yawd	eyaw	kpvx	kpvy	kpvz	kpyaw	kivx	kivy	kivz	kdvx	kdvy	kdvz	kdyaw	ktg	veld	pitchoff	ke1	ke2	gravity	thr_vel	gps_accuracy	height_accuracy	gps_sat_num	gps_status
13.0726	-7.18845	-0.019	50	-50	1450	-50	-0.00830751	-0.199403	0.013013	-3.95105e-05	-0.000948362	6.189e-05	0.144456	0.233352	0.019	0	0	0	0	0	0	0	0	0	0.144456	0.233352	0.019	0	0	0	0.205665	-0.0810057	2.82845	-0.00830751	-0.199403	0.013013	-0.14891	0.0215992	-0.129387	-0.0248582	-0.000521409	0	-0	0	9.81	0.0945968	0.071733	0	-2.1251	-0.850265	-1080	1080	-500	1700	-10	10	-10	-0	0	-0	250	1.2	0.2	177	-1.2	-1	2555	0.07	2373	5015	8	56579	
13.0779	-7.18845	-0.027	100	-100	1500	-100	-0.0109962	-0.199261	0.0132035	-9.70426e-05	-0.00199089	0.000130971	0.144456	0.233352	0.027	0	0	0	0	0	0	0	0	0	0.144456	0.233352	0.027	0	0	0	0.129036	-0.167558	2.70047	-0.0109962	-0.199261	0.0132035	-0.148909	0.0215991	-0.129387	-0.0248581	-0.000740947	0	-0.0985022	0.458543	3.69437	0.0933751	0.0750492	0	-2.1251	-0.850265	-1080	1080	-500	1700	-10	10	-10	-0	0	-0	250	1.2	0.2	177	-1.2	-1	2555	0.07	2373	5015	8	56579	
13.0879	-7.18845	-0.031	150	-150	1550	-150	-0.0156843	-0.199598	0.0133683	-0.000254702	-0.00399725	0.000265349	0.144456	0.233352	0.031	0.00202422	0.000522941	0.000145865	0.00194996	-0.000768031	0	0.00194996	-0.000768031	0	0.144456	0.233352	0.031	0	0	0.0268171	0.0467625	-0.259612	2.57249	-0.0136601	-0.199075	0.0135142	-0.148909	0.0215991	-0.129387	-0.0248581	-0.000850715	0	-0.0888935	0.478745	3.6946	0.0918043	0.0783653	0	-2.1251	-0.850265	-1080	1080	-500	1700	-10	10	-10	-0	0	-0	250	1.2	0.2	177	-1.2	-1	2555	0.07	2373	5015	8	56579	
13.0979	-7.18851	-0.031	195	-200	1600	-200	-0.0173996	-0.199035	0.0131657	-0.000428854	-0.00598939	0.000397125	0.144473	0.233345	0.031	0.00373762	-3.96284e-05	0.000348268	0.00301382	-0.00223819	0	0.00301382	-0.00223819	0	0.144456	0.233352	0.0312293	0	0	0.0497852	-0.032181	-0.357117	2.4445	-0.013662	-0.199075	0.013514	-0.14891	0.0215987	-0.129385	-0.024858	-0.000850707	0	-0.0888906	0.478729	3.6948	0.0918043	0.0783653	0	-2.12517	-0.850231	-1080	1080	-500	1700	-10	10	-10	-0	0	-0	250	1.2	0.2	177	-1.2	-1	2555	0.07	2373	5015	8	56579	
13.1079	-7.18857	-0.037	200	-212	1650	-250	-0.0219382	-0.197084	0.0131467	-0.000648126	-0.00795925	0.000528526	0.1445	0.233325	0.037	0.00540366	-0.00175474	0.000627526	0.0034315	-0.00457135	0	0.0034315	-0.00457135	0	0.144456	0.233352	0.0376763	0	0	0.072877	-0.042405	-0.390312	2.31652	-0.0165345	-0.198839	0.0137743	-0.148912	0.021598	-0.129382	-0.0248582	-0.00101535	0	-0.071818	0.498963	3.69456	0.0890118	0.0816814	0	-2.12529	-0.850167	-1080	1080	-500	1700	-10	10	-10	-0	0	-0	250	1.2	0.2	177	-1.2	-1	2555	0.07	2373	5015	8	56579	
13.1179	-7.18854	-0.037	205	-209	1700	-300	-0.0261843	-0.193936	0.013112	-0.000908895	-0.00989066	0.000659109	0.144531	0.233284	0.037	0.00693279	-0.00463514	0.000988135	0.00314345	-0.00778737	0	0.00314345	-0.00778737	0	0.144456	0.233352	0.0383331	0	0	0.09491	-0.0531873	-0.396465	2.18853	-0.0192515	-0.198571	0.0141002	-0.148917	0.0215972	-0.129377	-0.024859	-0.00101535	0	-0.0504723	0.51492	3.69454	0.0855211	0.0842994	0	-2.12547	-0.850075	-1080	1080	-500	1700	-10	10	-10	-0	0	-0	250	1.2	0.2	177	-1.2	-1	2555	0.07	2373	5015	8	56579	
13.128	-7.18836	-0.035	209	-205	1750	-350	-0.0302233	-0.190434	0.013076	-0.00121473	-0.0118177	0.000791425	0.144559	0.233214	0.035	0.00849059	-0.00785584	0.00137945	0.00276577	-0.0113163	0	0.00276577	-0.0113163	0	0.144456	0.233352	0.0371935	0	0	0.115924	-0.0625729	-0.400336	2.06055	-0.0217328	-0.19829	0.0144555	-0.148924	0.0215964	-0.129369	-0.0248608	-0.000960494	0	-0.0269913	0.528748	3.6945	0.0816814	0.0865683	0	-2.12569	-0.849957	-1080	1080	-500	1700	-10	10	-10	-0	0	-0	250	1.2	0.2	177	-1.2	-1	2555	0.07	2373	5015	8	56579	
13.1381	-7.188	-0.035	211	-202	1800	-400	-0.0317746	-0.187222	0.0126697	-0.00153756	-0.0137198	0.00092015	0.144584	0.233112	0.035	0.0100289	-0.0110665	0.00178449	0.00228291	-0.0148666	0	0.00228291	-0.0148666	0	0.144456	0.233352	0.0382284	0	0	0.135441	-0.0683829	-0.405764	1.93256	-0.0217457	-0.198288	0.0144542	-0.148933	0.0215957	-0.129358	-0.0248636	-0.000960541	0	-0.0269915	0.528751	3.69446	0.0816814	0.0865683	0	-2.12596	-0.849814	-1080	1080	-500	1700	-10	10	-10	-0	0	-0	250	1.2	0.2	177	-1.2	-1	2555	0.07	2373	5015	8	56579	
13.1478	-7.18746	-0.027	215	-198	1850	-450	-0.036061	-0.183336	0.0129528	-0.00188691	-0.015496	0.00104564	0.144605	0.232978	0.027	0.0113312	-0.0145511	0.0021863	0.00172194	-0.0184918	0	0.00172194	-0.0184918	0	0.144456	0.233352	0.0314581	0	0	0.154171	-0.0785502	-0.408797	1.80458	-0.0247298	-0.197887	0.0151391	-0.148946	0.021595	-0.129344	-0.0248676	-0.000741046	0	0.00182739	0.547933	3.69397	0.076969	0.0897099	0	-2.12628	-0.849644	-1080	1080	-500	1700	-10	10	-10	-0	0	-0	250	1.2	0.2	177	-1.2	-1	2555	0.07	2373	5015	8	56579	
13.1579	-7.18672	-0.018	219	-193	1900	-500	-0.0396851	-0.17938	0.0132092	-0.00228789	-0.0173084	0.0011791	0.144621	0.232808	0.018	0.0125953	-0.0181446	0.00261435	0.00110915	-0.0222142	0	0.00110915	-0.0222142	0	0.144456	0.233352	0.0238823	0	0	0.172099	-0.0891642	-0.409269	1.67659	-0.0270898	-0.197524	0.0158235	-0.148961	0.0215943	-0.129327	-0.0248727	-0.000494082	0	0.023175	0.564909	3.69432	0.0734784	0.0925025	0	-2.12666	-0.849444	-1080	1080	-500	1700	-10	10	-10	-0	0	-0	250	1.2	0.2	177	-1.2	-1	2555	0.07	2373	5015	8	56579	
13.1679	-7.18638	-0.018	223	-190	1950	-550	-0.042948	-0.176347	0.0126867	-0.00271437	-0.0190596	0.00130508	0.144779	0.232555	0.018	0.0158194	-0.0211717	0.00313352	0.00224758	-0.0265191	0	0.00224758	-0.0265191	0	0.144456	0.233352	0.0253109	0	0	0.186819	-0.100225	-0.413526	1.54861	-0.0271286	-0.197519	0.0158202	-0.148987	0.0215902	-0.129296	-0.0248783	-0.000494105	0	0.0231738	0.564881	3.69463	0.0734784	0.0925025	0	-2.12764	-0.848928	-1080	1080	-500	1700	-10	10	-10	-0	0	-0	250	1.2	0.2	177	-1.2	-1	2555	0.07	2373	5015	8	56579	
13.1779	-7.18408	-0.011	224	-184	2000	-600	-0.0440685	-0.170853	0.0129445	-0.00315439	-0.0207655	0.00143433	0.144578	0.232316	0.011	0.0146663	-0.0262841	0.0035674	-0.00109537	-0.03029	0	-0.00109537	-0.03029	0	0.144456	0.233352	0.0178929	0	0	0.175908	-0.105029	-0.410764	1.42063	-0.0294022	-0.197137	0.0165119	-0.149002	0.021594	-0.129277	-0.0248887	-0.000302048	0	0.0391876	0.584067	3.694	0.0708604	0.095644	0	-2.12747	-0.849015	-1080	1080	-500	1700	-10	10	-10	-0	0	-0	250	1.2	0.2	177	-1.2	-1	2555	0.07	2373	5015	8	56579	
13.1879	-7.18135	-0.004	226	-177	2050	-650	-0.0456344	-0.164591	0.0129612	-0.00361261	-0.0224182	0.00156447	0.144397	0.231966	0.004	0.0143296	-0.0321985	0.00417911	-0.00412561	-0.0352495	0	-0.00412561	-0.0352495	0	0.144456	0.233352	0.0112144	0	0	0.174164	-0.112235	-0.405049	1.29264	-0.0313048	-0.19679	0.0171403	-0.149026	0.021597	-0.129247	-0.0249022	-0.000109876	0	0.0487918	0.601035	3.69432	0.0692896	0.0984366	0	-2.12759	-0.848954	-1080	1080	-500	1700	-10	10	-10	-0	0	-0	250	1.2	0.2	177	-1.2	-1	2555	0.07	2373	5015	8	56579	
13.1981	-7.17875	0.004	227	-172	2100	-700	-0.0470105	-0.159239	0.0130362	-0.00409094	-0.0240384	0.00169712	0.14423	0.231625	-0.004	0.0140114	-0.0372183	0.00473404	-0.00663885	-0.0394951	0	-0.00663885	-0.0394951	0	0.144456	0.233352	0.00340388	0	0	0.170361	-0.117319	-0.403229	1.16466	-0.0329991	-0.196457	0.0177703	-0.14905	0.0215998	-0.129216	-0.0249152	0.000109915	0	0.0562631	0.616964	3.69434	0.0680678	0.101055	0	-2.12773	-0.84888	-1080	1080	-500	1700	-10	10	-10	-0	0	-0	250	1.2	0.2	177	-1.2	-1	2555	0.07	2373	5015	8	56579	
13.2079	-7.17818	0.004	227	-170	2150	-750	-0.0466397	-0.158091	0.0129453	-0.00455057	-0.0255964	0.00182469	0.144186	0.231558	-0.004	0.013636	-0.0383652	0.00482461	-0.00754081	-0.0403019	0	-0.00754081	-0.0403019	0	0.144456	0.233352	0.00291173	0	0	0.158493	-0.120112	-0.408038	1.03667	-0.0330037	-0.196456	0.0177699	-0.149054	0.0216006	-0.129211	-0.0249179	0.000109923	0	0.0562622	0.616955	3.69443	0.0680678	0.101055	0	-2.12772	-0.848883	-1080	1080	-500	1700	-10	10	-10	-0	0	-0	250	1.2	0.2	177	-1.2	-1	2555	0.07	2373	5015	8	56579	
13.2179	-7.53297	0.013	226	-169	2200	-800	-0.0462247	-0.15713	0.0136086	-0.00501226	-0.0271658	0.00196062	0.177479	0.26487	-0.013	0.0126026	-0.0391502	0.00492857	-0.00841163	-0.0405598	0	-0.00841163	-0.0405598	0	0.177792	0.266688	-0.00653304	0	0	0.147158	-0.120448	-0.415076	0.908689	-0.0336221	-0.19628	0.0185371	-0.147272	0.0209653	-0.131609	-0.0234603	0.000340851	0	0.0637345	0.633954	3.69433	0.0668461	0.103847	0	-2.16114	-0.830747	-1080	1080	-500	1700	-10	10	-10	-0	0	-0	250	1.2	0.2	177	-1.2	-1	2555	0.07	2369	5020	8	56579	
13.2282	-7.53272	0.02	227	-169	2250	-850	-0.046974	-0.156243	0.013937	-0.00549483	-0.0287709	0.00210379	0.17744	0.264863	-0.02	0.011658	-0.0397047	0.00496251	-0.00916309	-0.0406576	0	-0.00916309	-0.0406576	0	0.177792	0.266688	-0.0140155	0	0	0.135393	-0.125699	-0.424509	0.780705	-0.035316	-0.195948	0.0188995	-0.147271	0.0209661	-0.13161	-0.023461	0.000524403	0	0.0722637	0.642363	3.69513	0.0654498	0.105243	0	-2.16106	-0.830796	-1080	1080	-500	1700	-10	10	-10	-0	0	-0	250	1.2	0.2	177	-1.2	-1	2555	0.07	2369	5020	8	56579	
13.238	-7.53246	0.033	229	-167	2300	-900	-0.0482022	-0.15519	0.014392	-0.00596639	-0.0302891	0.00224459	0.177406	0.264851	-0.033	0.010773	-0.0403165	0.00500685	-0.00980288	-0.0408711	0	-0.00980288	-0.0408711	0	0.177792	0.266688	-0.0274781	0	0	0.123854	-0.133631	-0.428817	0.65272	-0.0374291	-0.195506	0.0193988	-0.14727	0.0209666	-0.131609	-0.0234616	0.000865288	0	0.0829299	0.65081	3.69552	0.0637045	0.10664	0	-2.16099	-0.830834	-1080	1080	-500	1700	-10	10	-10	-0	0	-0	250	1.2	0.2	177	-1.2	-1	2555	0.07	2369	5020	8	56579	
13.2479	-7.53217	0.033	228	-167	2350	-950	-0.0477271	-0.154614	0.0143609	-0.00644051	-0.0318251	0.00238725	0.177366	0.26484	-0.033	0.0102994	-0.0408923	0.0050381	-0.0104941	-0.0411523	0	-0.0104941	-0.0411523	0	0.177792	0.266688	-0.0279264	0	0	0.112473	-0.13391	-0.438139	0.524736	-0.0374278	-0.195507	0.019399	-0.147269	0.0209674	-0.131609	-0.0234625	0.00086532	0	0.0829224	0.650752	3.69607	0.0637045	0.10664	0	-2.1609	-0.830882	-1080	1080	-500	1700	-10	10	-10	-0	0	-0	250	1.2	0.2	177	-1.2	-1	2555	0.07	2369	5020	8	56579	
13.2578	-7.53205	0.043	229	-166	2400	-1000	-0.0486808	-0.153797	0.0145807	-0.00692342	-0.0333508	0.00253189	0.177333	0.264851	-0.043	0.00939162	-0.0413238	0.00501847	-0.0111104	-0.041202	0	-0.0111104	-0.041202	0	0.177792	0.266688	-0.038424	0	0	0.100547	-0.139441	-0.444786	0.396751	-0.0392892	-0.195121	0.0195992	-0.147267	0.020968	-0.13161	-0.0234624	0.00112755	0	0.0925257	0.651817	3.69604	0.0621337	0.106814	0	-2.1608	-0.83094	-1080	1080	-500	1700	-10	10	-10	-0	0	-0	250	1.2	0.2	177	-1.2	-1	2555	0.07	2369	5020	8	56579	
13.2679	-7.53177	0.058	230	-165	2450	-1050	-0.0499165	-0.152618	0.0148073	-0.00742444	-0.0348826	0.00268051	0.177299	0.264835	-0.058	0.00865699	-0.0420726	0.00502267	-0.0116963	-0.041635	0	-0.0116963	-0.041635	0	0.177792	0.266688	-0.0538666	0	0	0.089226	-0.145083	-0.451322	0.268767	-0.0412595	-0.194691	0.01983	-0.147265	0.0209684	-0.131608	-0.023463	0.00152092	0	0.103191	0.649666	3.69631	0.0603884	0.106465	0	-2.16074	-0.830974	-1080	1080	-500	1700	-10	10	-10	-0	0	-0	250	1.2	0.2	177	-1.2	-1	2555	0.07	2369	5020	8	56579	
13.2779	-7.53169	0.069	232	-164	2500	-1100	-0.0514139	-0.151647	0.0148424	-0.00794027	-0.0364041	0.00282942	0.17728	0.264842	-0.069	0.00789019	-0.0425535	0.00495533	-0.0121144	-0.0418431	0	-0.0121144	-0.0418431	0	0.177792	0.266688	-0.065339	0	0	0.0775842	-0.153629	-0.457746	0.140783	-0.0435237	-0.1942	0.0197977	-0.147262	0.0209685	-0.131607	-0.0234628	0.00180936	0	0.118121	0.64221	3.69658	0.0579449	0.105243	0	-2.16068	-0.831008	-1080	1080	-500	1700	-10	10	-10	-0	0	-0	250	1.2	0.2	177	-1.2	-1	2555	0.07	2369	5020	8	56579	
13.2879	-7.53152	0.069	232	-163	2547	-1150	-0.0511554	-0.15108	0.0147976	-0.00845034	-0.0379105	0.00297697	0.177256	0.264835	-0.069	0.00763255	-0.0431209	0.00500024	-0.0126	-0.0422363	0	-0.0126	-0.0422363	0	0.177792	0.266688	-0.0657867	0	0	0.066207	-0.156517	-0.463513	0.0204775	-0.0435229	-0.1942	0.0197978	-0.147262	0.020969	-0.131607	-0.0234633	0.0018094	0	0.118121	0.642205	3.69663	0.0579449	0.105243	0	-2.16063	-0.831036	-1080	1080	-500	1700	-10	10	-10	-0	0	-0	250	1.2	0.2	177	-1.2	-1	2555	0.07	2369	5020	8	56579	
13.298	-7.53132	0.089	234	-162	2547	-1200	-0.0527372	-0.149761	0.0150297	-0.00898236	-0.0394213	0.00312859	0.177237	0.264817	-0.089	0.00694205	-0.0438957	0.00497166	-0.013071	-0.0427656	0	-0.013071	-0.0427656	0	0.177792	0.266688	-0.0862431	0	0	0.0547339	-0.162208	-0.460674	0.0204775	-0.0457952	-0.193656	0.0200014	-0.147259	0.0209688	-0.131602	-0.0234634	0.00233386	0	0.13199	0.634782	3.69658	0.055676	0.104022	0	-2.16061	-0.831046	-1080	1080	-500	1700	-10	10	-10	-0	0	-0	250	1.2	0.2	177	-1.2	-1	2555	0.07	2369	5020	8	56579	
13.3079	-7.53111	0.108	235	-160	2547	-1250	-0.054491	-0.148337	0.015197	-0.00952465	-0.0408975	0.00327983	0.177222	0.264791	-0.108	0.00629674	-0.0447206	0.00495525	-0.0134816	-0.0433864	0	-0.0134816	-0.0433864	0	0.177792	0.266688	-0.105712	0	0	0.0432092	-0.165053	-0.454996	0.0204775	-0.0481942	-0.193058	0.0201523	-0.147256	0.0209684	-0.131596	-0.0234636	0.00283209	0	0.14265	0.627324	3.69686	0.0539307	0.1028	0	-2.16061	-0.831043	-1080	1080	-500	1700	-10	10	-10	-0	0	-0	250	1.2	0.2	177	-1.2	-1	2555	0.07	2369	5020	8	56579	
13.3179	-7.53088	0.126	237	-159	2547	-1300	-0.0560084	-0.14701	0.0154502	-0.0100828	-0.0423625	0.00343379	0.177208	0.264762	-0.126	0.00566067	-0.0454682	0.00497683	-0.0138937	-0.0439447	0	-0.0138937	-0.0439447	0	0.177792	0.266688	-0.124181	0	0	0.0329514	-0.170743	-0.452157	0.0204775	-0.0503477	-0.192478	0.0204271	-0.147252	0.0209679	-0.131589	-0.0234638	0.00330408	0	0.147979	0.62518	3.69706	0.053058	0.102451	0	-2.16063	-0.831035	-1080	1080	-500	1700	-10	10	-10	-0	0	-0	250	1.2	0.2	177	-1.2	-1	2555	0.07	2369	5020	8	56579	
13.328	-7.53055	0.126	237	-158	2547	-1350	-0.0557689	-0.146311	0.0153913	-0.010646	-0.0438402	0.00358925	0.177183	0.264725	-0.126	0.00541883	-0.0461665	0.00503571	-0.0144057	-0.0444808	0	-0.0144057	-0.0444808	0	0.177792	0.266688	-0.124632	0	0	0.0240088	-0.170743	-0.449318	0.0204775	-0.0503501	-0.192478	0.020427	-0.147255	0.0209683	-0.131586	-0.0234652	0.00330422	0	0.147971	0.625149	3.69737	0.053058	0.102451	0	-2.16063	-0.831035	-1080	1080	-500	1700	-10	10	-10	-0	0	-0	250	1.2	0.2	177	-1.2	-1	2555	0.07	2369	5020	8	56579	
13.3378	-7.53029	0.14	238	-157	2547	-1400	-0.0567905	-0.145255	0.0156391	-0.0112061	-0.0452726	0.00374346	0.177158	0.264702	-0.14	0.00463581	-0.0467112	0.00506721	-0.0149319	-0.04479	0	-0.0149319	-0.04479	0	0.177792	0.266688	-0.139056	0	0	0.0163613	-0.173588	-0.446479	0.0204775	-0.0521547	-0.191967	0.0207063	-0.147251	0.0209681	-0.13158	-0.0234654	0.00367137	0	0.146906	0.627278	3.6973	0.0532325	0.1028	0	-2.1606	-0.831049	-1080	1080	-500	1700	-10	10	-10	-0	0	-0	250	1.2	0.2	177	-1.2	-1	2555	0.07	2369	5020	8	56579	
13.3479	-7.5301	0.163	239	-156	2546	-1412	-0.0580661	-0.144257	0.0162023	-0.011792	-0.0467283	0.00390696	0.177144	0.264681	-0.163	0.00392988	-0.0470891	0.00515011	-0.0152791	-0.04501	0	-0.0152791	-0.04501	0	0.177792	0.266688	-0.162447	0	0	0.00993126	-0.176364	-0.443465	0.0230372	-0.0541362	-0.191346	0.0213524	-0.147244	0.0209671	-0.131571	-0.0234648	0.00427437	0	0.136234	0.636797	3.6976	0.0549779	0.104371	0	-2.1606	-0.831049	-1080	1080	-500	1700	-10	10	-10	-0	0	-0	250	1.2	0.2	177	-1.2	-1	2555	0.07	2369	5020	8	56579	
13.3579	-7.52985	0.18	240	-155	2546	-1412	-0.0591023	-0.143293	0.0166102	-0.0123837	-0.0481628	0.00407324	0.177119	0.264659	-0.18	0.00312934	-0.0474657	0.00525573	-0.0157425	-0.0451949	0	-0.0157425	-0.0451949	0	0.177792	0.266688	-0.17978	0	0	0.00483707	-0.179208	-0.440627	0.0230372	-0.0559729	-0.190759	0.0218659	-0.147237	0.0209666	-0.131563	-0.0234646	0.00472008	0	0.117022	0.649456	3.69828	0.0581195	0.106465	0	-2.16058	-0.831064	-1080	1080	-500	1700	-10	10	-10	-0	0	-0	250	1.2	0.2	177	-1.2	-1	2555	0.07	2369	5020	8	56579	
13.368	-7.5296	0.18	240	-154	2546	-1412	-0.0587367	-0.143003	0.0166007	-0.0129725	-0.0495964	0.00423967	0.177094	0.264639	-0.18	0.00276323	-0.0477555	0.00526528	-0.016193	-0.0453181	0	-0.016193	-0.0453181	0	0.177792	0.266688	-0.18005	0	0	0.00104149	-0.179208	-0.437788	0.0230372	-0.0559734	-0.190759	0.021866	-0.147238	0.0209671	-0.131561	-0.0234655	0.00472023	0	0.117013	0.649403	3.69878	0.0581195	0.106465	0	-2.16054	-0.831081	-1080	1080	-500	1700	-10	10	-10	-0	0	-0	250	1.2	0.2	177	-1.2	-1	2555	0.07	2369	5020	8	56579	
13.3814	-7.69523	0.213	233	-156	2546	-1462	-0.0521986	-0.144135	0.0177351	-0.0136767	-0.0515409	0.00447893	0.143732	0.3313	-0.213	0.00150664	-0.0479507	0.00536352	-0.0166349	-0.0453166	0	-0.0166349	-0.0453166	0	0.144456	0.33336	-0.213242	0	0	-0.00148186	-0.1593	-0.443465	0.0230372	-0.0506919	-0.192085	0.0230986	-0.140714	0.0216195	-0.138639	-0.0219431	0.00546775	0	0.0551557	0.666371	3.69877	0.0682424	0.109258	0	-1.98013	-0.917385	-1080	1080	-500	1700	-10	10	-10	-0	0	-0	250	1.2	0.2	177	-1.2	-1	2555	0.07	2366	5026	8	56579	
13.3879	-7.69514	0.213	233	-156	2546	-1512	-0.0518808	-0.144163	0.0177601	-0.014011	-0.0524697	0.00459336	0.143717	0.3313	-0.213	0.00118981	-0.0479223	0.00533862	-0.0169179	-0.0451691	0	-0.0169179	-0.0451691	0	0.144456	0.33336	-0.213343	0	0	-0.002718	-0.1593	-0.443465	0.0230372	-0.0506909	-0.192086	0.0230987	-0.140714	0.0216198	-0.138639	-0.0219432	0.00546781	0	0.0551434	0.666222	3.70014	0.0682424	0.109258	0	-1.98009	-0.9174	-1080	1080	-500	1700	-10	10	-10	-0	0	-0	250	1.2	0.2	177	-1.2	-1	2555	0.07	2366	5026	8	56579	
13.398	-7.69403	0.228	234	-154	2546	-1559	-0.0529468	-0.142265	0.0175495	-0.0145465	-0.0539086	0.00477085	0.143646	0.331171	-0.228	0.000662929	-0.0494016	0.00547772	-0.0175901	-0.0464925	0	-0.0175901	-0.0464925	0	0.144456	0.33336	-0.228364	0	0	-0.00275599	-0.162144	-0.437788	0.0230372	-0.0522838	-0.191667	0.0230273	-0.140714	0.0216203	-0.138622	-0.0219465	0.00585337	0	0.0156883	0.667278	3.70017	0.0747001	0.109432	0	-1.98006	-0.917415	-1080	1080	-500	1700	-10	10	-10	-0	0	-0	250	1.2	0.2	177	-1.2	-1	2555	0.07	2366	5026	8	56579	
13.4078	-7.69518	0.228	234	-156	2546	-1559	-0.0528284	-0.144163	0.0177661	-0.0150661	-0.0553265	0.00494558	0.14369	0.331335	-0.228	0.00055729	-0.0475073	0.00526163	-0.0169902	-0.0446796	0	-0.0169902	-0.0446796	0	0.144456	0.33336	-0.228333	0	0	-0.0025797	-0.162144	-0.443465	0.0230372	-0.0522711	-0.19167	0.0230277	-0.140702	0.0216191	-0.138635	-0.0219414	0.00585251	0	0.0156889	0.667305	3.69992	0.0747001	0.109432	0	-1.97999	-0.917443	-1080	1080	-500	1700	-10	10	-10	-0	0	-0	250	1.2	0.2	177	-1.2	-1	2555	0.07	2366	5026	8	56579	
13.418	-7.69518	0.247	235	-155	2546	-1559	-0.0539134	-0.143901	0.0177159	-0.0156128	-0.0567859	0.00512526	0.14368	0.331344	-0.247	8.52073e-05	-0.047351	0.00520121	-0.0170224	-0.0444907	0	-0.0170224	-0.0444907	0	0.144456	0.33336	-0.24733	0	0	-0.00252635	-0.164988	-0.440627	0.0230372	-0.0538281	-0.191252	0.0229171	-0.140691	0.0216176	-0.138626	-0.0219396	0.00633975	0	-0.0301653	0.666216	3.70019	0.082205	0.109258	0	-1.97995	-0.917457	-1080	1080	-500	1700	-10	10	-10	-0	0	-0	250	1.2	0.2	177	-1.2	-1	2555	0.07	2366	5026	8	56579	
13.4278	-7.69528	0.268	236	-155	2546	-1559	-0.0550388	-0.143687	0.0177416	-0.0161554	-0.0582022	0.00530014	0.143682	0.331359	-0.268	-0.000214405	-0.0471615	0.00514578	-0.0169166	-0.0443234	0	-0.0169166	-0.0443234	0	0.144456	0.33336	-0.268325	0	0	-0.00246945	-0.167832	-0.440627	0.0230372	-0.0552532	-0.190849	0.0228873	-0.140677	0.0216156	-0.138615	-0.0219372	0.00687807	0	-0.0717526	0.665163	3.70013	0.0890118	0.109083	0	-1.97994	-0.917461	-1080	1080	-500	1700	-10	10	-10	-0	0	-0	250	1.2	0.2	177	-1.2	-1	2555	0.07	2366	5026	8	56579	
13.4379	-7.69526	0.285	237	-155	2546	-1559	-0.0561037	-0.143316	0.0176822	-0.0167217	-0.0596489	0.00547862	0.143678	0.33136	-0.285	-0.000565688	-0.0471284	0.00510691	-0.0169174	-0.0442865	0	-0.0169174	-0.0442865	0	0.144456	0.33336	-0.285322	0	0	-0.00241977	-0.170676	-0.440627	0.0230372	-0.0566694	-0.190445	0.0227892	-0.140666	0.021614	-0.138605	-0.0219355	0.00731381	0	-0.111203	0.665159	3.70016	0.0954695	0.109083	0	-1.97993	-0.917466	-1080	1080	-500	1700	-10	10	-10	-0	0	-0	250	1.2	0.2	177	-1.2	-1	2555	0.07	2366	5026	8	56579	
13.4478	-7.69539	0.285	237	-155	2546	-1559	-0.0561012	-0.143524	0.0177051	-0.0172774	-0.0610705	0.00565399	0.143684	0.331377	-0.285	-0.000566975	-0.0469212	0.00508409	-0.0168466	-0.0440904	0	-0.0168466	-0.0440904	0	0.144456	0.33336	-0.285315	0	0	-0.00235823	-0.170676	-0.440627	0.0230372	-0.0566682	-0.190445	0.0227892	-0.140665	0.0216139	-0.138606	-0.0219349	0.00731369	0	-0.111204	0.665166	3.7001	0.0954695	0.109083	0	-1.97993	-0.917467	-1080	1080	-500	1700	-10	10	-10	-0	0	-0	250	1.2	0.2	177	-1.2	-1	2555	0.07	2366	5026	8	56579	
13.458	-7.69537	0.308	239	-155	2546	-1559	-0.0573253	-0.142995	0.0177539	-0.0178573	-0.062517	0.00583359	0.143686	0.331372	-0.308	-0.000938196	-0.0469664	0.00504713	-0.0168574	-0.0441365	0	-0.0168574	-0.0441365	0	0.144456	0.33336	-0.308314	0	0	-0.00233532	-0.176364	-0.440627	0.0230372	-0.0582635	-0.189962	0.0228011	-0.140649	0.0216114	-0.13859	-0.0219326	0.00790305	0	-0.150651	0.665163	3.70013	0.101927	0.109083	0	-1.97994	-0.917464	-1080	1080	-500	1700	-10	10	-10	-0	0	-0	250	1.2	0.2	177	-1.2	-1	2555	0.07	2366	5026	8	56579	
13.469	-7.6955	0.33	240	-154	2545	-1559	-0.0585361	-0.142665	0.0179112	-0.0185023	-0.0640892	0.00603097	0.143699	0.331382	-0.33	-0.00121704	-0.0468174	0.00502	-0.0167408	-0.0440261	0	-0.0167408	-0.0440261	0	0.144456	0.33336	-0.330311	0	0	-0.00230262	-0.179137	-0.437616	0.0255969	-0.0597531	-0.189483	0.0229312	-0.140633	0.0216086	-0.138574	-0.0219296	0.00846644	0	-0.18476	0.668336	3.70019	0.107512	0.109607	0	-1.97996	-0.917454	-1080	1080	-500	1700	-10	10	-10	-0	0	-0	250	1.2	0.2	177	-1.2	-1	2555	0.07	2366	5026	8	56579	
13.4778	-7.69559	0.344	241	-154	2545	-1559	-0.05992	-0.142138	0.0179126	-0.0190323	-0.0653464	0.00618941	0.143727	0.33137	-0.344	-0.00133593	-0.0468596	0.00505451	-0.0165309	-0.0441575	0	-0.0165309	-0.0441575	0	0.144456	0.33336	-0.344316	0	0	-0.00236182	-0.18198	-0.437616	0.0255969	-0.0612559	-0.188998	0.0229671	-0.140624	0.0216064	-0.138562	-0.021928	0.00882483	0	-0.215661	0.674674	3.70039	0.112574	0.110654	0	-1.98004	-0.91742	-1080	1080	-500	1700	-10	10	-10	-0	0	-0	250	1.2	0.2	177	-1.2	-1	2555	0.07	2366	5026	8	56579	
13.488	-7.69526	0.344	241	-153	2545	-1559	-0.0597015	-0.14166	0.0178847	-0.019639	-0.0667859	0.00637115	0.143707	0.331332	-0.344	-0.00155662	-0.0473373	0.00508248	-0.0168957	-0.0445377	0	-0.0168957	-0.0445377	0	0.144456	0.33336	-0.344323	0	0	-0.00235946	-0.18198	-0.434779	0.0255969	-0.0612582	-0.188997	0.0229672	-0.140626	0.0216069	-0.138559	-0.0219293	0.0088252	0	-0.215661	0.674673	3.70039	0.112574	0.110654	0	-1.98003	-0.917425	-1080	1080	-500	1700	-10	10	-10	-0	0	-0	250	1.2	0.2	177	-1.2	-1	2555	0.07	2366	5026	8	56579	
13.498	-7.69664	0.368	242	-155	2545	-1559	-0.0606687	-0.143332	0.018523	-0.020248	-0.0682247	0.00655709	0.143764	0.331521	-0.368	-0.00209722	-0.0451213	0.00483641	-0.0163646	-0.0423783	0	-0.0163646	-0.0423783	0	0.144456	0.33336	-0.368289	0	0	-0.00217157	-0.184823	-0.440454	0.0255969	-0.0627659	-0.188454	0.0233594	-0.140593	0.0216024	-0.138555	-0.0219202	0.00943794	0	-0.244432	0.684214	3.70036	0.117286	0.112225	0	-1.97997	-0.917449	-1080	1080	-500	1700	-10	10	-10	-0	0	-0	250	1.2	0.2	177	-1.2	-1	2555	0.07	2366	5026	8	56579	
13.508	-7.69545	0.391	243	-152	2545	-1559	-0.0616548	-0.14093	0.0186772	-0.0208612	-0.0696264	0.00674285	0.143702	0.33137	-0.391	-0.00273948	-0.0469279	0.00504723	-0.0171947	-0.0440404	0	-0.0171947	-0.0440404	0	0.144456	0.33336	-0.391316	0	0	-0.00228657	-0.187665	-0.431941	0.0255969	-0.0643943	-0.187858	0.0237244	-0.140583	0.0216008	-0.138523	-0.021922	0.0100279	0	-0.279554	0.69684	3.70113	0.123046	0.114319	0	-1.97998	-0.917446	-1080	1080	-500	1700	-10	10	-10	-0	0	-0	250	1.2	0.2	177	-1.2	-1	2555	0.07	2366	5026	8	56579	
13.518	-7.69543	0.406	244	-152	2545	-1559	-0.0624339	-0.140467	0.0188737	-0.0214852	-0.0710302	0.00693147	0.143691	0.331379	-0.406	-0.00332101	-0.0468938	0.00504487	-0.0174369	-0.0439484	0	-0.0174369	-0.0439484	0	0.144456	0.33336	-0.406312	0	0	-0.00223085	-0.190508	-0.431941	0.0255969	-0.0657549	-0.187361	0.0239186	-0.140568	0.0215989	-0.138511	-0.0219197	0.0104116	0	-0.310428	0.708468	3.70132	0.128107	0.116239	0	-1.97994	-0.917461	-1080	1080	-500	1700	-10	10	-10	-0	0	-0	250	1.2	0.2	177	-1.2	-1	2555	0.07	2366	5026	8	56579	
13.5278	-7.69534	0.406	244	-152	2545	-1559	-0.0621621	-0.140417	0.0189032	-0.022099	-0.0724167	0.00711812	0.143678	0.331376	-0.406	-0.00359235	-0.0469441	0.00501556	-0.0177118	-0.0439102	0	-0.0177118	-0.0439102	0	0.144456	0.33336	-0.406312	0	0	-0.00220769	-0.190508	-0.431941	0.0255969	-0.0657544	-0.187361	0.0239188	-0.140568	0.0215992	-0.138511	-0.02192	0.0104117	0	-0.310415	0.70844	3.70156	0.128107	0.116239	0	-1.97991	-0.917473	-1080	1080	-500	1700	-10	10	-10	-0	0	-0	250	1.2	0.2	177	-1.2	-1	2555	0.07	2366	5026	8	56579	
13.5379	-7.69533	0.422	245	-151	2545	-1559	-0.062987	-0.139998	0.0190448	-0.0227361	-0.0738329	0.00731078	0.143668	0.331383	-0.422	-0.00419386	-0.0468435	0.00497706	-0.0179407	-0.0437585	0	-0.0179407	-0.0437585	0	0.144456	0.33336	-0.42231	0	0	-0.00217884	-0.19335	-0.429104	0.0255969	-0.0671809	-0.186841	0.0240219	-0.140552	0.021597	-0.138497	-0.0219175	0.0108208	0	-0.343416	0.717965	3.7016	0.133518	0.11781	0	-1.97988	-0.917486	-1080	1080	-500	1700	-10	10	-10	-0	0	-0	250	1.2	0.2	177	-1.2	-1	2555	0.07	2366	5026	8	56579	
13.5479	-7.69529	0.433	246	-151	2545	-1559	-0.0639161	-0.13951	0.0189875	-0.0233754	-0.0752282	0.00750068	0.143659	0.331386	-0.433	-0.0047705	-0.0467965	0.00493232	-0.0181421	-0.0436791	0	-0.0181421	-0.0436791	0	0.144456	0.33336	-0.433308	0	0	-0.00215361	-0.196193	-0.429104	0.0255969	-0.0686866	-0.186306	0.0239198	-0.14054	0.0215955	-0.138486	-0.0219158	0.0111021	0	-0.377461	0.726414	3.70178	0.139103	0.119206	0	-1.97985	-0.917496	-1080	1080	-500	1700	-10	10	-10	-0	0	-0	250	1.2	0.2	177	-1.2	-1	2555	0.07	2366	5026	8	56579	
13.558	-7.69522	0.437	247	-150	2545	-1559	-0.064973	-0.138947	0.0186648	-0.0240262	-0.07662	0.00768764	0.143643	0.331389	-0.437	-0.00551506	-0.0467364	0.00485687	-0.0184297	-0.0435734	0	-0.0184297	-0.0435734	0	0.144456	0.33336	-0.437307	0	0	-0.00212849	-0.199035	-0.426266	0.0255969	-0.0704881	-0.185683	0.0235216	-0.140536	0.0215952	-0.138483	-0.0219153	0.0112045	0	-0.417891	0.735947	3.70171	0.145735	0.120777	0	-1.97981	-0.917514	-1080	1080	-500	1700	-10	10	-10	-0	0	-0	250	1.2	0.2	177	-1.2	-1	2555	0.07	2366	5026	8	56579	
13.5679	-7.69517	0.437	247	-150	2545	-1559	-0.0647115	-0.138974	0.0187068	-0.0246722	-0.0780072	0.00787437	0.143631	0.331393	-0.437	-0.00577546	-0.0467096	0.00481511	-0.0186737	-0.0434698	0	-0.0186737	-0.0434698	0	0.144456	0.33336	-0.437302	0	0	-0.00207477	-0.199035	-0.426266	0.0255969	-0.070487	-0.185683	0.0235219	-0.140535	0.0215954	-0.138484	-0.0219153	0.0112045	0	-0.417917	0.735993	3.70133	0.145735	0.120777	0	-1.97977	-0.917528	-1080	1080	-500	1700	-10	10	-10	-0	0	-0	250	1.2	0.2	177	-1.2	-1	2555	0.07	2366	5026	8	56579	
13.5779	-7.69517	0.436	248	-150	2545	-1559	-0.0659255	-0.138435	0.0183174	-0.0253268	-0.0793819	0.00805626	0.143623	0.3314	-0.436	-0.00649547	-0.0465592	0.00475886	-0.0188827	-0.0433133	0	-0.0188827	-0.0433133	0	0.144456	0.33336	-0.436302	0	0	-0.00207271	-0.201878	-0.426266	0.0255969	-0.0724209	-0.184994	0.0230763	-0.140535	0.0215957	-0.138486	-0.0219153	0.011179	0	-0.460449	0.750802	3.70138	0.152716	0.12322	0	-1.97974	-0.917539	-1080	1080	-500	1700	-10	10	-10	-0	0	-0	250	1.2	0.2	177	-1.2	-1	2555	0.07	2366	5026	8	56579	
13.5879	-7.69549	0.429	249	-150	2546	-1559	-0.067219	-0.138393	0.0178237	-0.0260003	-0.0807686	0.00823486	0.143633	0.331447	-0.429	-0.00709657	-0.0459218	0.00465171	-0.0188555	-0.0427233	0	-0.0188555	-0.0427233	0	0.144456	0.33336	-0.429293	0	0	-0.00202312	-0.204801	-0.426434	0.0230372	-0.0743156	-0.184315	0.0224754	-0.140539	0.0215965	-0.138496	-0.021915	0.0109996	0	-0.500875	0.765671	3.70092	0.159349	0.125664	0	-1.97972	-0.91755	-1080	1080	-500	1700	-10	10	-10	-0	0	-0	250	1.2	0.2	177	-1.2	-1	2555	0.07	2366	5026	8	56579	
13.599	-7.69508	0.418	251	-149	2546	-1559	-0.0682877	-0.137264	0.0171053	-0.0267551	-0.0822858	0.00842392	0.143604	0.331403	-0.418	-0.00786427	-0.0463866	0.00464686	-0.0192897	-0.0431633	0	-0.0192897	-0.0431633	0	0.144456	0.33336	-0.418305	0	0	-0.00210208	-0.210488	-0.423595	0.0230372	-0.076152	-0.183651	0.0217521	-0.140552	0.0215988	-0.138504	-0.0219182	0.0107189	0	-0.541296	0.780553	3.70033	0.165981	0.128107	0	-1.97969	-0.91756	-1080	1080	-500	1700	-10	10	-10	-0	0	-0	250	1.2	0.2	177	-1.2	-1	2555	0.07	2366	5026	8	56579	
13.608	-7.69516	0.418	250	-149	2546	-1559	-0.0680235	-0.137486	0.0171783	-0.0273682	-0.0835249	0.00857875	0.143596	0.331425	-0.418	-0.00812607	-0.0461665	0.00457428	-0.0194904	-0.0428769	0	-0.0194904	-0.0428769	0	0.144456	0.33336	-0.418296	0	0	-0.00203962	-0.207644	-0.423595	0.0230372	-0.0761495	-0.183652	0.0217526	-0.14055	0.0215989	-0.138506	-0.0219177	0.0107188	0	-0.541372	0.780663	3.69948	0.165981	0.128107	0	-1.97965	-0.917578	-1080	1080	-500	1700	-10	10	-10	-0	0	-0	250	1.2	0.2	177	-1.2	-1	2555	0.07	2366	5026	8	56579	
13.618	-8.35185	0.406	241	-152	2546	-1609	-0.0596947	-0.13998	0.0177653	-0.0279676	-0.0849305	0.00875713	0.143568	0.442509	-0.406	-0.00896689	-0.0465356	0.00453973	-0.0199474	-0.0432282	0	-0.0199474	-0.0432282	0	0.144456	0.44448	-0.406302	0	0	-0.00208617	-0.182051	-0.432111	0.0230372	-0.0686616	-0.186516	0.0223051	-0.131884	0.0211689	-0.147333	-0.0189493	0.00961245	0	-0.577472	0.795457	3.69957	0.171915	0.130551	0	-1.88452	-0.95119	-1080	1080	-500	1700	-10	10	-10	-0	0	-0	250	1.2	0.2	177	-1.2	-1	2555	0.07	2375	5041	8	56579	
13.628	-8.35215	0.395	243	-152	2546	-1617	-0.0609064	-0.139951	0.0172622	-0.0285748	-0.0863256	0.00892922	0.143577	0.442549	-0.395	-0.00950527	-0.045986	0.00441144	-0.0199344	-0.0427451	0	-0.0199344	-0.0427451	0	0.144456	0.44448	-0.395297	0	0	-0.00209249	-0.187739	-0.432111	0.0230372	-0.0704117	-0.185937	0.0216736	-0.13189	0.0211698	-0.147344	-0.0189493	0.00935226	0	-0.603939	0.805936	3.70028	0.176278	0.132296	0	-1.88452	-0.951192	-1080	1080	-500	1700	-10	10	-10	-0	0	-0	250	1.2	0.2	177	-1.2	-1	2555	0.07	2375	5041	8	56579	
13.638	-8.35212	0.389	244	-151	2546	-1617	-0.0622993	-0.139422	0.0168424	-0.0291993	-0.0877233	0.00909806	0.143565	0.442554	-0.389	-0.00990844	-0.0458785	0.00436884	-0.0198876	-0.0427385	0	-0.0198876	-0.0427385	0	0.144456	0.44448	-0.389296	0	0	-0.00209069	-0.190583	-0.429272	0.0230372	-0.0722077	-0.1853	0.0212112	-0.131893	0.0211707	-0.14735	-0.0189499	0.00921054	0	-0.620975	0.815528	3.69968	0.179071	0.133867	0	-1.88449	-0.951201	-1080	1080	-500	1700	-10	10	-10	-0	0	-0	250	1.2	0.2	177	-1.2	-1	2555	0.07	2375	5041	8	56579	
13.648	-8.35205	0.389	244	-151	2546	-1617	-0.0623226	-0.139356	0.0168293	-0.0298229	-0.0891176	0.00926644	0.143555	0.442552	-0.389	-0.00988475	-0.0459444	0.00438204	-0.0198788	-0.0428092	0	-0.0198788	-0.0428092	0	0.144456	0.44448	-0.389297	0	0	-0.00211831	-0.190583	-0.429272	0.0230372	-0.0722073	-0.1853	0.0212114	-0.131893	0.0211709	-0.14735	-0.0189501	0.00921061	0	-0.621026	0.815595	3.69918	0.179071	0.133867	0	-1.88447	-0.951207	-1080	1080	-500	1700	-10	10	-10	-0	0	-0	250	1.2	0.2	177	-1.2	-1	2555	0.07	2375	5041	8	56579	
13.6608	-8.35208	0.38	246	-150	2546	-1617	-0.06383	-0.138805	0.0164286	-0.0306419	-0.0908987	0.00947725	0.143552	0.44256	-0.38	-0.0103502	-0.0457646	0.00434053	-0.019833	-0.0427436	0	-0.019833	-0.0427436	0	0.144456	0.44448	-0.380296	0	0	-0.0021136	-0.19627	-0.426434	0.0230372	-0.0741802	-0.18457	0.0207691	-0.131899	0.0211719	-0.147358	-0.0189508	0.00899792	0	-0.628454	0.826165	3.69917	0.180293	0.135612	0	-1.88446	-0.951211	-1080	1080	-500	1700	-10	10	-10	-0	0	-0	250	1.2	0.2	177	-1.2	-1	2555	0.07	2375	5041	8	56579	
13.668	-8.35208	0.371	248	-150	2546	-1617	-0.0655082	-0.138073	0.0161832	-0.0311108	-0.0918871	0.00959309	0.143553	0.442559	-0.371	-0.0107978	-0.0456513	0.00437405	-0.0197492	-0.0427754	0	-0.0197492	-0.0427754	0	0.144456	0.44448	-0.371297	0	0	-0.0021393	-0.201957	-0.426434	0.0230372	-0.076306	-0.183725	0.0205572	-0.131905	0.0211729	-0.147365	-0.0189517	0.00878523	0	-0.631686	0.844192	3.69869	0.180816	0.138579	0	-1.88446	-0.95121	-1080	1080	-500	1700	-10	10	-10	-0	0	-0	250	1.2	0.2	177	-1.2	-1	2555	0.07	2375	5041	8	56579	
13.678	-8.35109	0.362	249	-147	2546	-1617	-0.0666803	-0.136094	0.0158609	-0.0317773	-0.0932473	0.00975162	0.1435	0.442448	-0.362	-0.0116167	-0.0468097	0.00452908	-0.0203057	-0.0439806	0	-0.0203057	-0.0439806	0	0.144456	0.44448	-0.362316	0	0	-0.00222582	-0.204801	-0.417917	0.0230372	-0.078297	-0.182904	0.0203899	-0.131918	0.0211754	-0.147365	-0.0189558	0.0085735	0	-0.638081	0.8643	3.6984	0.181863	0.141895	0	-1.88442	-0.95122	-1080	1080	-500	1700	-10	10	-10	-0	0	-0	250	1.2	0.2	177	-1.2	-1	2555	0.07	2375	5041	8	56579	
13.688	-8.35207	0.362	249	-149	2546	-1617	-0.0669653	-0.137372	0.0159894	-0.0324484	-0.0946241	0.00991187	0.143554	0.442556	-0.362	-0.0113262	-0.0455342	0.00440083	-0.0197783	-0.0427766	0	-0.0197783	-0.0427766	0	0.144456	0.44448	-0.362301	0	0	-0.002192	-0.204801	-0.423595	0.0230372	-0.0782915	-0.182906	0.0203903	-0.131912	0.0211739	-0.147371	-0.0189527	0.00857251	0	-0.638121	0.864354	3.69801	0.181863	0.141895	0	-1.88446	-0.951209	-1080	1080	-500	1700	-10	10	-10	-0	0	-0	250	1.2	0.2	177	-1.2	-1	2555	0.07	2375	5041	8	56579	
13.6979	-8.35207	0.352	251	-148	2547	-1617	-0.0683274	-0.136754	0.0157566	-0.0331273	-0.0959829	0.0100684	0.143555	0.442555	-0.352	-0.0118978	-0.0453376	0.00440313	-0.019848	-0.0426907	0	-0.019848	-0.0426907	0	0.144456	0.44448	-0.352299	0	0	-0.002165	-0.21057	-0.420921	0.0204775	-0.0802252	-0.182092	0.0201597	-0.131918	0.0211749	-0.147379	-0.0189536	0.00833612	0	-0.649773	0.885447	3.69817	0.183783	0.145386	0	-1.88446	-0.951208	-1080	1080	-500	1700	-10	10	-10	-0	0	-0	250	1.2	0.2	177	-1.2	-1	2555	0.07	2375	5041	8	56579	
13.7079	-8.35213	0.332	252	-147	2547	-1617	-0.0698702	-0.136105	0.0150227	-0.0338194	-0.097331	0.0102172	0.14357	0.442552	-0.332	-0.0123224	-0.0451897	0.00438119	-0.019763	-0.0426915	0	-0.019763	-0.0426915	0	0.144456	0.44448	-0.332299	0	0	-0.00216504	-0.213415	-0.418081	0.0204775	-0.0821926	-0.181295	0.0194039	-0.131932	0.0211767	-0.147392	-0.0189554	0.00786317	0	-0.668892	0.901316	3.6979	0.186925	0.148004	0	-1.8845	-0.951198	-1080	1080	-500	1700	-10	10	-10	-0	0	-0	250	1.2	0.2	177	-1.2	-1	2555	0.07	2375	5041	8	56579	
13.7179	-8.35263	0.319	254	-147	2547	-1616	-0.0716198	-0.135955	0.0142384	-0.0345424	-0.0987034	0.010361	0.143622	0.442585	-0.319	-0.0124269	-0.0445819	0.00426915	-0.0193181	-0.0422731	0	-0.0193181	-0.0422731	0	0.144456	0.44448	-0.3193	0	0	-0.00225054	-0.219104	-0.418081	0.0204775	-0.0840467	-0.180537	0.0185075	-0.131939	0.0211768	-0.147402	-0.0189553	0.00755529	0	-0.688074	0.906721	3.69702	0.190066	0.148877	0	-1.88458	-0.951172	-1080	1080	-500	1700	-10	10	-10	-0	0	-0	250	1.2	0.2	177	-1.2	-1	2555	0.07	2375	5041	8	56579	
13.7278	-8.35226	0.319	254	-147	2547	-1617	-0.0711281	-0.135624	0.0142846	-0.0352463	-0.100046	0.0105023	0.143589	0.442556	-0.319	-0.012919	-0.0449132	0.0042231	-0.0198623	-0.0425138	0	-0.0198623	-0.0425138	0	0.144456	0.44448	-0.319306	0	0	-0.00229638	-0.219104	-0.418081	0.0204775	-0.0840471	-0.180537	0.0185077	-0.13194	0.0211776	-0.147401	-0.0189563	0.00755561	0	-0.68818	0.90686	3.69608	0.190066	0.148877	0	-1.88453	-0.951187	-1080	1080	-500	1700	-10	10	-10	-0	0	-0	250	1.2	0.2	177	-1.2	-1	2555	0.07	2375	5041	8	56579	
13.7379	-8.35222	0.304	255	-146	2548	-1617	-0.0721678	-0.135058	0.0133838	-0.035974	-0.101407	0.0106373	0.143574	0.442563	-0.304	-0.0137655	-0.0447031	0.00398187	-0.0202149	-0.0423682	0	-0.0202149	-0.0423682	0	0.144456	0.44448	-0.304304	0	0	-0.00229484	-0.222035	-0.415404	0.0179178	-0.0859333	-0.179761	0.0173656	-0.131948	0.0211792	-0.147411	-0.0189575	0.00720084	0	-0.710434	0.907907	3.69614	0.193732	0.149051	0	-1.8845	-0.951197	-1080	1080	-500	1700	-10	10	-10	-0	0	-0	250	1.2	0.2	177	-1.2	-1	2555	0.07	2375	5041	8	56579	
13.748	-8.35221	0.284	256	-146	2548	-1617	-0.0735304	-0.134377	0.0122084	-0.0367132	-0.102758	0.01076	0.143564	0.442571	-0.284	-0.014617	-0.0444435	0.00370712	-0.020485	-0.0422255	0	-0.020485	-0.0422255	0	0.144456	0.44448	-0.284304	0	0	-0.00231872	-0.224881	-0.415404	0.0179178	-0.0881474	-0.17882	0.0159155	-0.131957	0.0211811	-0.147424	-0.0189589	0.00672766	0	-0.733875	0.907012	3.69506	0.197571	0.148877	0	-1.88447	-0.951206	-1080	1080	-500	1700	-10	10	-10	-0	0	-0	250	1.2	0.2	177	-1.2	-1	2555	0.07	2375	5041	8	56579	
13.7579	-8.35214	0.264	258	-145	2549	-1617	-0.0747686	-0.133659	0.0110684	-0.037458	-0.10409	0.0108703	0.143543	0.442578	-0.264	-0.0155728	-0.0441855	0.00340994	-0.0208682	-0.0420835	0	-0.0208682	-0.0420835	0	0.144456	0.44448	-0.264303	0	0	-0.00234288	-0.230662	-0.412724	0.0153581	-0.0903414	-0.177845	0.0144783	-0.131966	0.0211831	-0.147437	-0.0189604	0.00625442	0	-0.755235	0.906165	3.69366	0.201062	0.148702	0	-1.88443	-0.95122	-1080	1080	-500	1700	-10	10	-10	-0	0	-0	250	1.2	0.2	177	-1.2	-1	2555	0.07	2375	5041	8	56579	
13.768	-8.35206	0.264	257	-145	2549	-1617	-0.0744137	-0.133698	0.0111473	-0.0382038	-0.10543	0.010982	0.143524	0.442581	-0.264	-0.0159265	-0.0441479	0.00333141	-0.0212212	-0.0419934	0	-0.0212212	-0.0419934	0	0.144456	0.44448	-0.264305	0	0	-0.00239519	-0.227816	-0.412724	0.0153581	-0.0903402	-0.177845	0.0144787	-0.131966	0.0211834	-0.147437	-0.0189604	0.00625448	0	-0.755404	0.906367	3.69229	0.201062	0.148702	0	-1.88439	-0.951232	-1080	1080	-500	1700	-10	10	-10	-0	0	-0	250	1.2	0.2	177	-1.2	-1	2555	0.07	2375	5041	8	56579	
13.778	-8.89049	0.251	251	-150	2548	-1659	-0.068225	-0.138082	0.0122369	-0.038888	-0.106815	0.0111047	0.121341	0.54271	-0.251	-0.0163728	-0.0425067	0.00295589	-0.0209181	-0.0405717	0	-0.0209181	-0.0405717	0	0.122232	0.544488	-0.251282	0	0	-0.00231827	-0.210653	-0.426769	0.0179178	-0.0845978	-0.180589	0.0151928	-0.123905	0.0208672	-0.1546	-0.0167241	0.00559355	0	-0.771282	0.907408	3.69239	0.20368	0.148877	0	-1.79076	-0.975905	-1080	1080	-500	1700	-10	10	-10	-0	0	-0	250	1.2	0.2	177	-1.2	-1	2555	0.07	2382	5052	8	56579	
13.7879	-8.88936	0.243	252	-147	2549	-1659	-0.0695751	-0.135831	0.0113446	-0.0395802	-0.108166	0.0112176	0.121277	0.542598	-0.243	-0.0177446	-0.0435429	0.00280309	-0.0217651	-0.0417731	0	-0.0217651	-0.0417731	0	0.122232	0.544488	-0.243307	0	0	-0.00252018	-0.213583	-0.418409	0.0153581	-0.0873197	-0.179374	0.0141477	-0.123913	0.0208697	-0.154599	-0.0167274	0.00541608	0	-0.780647	0.90827	3.6937	0.205251	0.149051	0	-1.79069	-0.97592	-1080	1080	-500	1700	-10	10	-10	-0	0	-0	250	1.2	0.2	177	-1.2	-1	2555	0.07	2382	5052	8	56579	
13.798	-8.88931	0.24	254	-146	2549	-1659	-0.0711951	-0.134943	0.0107733	-0.0402974	-0.109525	0.0113261	0.121258	0.542605	-0.24	-0.0184243	-0.0433517	0.00262535	-0.0218888	-0.0417923	0	-0.0218888	-0.0417923	0	0.122232	0.544488	-0.240308	0	0	-0.00254549	-0.219276	-0.415567	0.0153581	-0.0896194	-0.178294	0.0133986	-0.123913	0.0208702	-0.154601	-0.0167275	0.00534929	0	-0.785019	0.909484	3.69263	0.205949	0.149226	0	-1.79066	-0.975928	-1080	1080	-500	1700	-10	10	-10	-0	0	-0	250	1.2	0.2	177	-1.2	-1	2555	0.07	2382	5052	8	56579	
13.8079	-8.88931	0.24	254	-146	2549	-1659	-0.0711467	-0.135021	0.0107954	-0.0410036	-0.110866	0.0114333	0.121249	0.542613	-0.24	-0.0184718	-0.0432734	0.00260354	-0.0219313	-0.0417084	0	-0.0219313	-0.0417084	0	0.122232	0.544488	-0.240307	0	0	-0.00256641	-0.219276	-0.415567	0.0153581	-0.0896184	-0.178295	0.0133989	-0.123913	0.0208702	-0.154602	-0.0167274	0.00534929	0	-0.785106	0.909586	3.69195	0.205949	0.149226	0	-1.79064	-0.975932	-1080	1080	-500	1700	-10	10	-10	-0	0	-0	250	1.2	0.2	177	-1.2	-1	2555	0.07	2382	5052	8	56579	
13.818	-8.8892	0.24	256	-145	2549	-1659	-0.0732066	-0.133842	0.0102139	-0.0417371	-0.112206	0.0115356	0.121235	0.542609	-0.24	-0.019316	-0.0430213	0.00239932	-0.0220772	-0.0417408	0	-0.0220772	-0.0417408	0	0.122232	0.544488	-0.24031	0	0	-0.00262118	-0.224969	-0.412724	0.0153581	-0.0925226	-0.176863	0.0126133	-0.123912	0.0208705	-0.154602	-0.0167276	0.00534935	0	-0.788279	0.912749	3.69198	0.206472	0.149749	0	-1.79062	-0.975937	-1080	1080	-500	1700	-10	10	-10	-0	0	-0	250	1.2	0.2	177	-1.2	-1	2555	0.07	2382	5052	8	56579	
13.8278	-8.88919	0.241	258	-144	2550	-1659	-0.0751623	-0.132806	0.0096665	-0.0424766	-0.113513	0.0116307	0.121233	0.542609	-0.241	-0.0199509	-0.0427275	0.00222051	-0.0220835	-0.0417244	0	-0.0220835	-0.0417244	0	0.122232	0.544488	-0.241313	0	0	-0.00267297	-0.230753	-0.410042	0.0127984	-0.0951132	-0.175534	0.011887	-0.123912	0.0208705	-0.154601	-0.0167275	0.00537163	0	-0.788369	0.912853	3.69128	0.206472	0.149749	0	-1.79061	-0.975938	-1080	1080	-500	1700	-10	10	-10	-0	0	-0	250	1.2	0.2	177	-1.2	-1	2555	0.07	2382	5052	8	56579	
13.8378	-8.88922	0.242	260	-143	2550	-1659	-0.0773129	-0.131677	0.00904999	-0.0432527	-0.114835	0.0117216	0.12123	0.542616	-0.242	-0.020736	-0.0422908	0.00198129	-0.0221547	-0.0416124	0	-0.0221547	-0.0416124	0	0.122232	0.544488	-0.242314	0	0	-0.00269537	-0.236448	-0.407199	0.0127984	-0.0980489	-0.173968	0.0110313	-0.123911	0.0208704	-0.154601	-0.0167274	0.00539389	0	-0.784217	0.909782	3.69063	0.205774	0.149226	0	-1.79061	-0.975939	-1080	1080	-500	1700	-10	10	-10	-0	0	-0	250	1.2	0.2	177	-1.2	-1	2555	0.07	2382	5052	8	56579	
13.8479	-8.88923	0.242	260	-143	2550	-1659	-0.0772103	-0.131748	0.00908232	-0.0440288	-0.116159	0.0118128	0.12123	0.542617	-0.242	-0.0208385	-0.0422199	0.001949	-0.0222577	-0.0415351	0	-0.0222577	-0.0415351	0	0.122232	0.544488	-0.242315	0	0	-0.002745	-0.236448	-0.407199	0.0127984	-0.0980488	-0.173968	0.0110313	-0.123911	0.0208704	-0.154601	-0.0167273	0.00539388	0	-0.784311	0.909892	3.68989	0.205774	0.149226	0	-1.7906	-0.97594	-1080	1080	-500	1700	-10	10	-10	-0	0	-0	250	1.2	0.2	177	-1.2	-1	2555	0.07	2382	5052	8	56579	
13.8588	-8.88925	0.241	262	-142	2550	-1659	-0.0792009	-0.130631	0.00841368	-0.0448963	-0.11759	0.011905	0.121227	0.542621	-0.241	-0.0216889	-0.0417619	0.00167996	-0.022421	-0.0414076	0	-0.022421	-0.0414076	0	0.122232	0.544488	-0.241314	0	0	-0.00276814	-0.242143	-0.404355	0.0127984	-0.10089	-0.172393	0.0100936	-0.123911	0.0208705	-0.154602	-0.0167273	0.0053716	0	-0.780068	0.904604	3.68993	0.205076	0.148353	0	-1.7906	-0.975941	-1080	1080	-500	1700	-10	10	-10	-0	0	-0	250	1.2	0.2	177	-1.2	-1	2555	0.07	2382	5052	8	56579	
13.868	-8.88928	0.237	265	-140	2551	-1659	-0.0813998	-0.129361	0.00758509	-0.0456386	-0.11877	0.0119742	0.121236	0.542619	-0.237	-0.022432	-0.0413365	0.00143211	-0.0224499	-0.0413516	0	-0.0224499	-0.0413516	0	0.122232	0.544488	-0.237315	0	0	-0.00279366	-0.250783	-0.398823	0.0102387	-0.103832	-0.170698	0.00901719	-0.123913	0.0208706	-0.154604	-0.0167275	0.00528249	0	-0.778051	0.899439	3.68913	0.204727	0.14748	0	-1.79061	-0.975937	-1080	1080	-500	1700	-10	10	-10	-0	0	-0	250	1.2	0.2	177	-1.2	-1	2555	0.07	2382	5052	8	56579	
13.8779	-8.88892	0.231	267	-138	2551	-1659	-0.0835869	-0.127412	0.0066466	-0.0464673	-0.120033	0.0120401	0.121235	0.542568	-0.231	-0.0234052	-0.0413804	0.00121687	-0.0226442	-0.0418194	0	-0.0226442	-0.0418194	0	0.122232	0.544488	-0.231334	0	0	-0.00298894	-0.25648	-0.393133	0.0102387	-0.106992	-0.168792	0.00786347	-0.123919	0.0208714	-0.154603	-0.0167289	0.00514905	0	-0.777117	0.896414	3.68814	0.204553	0.146957	0	-1.79063	-0.975933	-1080	1080	-500	1700	-10	10	-10	-0	0	-0	250	1.2	0.2	177	-1.2	-1	2555	0.07	2382	5052	8	56579	
13.888	-8.8893	0.231	267	-139	2551	-1659	-0.0833825	-0.128144	0.00679756	-0.047308	-0.121325	0.0121086	0.121237	0.542622	-0.231	-0.0236064	-0.0406507	0.00106666	-0.0228721	-0.0410821	0	-0.0228721	-0.0410821	0	0.122232	0.544488	-0.231324	0	0	-0.00295538	-0.25648	-0.395978	0.0102387	-0.106989	-0.168794	0.00786422	-0.123915	0.0208709	-0.154607	-0.0167277	0.00514883	0	-0.77726	0.896579	3.68701	0.204553	0.146957	0	-1.79061	-0.975937	-1080	1080	-500	1700	-10	10	-10	-0	0	-0	250	1.2	0.2	177	-1.2	-1	2555	0.07	2382	5052	8	56579	
13.898	-8.8893	0.223	269	-138	2551	-1659	-0.0851466	-0.127059	0.00611224	-0.0481665	-0.122606	0.0121702	0.121219	0.542636	-0.223	-0.0247459	-0.0399048	0.000726698	-0.0233314	-0.0407544	0	-0.0233314	-0.0407544	0	0.122232	0.544488	-0.223322	0	0	-0.00297476	-0.262176	-0.393133	0.0102387	-0.109892	-0.166964	0.00683894	-0.123916	0.0208716	-0.154611	-0.0167279	0.00497063	0	-0.778297	0.898666	3.6872	0.204727	0.147306	0	-1.79058	-0.975945	-1080	1080	-500	1700	-10	10	-10	-0	0	-0	250	1.2	0.2	177	-1.2	-1	2555	0.07	2382	5052	8	56579	
13.9078	-8.88923	0.215	271	-136	2552	-1659	-0.0870796	-0.125664	0.00543489	-0.0490198	-0.123837	0.0122235	0.121202	0.542639	-0.215	-0.0258651	-0.0392878	0.000438229	-0.0237346	-0.0406128	0	-0.0237346	-0.0406128	0	0.122232	0.544488	-0.215325	0	0	-0.00302992	-0.267978	-0.387594	0.00767906	-0.112945	-0.164952	0.00587312	-0.123918	0.0208723	-0.154615	-0.0167283	0.00479246	0	-0.783702	0.9083	3.68638	0.2056	0.148877	0	-1.79055	-0.975952	-1080	1080	-500	1700	-10	10	-10	-0	0	-0	250	1.2	0.2	177	-1.2	-1	2555	0.07	2382	5052	8	56579	
13.9184	-8.88918	0.211	273	-135	2552	-1659	-0.0885431	-0.124604	0.0050468	-0.0499544	-0.125153	0.0122768	0.121178	0.542651	-0.211	-0.0269225	-0.038615	0.00016727	-0.0242228	-0.0403636	0	-0.0242228	-0.0403636	0	0.122232	0.544488	-0.211325	0	0	-0.00305297	-0.273676	-0.384747	0.00767906	-0.115466	-0.163219	0.00521407	-0.123918	0.0208728	-0.154618	-0.0167283	0.00470337	0	-0.791226	0.92216	3.68556	0.206822	0.151146	0	-1.7905	-0.975962	-1080	1080	-500	1700	-10	10	-10	-0	0	-0	250	1.2	0.2	177	-1.2	-1	2555	0.07	2382	5052	8	56579	
13.928	-8.88918	0.211	272	-136	2552	-1659	-0.0881228	-0.124954	0.00518932	-0.0507993	-0.126351	0.0123265	0.121159	0.542667	-0.211	-0.0273409	-0.0382663	2.53434e-05	-0.0246795	-0.0400345	0	-0.0246795	-0.0400345	0	0.122232	0.544488	-0.211325	0	0	-0.00309901	-0.270827	-0.387594	0.00767906	-0.115464	-0.163221	0.00521466	-0.123916	0.020873	-0.15462	-0.0167281	0.00470337	0	-0.791286	0.92223	3.6851	0.206822	0.151146	0	-1.79046	-0.975971	-1080	1080	-500	1700	-10	10	-10	-0	0	-0	250	1.2	0.2	177	-1.2	-1	2555	0.07	2382	5052	8	56579	
13.94	-8.88894	0.206	274	-134	2552	-1659	-0.0897422	-0.123491	0.00480502	-0.0518786	-0.127836	0.0123843	0.121126	0.542659	-0.206	-0.0286178	-0.0376616	-0.000249965	-0.0253002	-0.0399667	0	-0.0253002	-0.0399667	0	0.122232	0.544488	-0.206327	0	0	-0.0031385	-0.276525	-0.3819	0.00767906	-0.11836	-0.161153	0.00455505	-0.123917	0.0208738	-0.154622	-0.0167287	0.00459209	0	-0.798683	0.942278	3.68527	0.208043	0.154462	0	-1.7904	-0.975983	-1080	1080	-500	1700	-10	10	-10	-0	0	-0	250	1.2	0.2	177	-1.2	-1	2555	0.07	2382	5052	8	56579	
13.9479	-8.88902	0.205	276	-133	2552	-1659	-0.0917492	-0.12216	0.00447881	-0.052603	-0.1288	0.0124197	0.121116	0.542678	-0.205	-0.0295349	-0.0368185	-0.000480693	-0.0255814	-0.0396704	0	-0.0255814	-0.0396704	0	0.122232	0.544488	-0.205328	0	0	-0.00318194	-0.282223	-0.379053	0.00767906	-0.121284	-0.158979	0.00399812	-0.123915	0.0208739	-0.154624	-0.0167283	0.00456978	0	-0.806162	0.964525	3.68481	0.209265	0.158127	0	-1.79038	-0.975988	-1080	1080	-500	1700	-10	10	-10	-0	0	-0	250	1.2	0.2	177	-1.2	-1	2555	0.07	2382	5052	8	56579	
13.958	-8.88822	0.205	275	-132	2552	-1659	-0.0907432	-0.121753	0.00463065	-0.0535176	-0.130028	0.0124663	0.121046	0.54262	-0.205	-0.0305411	-0.0372254	-0.000632186	-0.0265567	-0.04017	0	-0.0265567	-0.04017	0	0.122232	0.544488	-0.205341	0	0	-0.00326833	-0.279374	-0.376207	0.00767906	-0.121284	-0.158978	0.00399847	-0.123917	0.0208755	-0.154622	-0.0167301	0.00457018	0	-0.806213	0.964587	3.68442	0.209265	0.158127	0	-1.79028	-0.97601	-1080	1080	-500	1700	-10	10	-10	-0	0	-0	250	1.2	0.2	177	-1.2	-1	2555	0.07	2382	5052	8	56579	
13.9678	-8.88901	0.205	278	-132	2552	-1659	-0.0930223	-0.121337	0.00444015	-0.0544342	-0.131223	0.0125101	0.12107	0.542714	-0.205	-0.0309341	-0.0355778	-0.000877712	-0.0264836	-0.039014	0	-0.0264836	-0.039014	0	0.122232	0.544488	-0.205325	0	0	-0.00319524	-0.287921	-0.376207	0.00767906	-0.123956	-0.156914	0.00356244	-0.123911	0.0208744	-0.154627	-0.0167278	0.00456978	0	-0.812547	0.987777	3.68461	0.210312	0.161967	0	-1.79028	-0.976009	-1080	1080	-500	1700	-10	10	-10	-0	0	-0	250	1.2	0.2	177	-1.2	-1	2555	0.07	2382	5052	8	56579	
13.9779	-8.88933	0.205	280	-131	2552	-1659	-0.0950992	-0.120342	0.00420577	-0.0553957	-0.13244	0.0125526	0.121071	0.542758	-0.205	-0.0315479	-0.0344187	-0.00109761	-0.0265921	-0.0383924	0	-0.0265921	-0.0383924	0	0.122232	0.544488	-0.205315	0	0	-0.00313628	-0.293619	-0.37336	0.00767906	-0.126647	-0.154761	0.00310816	-0.123908	0.020874	-0.15463	-0.0167268	0.00456962	0	-0.817875	1.01102	3.68438	0.211185	0.165806	0	-1.79027	-0.976012	-1080	1080	-500	1700	-10	10	-10	-0	0	-0	250	1.2	0.2	177	-1.2	-1	2555	0.07	2382	5052	8	56579	
13.988	-8.88901	0.204	282	-129	2552	-1659	-0.0968478	-0.11846	0.00391859	-0.0563672	-0.133628	0.0125919	0.121042	0.542736	-0.204	-0.0327035	-0.0338878	-0.00132108	-0.0271032	-0.0385364	0	-0.0271032	-0.0385364	0	0.122232	0.544488	-0.204324	0	0	-0.00321351	-0.299316	-0.367666	0.00767906	-0.129551	-0.152347	0.00259751	-0.123909	0.0208747	-0.154629	-0.0167275	0.0045475	0	-0.823211	1.03742	3.6841	0.212058	0.17017	0	-1.79023	-0.976021	-1080	1080	-500	1700	-10	10	-10	-0	0	-0	250	1.2	0.2	177	-1.2	-1	2555	0.07	2382	5052	8	56579	
13.9981	-8.88891	0.204	281	-129	2552	-1659	-0.0964138	-0.118703	0.0040552	-0.0573405	-0.134826	0.0126329	0.121017	0.542742	-0.204	-0.0331361	-0.0336459	-0.00145714	-0.0275848	-0.0383569	0	-0.0275848	-0.0383569	0	0.122232	0.544488	-0.204325	0	0	-0.00321693	-0.296467	-0.367666	0.00767906	-0.12955	-0.152349	0.00259806	-0.123908	0.020875	-0.15463	-0.0167275	0.00454755	0	-0.823257	1.03748	3.68375	0.212058	0.17017	0	-1.79018	-0.976031	-1080	1080	-500	1700	-10	10	-10	-0	0	-0	250	1.2	0.2	177	-1.2	-1	2555	0.07	2382	5052	8	56579	
14.0079	-8.88893	0.202	283	-128	2552	-1659	-0.0982103	-0.117336	0.00382167	-0.0583046	-0.135978	0.0126704	0.121	0.542758	-0.202	-0.0340686	-0.0326569	-0.00171425	-0.0280003	-0.0380272	0	-0.0280003	-0.0380272	0	0.122232	0.544488	-0.202321	0	0	-0.00318549	-0.302165	-0.364818	0.00767906	-0.132279	-0.149993	0.00210743	-0.123907	0.0208753	-0.154633	-0.0167273	0.00450298	0	-0.826413	1.06273	3.68392	0.212581	0.174358	0	-1.79014	-0.976039	-1080	1080	-500	1700	-10	10	-10	-0	0	-0	250	1.2	0.2	177	-1.2	-1	2555	0.07	2382	5052	8	56579	
14.0178	-10.0759	0.198	274	-136	2551	-1690	-0.0895091	-0.124755	0.00694421	-0.0591934	-0.137217	0.0127393	0.0765345	0.731672	-0.198	-0.0350002	-0.0316821	-0.00195996	-0.0283456	-0.0378039	0	-0.0283456	-0.0378039	0	0.077784	0.733392	-0.198319	0	0	-0.0031574	-0.276417	-0.387442	0.0102387	-0.124509	-0.156437	0.00498424	-0.109995	0.0196876	-0.165308	-0.0131001	0.00390187	0	-0.82751	1.08909	3.68364	0.212756	0.178722	0	-1.67502	-0.994574	-1080	1080	-500	1700	-10	10	-10	-0	0	-0	250	1.2	0.2	177	-1.2	-1	2555	0.07	2391	5059	8	56579	
14.028	-10.0758	0.195	276	-134	2551	-1690	-0.0916951	-0.123236	0.00652887	-0.0601227	-0.138466	0.0128055	0.076527	0.731676	-0.195	-0.0358062	-0.0307925	-0.00220484	-0.0286072	-0.0376398	0	-0.0286072	-0.0376398	0	0.077784	0.733392	-0.195322	0	0	-0.00318644	-0.282113	-0.381751	0.0102387	-0.127501	-0.154028	0.00432403	-0.109996	0.0196877	-0.165309	-0.0131001	0.00384277	0	-0.829121	1.10945	3.68739	0.213105	0.182212	0	-1.67501	-0.994575	-1080	1080	-500	1700	-10	10	-10	-0	0	-0	250	1.2	0.2	177	-1.2	-1	2555	0.07	2391	5059	8	56579	
14.038	-10.0761	0.195	276	-134	2551	-1690	-0.0918237	-0.123507	0.00655051	-0.0610405	-0.139701	0.012871	0.0765226	0.731713	-0.195	-0.0356759	-0.0305224	-0.00222593	-0.0285408	-0.0373466	0	-0.0285408	-0.0373466	0	0.077784	0.733392	-0.195312	0	0	-0.00308448	-0.282113	-0.381751	0.0102387	-0.1275	-0.15403	0.00432458	-0.109993	0.0196874	-0.165311	-0.0130994	0.00384267	0	-0.829189	1.10954	3.68689	0.213105	0.182212	0	-1.675	-0.994576	-1080	1080	-500	1700	-10	10	-10	-0	0	-0	250	1.2	0.2	177	-1.2	-1	2555	0.07	2391	5059	8	56579	
14.048	-10.0759	0.189	279	-132	2551	-1690	-0.0939241	-0.121611	0.0059026	-0.0619806	-0.140918	0.01293	0.0764931	0.731704	-0.189	-0.036555	-0.029926	-0.00246572	-0.0288103	-0.0375217	0	-0.0288103	-0.0375217	0	0.077784	0.733392	-0.189313	0	0	-0.00304737	-0.290656	-0.376059	0.0102387	-0.130479	-0.151537	0.00343688	-0.109994	0.0196881	-0.165313	-0.0130999	0.00372456	0	-0.831303	1.1253	3.68692	0.213454	0.18483	0	-1.67496	-0.99458	-1080	1080	-500	1700	-10	10	-10	-0	0	-0	250	1.2	0.2	177	-1.2	-1	2555	0.07	2391	5059	8	56579	
14.058	-10.0768	0.184	282	-131	2552	-1690	-0.0973278	-0.120166	0.00497877	-0.0629569	-0.142123	0.01298	0.0765417	0.731778	-0.184	-0.0364005	-0.0285328	-0.00265372	-0.028196	-0.036758	0	-0.028196	-0.036758	0	0.077784	0.733392	-0.184298	0	0	-0.00293251	-0.299316	-0.37336	0.00767906	-0.133728	-0.148699	0.00232504	-0.109992	0.0196868	-0.165316	-0.0130985	0.00362575	0	-0.834585	1.13805	3.68614	0.213977	0.186925	0	-1.67501	-0.994574	-1080	1080	-500	1700	-10	10	-10	-0	0	-0	250	1.2	0.2	177	-1.2	-1	2555	0.07	2391	5059	8	56579	
14.068	-10.0758	0.179	284	-128	2552	-1690	-0.0988193	-0.117604	0.00422746	-0.0639418	-0.143295	0.0130221	0.0764713	0.731708	-0.179	-0.0379572	-0.0283092	-0.00300157	-0.029003	-0.0375499	0	-0.029003	-0.0375499	0	0.077784	0.733392	-0.17931	0	0	-0.0029702	-0.305013	-0.364818	0.00767906	-0.136777	-0.145913	0.00122589	-0.109995	0.0196887	-0.165316	-0.0131001	0.00352758	0	-0.834735	1.14665	3.68504	0.213977	0.188321	0	-1.67493	-0.994583	-1080	1080	-500	1700	-10	10	-10	-0	0	-0	250	1.2	0.2	177	-1.2	-1	2555	0.07	2391	5059	8	56579	
14.078	-10.0758	0.179	284	-128	2552	-1690	-0.0986941	-0.117715	0.00427638	-0.0649314	-0.144476	0.013065	0.0764655	0.731713	-0.179	-0.038082	-0.0281981	-0.00305033	-0.02916	-0.0374749	0	-0.02916	-0.0374749	0	0.077784	0.733392	-0.179306	0	0	-0.0029403	-0.305013	-0.364818	0.00767906	-0.136776	-0.145914	0.00122605	-0.109994	0.0196887	-0.165317	-0.0131	0.00352758	0	-0.834858	1.14682	3.68413	0.213977	0.188321	0	-1.67492	-0.994584	-1080	1080	-500	1700	-10	10	-10	-0	0	-0	250	1.2	0.2	177	-1.2	-1	2555	0.07	2391	5059	8	56579	
14.088	-10.0758	0.176	286	-126	2553	-1690	-0.101184	-0.115624	0.00344479	-0.0659423	-0.145631	0.0130994	0.0764594	0.731713	-0.176	-0.0388567	-0.0271646	-0.00337182	-0.0293641	-0.0373747	0	-0.0293641	-0.0373747	0	0.077784	0.733392	-0.1763	0	0	-0.00288661	-0.310832	-0.359265	0.00511937	-0.140041	-0.142788	7.29663e-05	-0.109995	0.0196889	-0.165318	-0.0131001	0.00346849	0	-0.832732	1.15416	3.68419	0.213628	0.189543	0	-1.67491	-0.994585	-1080	1080	-500	1700	-10	10	-10	-0	0	-0	250	1.2	0.2	177	-1.2	-1	2555	0.07	2391	5059	8	56579	
14.0979	-10.0758	0.171	289	-124	2553	-1690	-0.10365	-0.113512	0.00264637	-0.0669702	-0.146756	0.0131257	0.0764702	0.73171	-0.171	-0.0394038	-0.0262549	-0.00359198	-0.029368	-0.0373149	0	-0.029368	-0.0373149	0	0.077784	0.733392	-0.171299	0	0	-0.00288419	-0.31938	-0.353568	0.00511937	-0.143054	-0.139766	-0.000945619	-0.109996	0.019689	-0.165319	-0.0131002	0.00336997	0	-0.82651	1.1617	3.6832	0.212581	0.190764	0	-1.67493	-0.994583	-1080	1080	-500	1700	-10	10	-10	-0	0	-0	250	1.2	0.2	177	-1.2	-1	2555	0.07	2391	5059	8	56579	
14.108	-10.0758	0.169	292	-121	2553	-1690	-0.106152	-0.111249	0.00189244	-0.0680396	-0.147877	0.0131447	0.076469	0.731709	-0.169	-0.0401236	-0.0251311	-0.00387882	-0.0295568	-0.0371875	0	-0.0295568	-0.0371875	0	0.077784	0.733392	-0.169295	0	0	-0.00288016	-0.327928	-0.345022	0.00511937	-0.146275	-0.13638	-0.00198638	-0.109997	0.0196891	-0.165319	-0.0131003	0.00333057	0	-0.817101	1.16713	3.68224	0.21101	0.191637	0	-1.67493	-0.994583	-1080	1080	-500	1700	-10	10	-10	-0	0	-0	250	1.2	0.2	177	-1.2	-1	2555	0.07	2391	5059	8	56579	
14.118	-10.0758	0.169	292	-121	2553	-1690	-0.106262	-0.111159	0.0018508	-0.0691025	-0.148989	0.0131632	0.0765034	0.731688	-0.169	-0.0400148	-0.025219	-0.00383803	-0.0294191	-0.0372348	0	-0.0294191	-0.0372348	0	0.077784	0.733392	-0.169314	0	0	-0.00312641	-0.327928	-0.345022	0.00511937	-0.146277	-0.136378	-0.00198722	-0.109999	0.0196888	-0.165317	-0.0131006	0.00333057	0	-0.817221	1.1673	3.68134	0.21101	0.191637	0	-1.67498	-0.994578	-1080	1080	-500	1700	-10	10	-10	-0	0	-0	250	1.2	0.2	177	-1.2	-1	2555	0.07	2391	5059	8	56579	
14.1279	-10.0757	0.166	294	-119	2554	-1690	-0.10823	-0.109392	0.0013326	-0.0701726	-0.150071	0.0131764	0.0764733	0.731698	-0.166	-0.0409911	-0.0237427	-0.00423365	-0.0300673	-0.0368492	0	-0.0300673	-0.0368492	0	0.077784	0.733392	-0.166312	0	0	-0.00312874	-0.333757	-0.339457	0.00255969	-0.149221	-0.133134	-0.00290105	-0.109998	0.0196892	-0.165319	-0.0131005	0.00327148	0	-0.805565	1.17256	3.68129	0.20909	0.19251	0	-1.67493	-0.994583	-1080	1080	-500	1700	-10	10	-10	-0	0	-0	250	1.2	0.2	177	-1.2	-1	2555	0.07	2391	5059	8	56579	
14.138	-10.0757	0.16	296	-117	2554	-1690	-0.11031	-0.10748	0.000705237	-0.0712892	-0.151159	0.0131836	0.076453	0.731709	-0.16	-0.0417919	-0.0223275	-0.00457854	-0.0305481	-0.0365083	0	-0.0305481	-0.0365083	0	0.077784	0.733392	-0.160315	0	0	-0.00318229	-0.339457	-0.333757	0.00255969	-0.152102	-0.129808	-0.00387331	-0.109998	0.0196895	-0.165322	-0.0131005	0.00315327	0	-0.79398	1.17793	3.68067	0.207171	0.193382	0	-1.6749	-0.994586	-1080	1080	-500	1700	-10	10	-10	-0	0	-0	250	1.2	0.2	177	-1.2	-1	2555	0.07	2391	5059	8	56579	
14.1479	-10.0758	0.152	299	-115	2554	-1690	-0.112578	-0.105576	-0.000121663	-0.072411	-0.152211	0.0131823	0.076429	0.73174	-0.152	-0.042521	-0.0205907	-0.00501823	-0.031074	-0.0359389	0	-0.031074	-0.0359389	0	0.077784	0.733392	-0.152311	0	0	-0.0031943	-0.348007	-0.328056	0.00255969	-0.155099	-0.126166	-0.0051399	-0.109996	0.0196898	-0.165326	-0.0131002	0.00299561	0	-0.788773	1.18333	3.67991	0.206298	0.194255	0	-1.67487	-0.99459	-1080	1080	-500	1700	-10	10	-10	-0	0	-0	250	1.2	0.2	177	-1.2	-1	2555	0.07	2391	5059	8	56579	
14.158	-10.0758	0.152	298	-116	2554	-1690	-0.112202	-0.106179	7.72072e-05	-0.0735406	-0.15328	0.0131831	0.0763974	0.731755	-0.152	-0.0428957	-0.0199897	-0.0052164	-0.0316883	-0.0355344	0	-0.0316883	-0.0355344	0	0.077784	0.733392	-0.152313	0	0	-0.00324817	-0.345157	-0.330907	0.00255969	-0.155097	-0.126168	-0.00513919	-0.109994	0.01969	-0.165327	-0.0131	0.00299563	0	-0.788901	1.18352	3.67892	0.206298	0.194255	0	-1.67482	-0.994594	-1080	1080	-500	1700	-10	10	-10	-0	0	-0	250	1.2	0.2	177	-1.2	-1	2555	0.07	2391	5059	8	56579	
14.168	-10.0759	0.144	300	-114	2555	-1690	-0.114059	-0.104642	-0.000748939	-0.0746775	-0.154323	0.0131757	0.076376	0.731782	-0.144	-0.0434898	-0.0183926	-0.00565128	-0.0322178	-0.0349801	0	-0.0322178	-0.0349801	0	0.077784	0.733392	-0.144307	0	0	-0.00321249	-0.350994	-0.325333	0	-0.157549	-0.123034	-0.00640022	-0.109993	0.0196902	-0.16533	-0.0130998	0.00283797	0	-0.78887	1.18557	3.67916	0.206298	0.194604	0	-1.67479	-0.994598	-1080	1080	-500	1700	-10	10	-10	-0	0	-0	250	1.2	0.2	177	-1.2	-1	2555	0.07	2391	5059	8	56579	
14.1781	-10.8125	0.131	296	-120	2554	-1699	-0.11008	-0.110462	0.000779949	-0.0757889	-0.155438	0.0131835	-0.00142626	0.86514	-0.131	-0.0441169	-0.0167972	-0.00610223	-0.0326312	-0.0346538	0	-0.0326312	-0.0346538	0	0	0.866736	-0.13131	0	0	-0.00326488	-0.339457	-0.342307	0.00255969	-0.154197	-0.127259	-0.00532228	-0.0996963	0.0190839	-0.171954	-0.0110646	0.00240816	0	-0.788997	1.18471	3.67817	0.206298	0.19443	0	-1.56915	-0.999999	-1080	1080	-500	1700	-10	10	-10	-0	0	-0	250	1.2	0.2	177	-1.2	-1	2555	0.07	2400	5070	8	56579	
14.188	-10.8126	0.121	299	-118	2554	-1699	-0.112289	-0.108607	-0.000200849	-0.0769028	-0.156515	0.0131815	-0.00145277	0.865163	-0.121	-0.04469	-0.0151367	-0.00651723	-0.0331497	-0.0342037	0	-0.0331497	-0.0342037	0	0	0.866736	-0.121308	0	0	-0.00328617	-0.348007	-0.336607	0.00255969	-0.156979	-0.123744	-0.00671808	-0.0996952	0.0190842	-0.171957	-0.0110644	0.00222434	0	-0.783456	1.18121	3.68	0.205425	0.193906	0	-1.56912	-0.999999	-1080	1080	-500	1700	-10	10	-10	-0	0	-0	250	1.2	0.2	177	-1.2	-1	2555	0.07	2400	5070	8	56579	
