time ;e1;e2;ctrlpitch;ctrlroll;ctrlthrust;ctrlyaw;edx;edy;edz;cumulx;cumuly;cumulz;x_pred;y_pred;z_pred;dxr_pred;dyr_pred;dzr_pred;dxrT;dyrT;dzrT;dxrUn;dyrUn;dzrUn;x;y;z;dx;dy;dz;ux;uy;uz;dxd;dyd;dzd;Perpx;Tangx;Perpy;Tangy;Perpz;Tanz;ax;ay;az;pitch;roll;yaw;yawd;eyaw;kpvx;kpvy;kpvz;kpyaw;kivx;kivy;kivz;kdvx;kdvy;kdvz;kdyaw;ktg;veld;pitchoff;ke1;ke2;gravity;thr_vel;gps_accuracy;height_accuracy;gps_sat_num;gps_status
6,35472;-5,44133;-0,011;50;50;1450;0;-0,00144749;0,199979;-0,00254902;-8,10159e-06;0,00111928;-1,42669e-05;0;0;0,011;0;0;0;0;0;0;0;0;0;0;0;0;0;0;0;0;0;0;-0,00144749;0,199979;-0,00254902;-0,165149;0,0229931;-0,104261;-0,0364211;-0,000394825;0;0;0;9,81;-0,0310669;0,0109956;0;0;0;-1080;1080;-500;1700;-10;10;-10;-0;0;-0;250;1,2;0,2;177;-1,2;-1;2555;0,07;4294967295;3750003968;0;16384;
6,35911;-5,44133;-0,01;100;100;1500;0;-0,00144637;0,199979;-0,00247824;-1,44439e-05;0,00199619;-2,5134e-05;0;0;0,01;0;0;0;0;0;0;0;0;0;0;0;0;0;0;0;0;0;0;-0,00144637;0,199979;-0,00247824;-0,165149;0,0229931;-0,104261;-0,0364211;-0,000358932;0;0,663259;0,0663783;3,67569;-0,0310669;0,010821;0;0;0;-1080;1080;-500;1700;-10;10;-10;-0;0;-0;250;1,2;0,2;177;-1,2;-1;2555;0,07;4294967295;3750003968;0;16384;
6,36912;-5,44133;-0,01;150;150;1550;0;-0,00144637;0,199979;-0,00247824;-2,89279e-05;0,00399878;-4,99511e-05;0;0;0,01;0;0;0;0;0;0;0;0;0;0;0;0;0;0;0;0;0;0;-0,00144637;0,199979;-0,00247824;-0,165149;0,0229931;-0,104261;-0,0364211;-0,000358932;0;0,66325;0,0663774;3,67578;-0,0310669;0,010821;0;0;0;-1080;1080;-500;1700;-10;10;-10;-0;0;-0;250;1,2;0,2;177;-1,2;-1;2555;0,07;4294967295;3750003968;0;16384;
6,37903;-5,44133;-0,009;178;200;1600;0;-0,0014802;0,19998;-0,00240612;-4,35952e-05;0,00598039;-7,37934e-05;0;0;0,009;0;0;0;0;0;0;0;0;0;0;0;0;0;0;0;0;0;0;-0,0014802;0,19998;-0,00240612;-0,165149;0,0229931;-0,104261;-0,0364211;-0,000323039;0;0,664314;0,0653068;3,67578;-0,0312414;0,0106465;0;0;0;-1080;1080;-500;1700;-10;10;-10;-0;0;-0;250;1,2;0,2;177;-1,2;-1;2555;0,07;4294967295;3750003968;0;16384;
6,38903;-5,44133;-0,008;178;216;1650;0;-0,00147912;0,19998;-0,0024049;-5,8382e-05;0,00797959;-9,78351e-05;0;0;0,008;0;0;0;0;0;0;0;0;0;0;0;0;0;0;0;0;0;0;-0,00147912;0,19998;-0,0024049;-0,16515;0,0229931;-0,104261;-0,0364211;-0,000287145;0;0,665369;0,0663765;3,67586;-0,0314159;0,010821;0;0;0;-1080;1080;-500;1700;-10;10;-10;-0;0;-0;250;1,2;0,2;177;-1,2;-1;2555;0,07;4294967295;3750003968;0;16384;
6,39909;-5,44133;-0,007;178;216;1700;0;-0,00147799;0,199981;-0,00236902;-7,32491e-05;0,00999119;-0,000121665;0;0;0,007;0;0;0;0;0;0;0;0;0;0;0;0;0;0;0;0;0;0;-0,00147799;0,199981;-0,00236902;-0,16515;0,0229931;-0,104261;-0,0364211;-0,000251252;0;0,665369;0,0663765;3,67586;-0,0314159;0,010821;0;0;0;-1080;1080;-500;1700;-10;10;-10;-0;0;-0;250;1,2;0,2;177;-1,2;-1;2555;0,07;4294967295;3750003968;0;16384;
6,40914;-5,44133;-0,007;178;216;1750;0;-0,00147799;0,199981;-0,00236902;-8,81029e-05;0,012001;-0,000145474;0;0;0,007;0;0;0;0;0;0;0;0;0;0;0;0;0;0;0;0;0;0;-0,00147799;0,199981;-0,00236902;-0,16515;0,0229931;-0,104261;-0,0364211;-0,000251252;0;0,665365;0,066376;3,6759;-0,0314159;0,010821;0;0;0;-1080;1080;-500;1700;-10;10;-10;-0;0;-0;250;1,2;0,2;177;-1,2;-1;2555;0,07;4294967295;3750003968;0;16384;
6,41909;-5,44133;-0,005;178;216;1800;0;-0,00147576;0,199981;-0,00233192;-0,000102796;0,013992;-0,00016869;0;0;0,005;0;0;0;0;0;0;0;0;0;0;0;0;0;0;0;0;0;0;-0,00147576;0,199981;-0,00233192;-0,16515;0,0229931;-0,104261;-0,0364211;-0,000179466;0;0,666429;0,0674465;3,6759;-0,0315905;0,0109956;0;0;0;-1080;1080;-500;1700;-10;10;-10;-0;0;-0;250;1,2;0,2;177;-1,2;-1;2555;0,07;4294967295;3750003968;0;16384;
6,42904;-5,44133;-0,004;178;216;1850;0;-0,00147464;0,199981;-0,0023307;-0,000117459;0,0159806;-0,000191867;0;0;0,004;0;0;0;0;0;0;0;0;0;0;0;0;0;0;0;0;0;0;-0,00147464;0,199981;-0,0023307;-0,16515;0,0229931;-0,104261;-0,0364211;-0,000143573;0;0,667488;0,0685166;3,67595;-0,031765;0,0111701;0;0;0;-1080;1080;-500;1700;-10;10;-10;-0;0;-0;250;1,2;0,2;177;-1,2;-1;2555;0,07;4294967295;3750003968;0;16384;
6,43907;-5,44133;-0,003;178;216;1900;0;-0,00147351;0,199981;-0,00232947;-0,00013224;0,0179866;-0,000215234;0;0;0,003;0;0;0;0;0;0;0;0;0;0;0;0;0;0;0;0;0;0;-0,00147351;0,199981;-0,00232947;-0,16515;0,0229931;-0,104261;-0,0364211;-0,00010768;0;0,668553;0,0695871;3,67595;-0,0319395;0,0113446;0;0;0;-1080;1080;-500;1700;-10;10;-10;-0;0;-0;250;1,2;0,2;177;-1,2;-1;2555;0,07;4294967295;3750003968;0;16384;
6,44907;-5,44133;-0,003;178;216;1950;0;-0,00147351;0,199981;-0,00232947;-0,000146984;0,0199876;-0,000238542;0;0;0,003;0;0;0;0;0;0;0;0;0;0;0;0;0;0;0;0;0;0;-0,00147351;0,199981;-0,00232947;-0,16515;0,0229931;-0,104261;-0,0364211;-0,00010768;0;0,668553;0,0695871;3,67595;-0,0319395;0,0113446;0;0;0;-1080;1080;-500;1700;-10;10;-10;-0;0;-0;250;1,2;0,2;177;-1,2;-1;2555;0,07;4294967295;3750003968;0;16384;
6,4592;-5,44133;-0,002;178;216;2000;0;-0,00147237;0,199981;-0,0023285;-0,000161889;0,022012;-0,000262114;0;0;0,002;0;0;0;0;0;0;0;0;0;0;0;0;0;0;0;0;0;0;-0,00147237;0,199981;-0,0023285;-0,16515;0,0229932;-0,104261;-0,0364212;-7,17864e-05;0;0,668553;0,0706576;3,67595;-0,0319395;0,0115192;0;0;0;-1080;1080;-500;1700;-10;10;-10;-0;0;-0;250;1,2;0,2;177;-1,2;-1;2555;0,07;4294967295;3750003968;0;16384;
6,46905;-5,44133;-0,001;178;216;2050;0;-0,00147122;0,199981;-0,00229237;-0,000176383;0,0239823;-0,000284698;0;0;0,001;0;0;0;0;0;0;0;0;0;0;0;0;0;0;0;0;0;0;-0,00147122;0,199981;-0,00229237;-0,16515;0,0229932;-0,104261;-0,0364212;-3,58932e-05;0;0,669617;0,0706576;3,67595;-0,0321141;0,0115192;0;0;0;-1080;1080;-500;1700;-10;10;-10;-0;0;-0;250;1,2;0,2;177;-1,2;-1;2555;0,07;4294967295;3750003968;0;16384;
6,47915;-5,44133;0;178;216;2100;0;-0,00147006;0,199981;-0,00229115;-0,000191231;0,0260021;-0,000307839;0;0;-0;0;0;0;0;0;0;0;0;0;0;0;0;0;0;0;0;0;0;-0,00147006;0,199981;-0,00229115;-0,16515;0,0229932;-0,104261;-0,0364212;0;0;0,670676;0,0717276;3,67599;-0,0322886;0,0116937;0;0;0;-1080;1080;-500;1700;-10;10;-10;-0;0;-0;250;1,2;0,2;177;-1,2;-1;2555;0,07;4294967295;3750003968;0;16384;
6,48911;-5,44133;0;178;216;2150;0;-0,00147006;0,199981;-0,00229115;-0,000205877;0,0279945;-0,000330666;0;0;-0;0;0;0;0;0;0;0;0;0;0;0;0;0;0;0;0;0;0;-0,00147006;0,199981;-0,00229115;-0,16515;0,0229932;-0,104261;-0,0364212;0;0;0,670676;0,0717276;3,67599;-0,0322886;0,0116937;0;0;0;-1080;1080;-500;1700;-10;10;-10;-0;0;-0;250;1,2;0,2;177;-1,2;-1;2555;0,07;4294967295;3750003968;0;16384;
6,49924;-5,44133;0;178;216;2200;0;-0,00147006;0,199982;-0,00225624;-0,000220766;0,0300199;-0,000353517;0;0;-0;0;0;0;0;0;0;0;0;0;0;0;0;0;0;0;0;0;0;-0,00147006;0,199982;-0,00225624;-0,16515;0,0229932;-0,104261;-0,0364212;0;0;0,670676;0,0706571;3,67599;-0,0322886;0,0115192;0;0;0;-1080;1080;-500;1700;-10;10;-10;-0;0;-0;250;1,2;0,2;177;-1,2;-1;2555;0,07;4294967295;3750003968;0;16384;
6,50916;-5,44133;0;178;216;2250;0;-0,00147006;0,199982;-0,00222134;-0,00023535;0,0320039;-0,000375555;0;0;-0;0;0;0;0;0;0;0;0;0;0;0;0;0;0;0;0;0;0;-0,00147006;0,199982;-0,00222134;-0,16515;0,0229932;-0,104261;-0,0364212;0;0;0,670672;0,0695861;3,67603;-0,0322886;0,0113446;0;0;0;-1080;1080;-500;1700;-10;10;-10;-0;0;-0;250;1,2;0,2;177;-1,2;-1;2555;0,07;4294967295;3750003968;0;16384;
6,51915;-5,44133;0;178;216;2300;0;-0,00147006;0,199982;-0,00222134;-0,000250036;0,0340018;-0,000397746;0;0;-0;0;0;0;0;0;0;0;0;0;0;0;0;0;0;0;0;0;0;-0,00147006;0,199982;-0,00222134;-0,16515;0,0229932;-0,104261;-0,0364212;0;0;0,670667;0,0695857;3,67608;-0,0322886;0,0113446;0;0;0;-1080;1080;-500;1700;-10;10;-10;-0;0;-0;250;1,2;0,2;177;-1,2;-1;2555;0,07;4294967295;3750003968;0;16384;
6,529;-5,44133;0,001;178;216;2350;0;-0,00146892;0,199983;-0,00215082;-0,000264513;0,0359726;-0,000418942;0;0;-0,001;0;0;0;0;0;0;0;0;0;0;0;0;0;0;0;0;0;0;-0,00146892;0,199983;-0,00215082;-0,16515;0,0229932;-0,104261;-0,0364212;3,58932e-05;0;0,669603;0,0685152;3,67608;-0,0321141;0,0111701;0;0;0;-1080;1080;-500;1700;-10;10;-10;-0;0;-0;250;1,2;0,2;177;-1,2;-1;2555;0,07;4294967295;3750003968;0;16384;
6,53904;-5,44133;0,001;178;216;2400;0;-0,00146892;0,199983;-0,00218572;-0,00027926;0,0379804;-0,000440887;0;0;-0,001;0;0;0;0;0;0;0;0;0;0;0;0;0;0;0;0;0;0;-0,00146892;0,199983;-0,00218572;-0,16515;0,0229932;-0,104261;-0,0364212;3,58932e-05;0;0,669594;0,0695847;3,67616;-0,0321141;0,0113446;0;0;0;-1080;1080;-500;1700;-10;10;-10;-0;0;-0;250;1,2;0,2;177;-1,2;-1;2555;0,07;4294967295;3750003968;0;16384;
6,54918;-5,44133;0,001;178;216;2450;0;-0,00146893;0,199982;-0,00222088;-0,000294145;0,0400068;-0,000463391;0;0;-0,001;0;0;0;0;0;0;0;0;0;0;0;0;0;0;0;0;0;0;-0,00146893;0,199982;-0,00222088;-0,16515;0,0229932;-0,104261;-0,0364212;3,58932e-05;0;0,668534;0,0706557;3,67612;-0,0319395;0,0115192;0;0;0;-1080;1080;-500;1700;-10;10;-10;-0;0;-0;250;1,2;0,2;177;-1,2;-1;2555;0,07;4294967295;3750003968;0;16384;
6,5591;-5,44133;0,001;178;216;2500;0;-0,00146893;0,199982;-0,00222088;-0,000308714;0,0419903;-0,000485418;0;0;-0,001;0;0;0;0;0;0;0;0;0;0;0;0;0;0;0;0;0;0;-0,00146893;0,199982;-0,00222088;-0,16515;0,0229932;-0,104261;-0,0364212;3,58932e-05;0;0,668539;0,0706562;3,67607;-0,0319395;0,0115192;0;0;0;-1080;1080;-500;1700;-10;10;-10;-0;0;-0;250;1,2;0,2;177;-1,2;-1;2555;0,07;4294967295;3750003968;0;16384;
6,56903;-5,44133;0,002;178;216;2550;0;-0,00146778;0,199983;-0,00218501;-0,000323292;0,0439765;-0,000507119;0;0;-0,002;0;0;0;0;0;0;0;0;0;0;0;0;0;0;0;0;0;0;-0,00146778;0,199983;-0,00218501;-0,16515;0,0229932;-0,104261;-0,0364212;7,17864e-05;0;0,668539;0,0706562;3,67607;-0,0319395;0,0115192;0;0;0;-1080;1080;-500;1700;-10;10;-10;-0;0;-0;250;1,2;0,2;177;-1,2;-1;2555;0,07;4294967295;3750003968;0;16384;
6,57918;-5,44133;0,002;178;216;2556;0;-0,00150267;0,199983;-0,00214899;-0,00033855;0,0460071;-0,00052894;0;0;-0,002;0;0;0;0;0;0;0;0;0;0;0;0;0;0;0;0;0;0;-0,00150267;0,199983;-0,00214899;-0,16515;0,0229932;-0,104261;-0,0364212;7,17864e-05;0;0,668534;0,0695852;3,67612;-0,0319395;0,0113446;0;0;0;-1080;1080;-500;1700;-10;10;-10;-0;0;-0;250;1,2;0,2;177;-1,2;-1;2555;0,07;4294967295;3750003968;0;16384;
6,58901;-5,44133;0,002;178;216;2556;0;-0,00153754;0,199983;-0,0021127;-0,000353661;0,0479725;-0,000549704;0;0;-0,002;0;0;0;0;0;0;0;0;0;0;0;0;0;0;0;0;0;0;-0,00153754;0,199983;-0,0021127;-0,16515;0,0229932;-0,104261;-0,0364212;7,17864e-05;0;0,669594;0,0685142;3,67616;-0,0321141;0,0111701;0;0;0;-1080;1080;-500;1700;-10;10;-10;-0;0;-0;250;1,2;0,2;177;-1,2;-1;2555;0,07;4294967295;3750003968;0;16384;
6,59906;-5,44133;0,002;178;216;2556;0;-0,00153754;0,199983;-0,0021127;-0,000369113;0,0499824;-0,000570936;0;0;-0,002;0;0;0;0;0;0;0;0;0;0;0;0;0;0;0;0;0;0;-0,00153754;0,199983;-0,0021127;-0,16515;0,0229932;-0,104261;-0,0364212;7,17864e-05;0;0,669589;0,0685138;3,6762;-0,0321141;0,0111701;0;0;0;-1080;1080;-500;1700;-10;10;-10;-0;0;-0;250;1,2;0,2;177;-1,2;-1;2555;0,07;4294967295;3750003968;0;16384;
6,60908;-5,44133;0,003;178;216;2556;0;-0,00160613;0,199983;-0,00203939;-0,000385212;0,0519868;-0,000591377;0;0;-0,003;0;0;0;0;0;0;0;0;0;0;0;0;0;0;0;0;0;0;-0,00160613;0,199983;-0,00203939;-0,16515;0,0229931;-0,104261;-0,0364211;0,00010768;0;0,670653;0,0674433;3,6762;-0,0322886;0,0109956;0;0;0;-1080;1080;-500;1700;-10;10;-10;-0;0;-0;250;1,2;0,2;177;-1,2;-1;2555;0,07;4294967295;3750003968;0;16384;
6,61915;-5,44133;0,003;178;216;2556;0;-0,00164102;0,199983;-0,00203827;-0,000401733;0,0540002;-0,000611898;0;0;-0,003;0;0;0;0;0;0;0;0;0;0;0;0;0;0;0;0;0;0;-0,00164102;0,199983;-0,00203827;-0,16515;0,0229931;-0,104261;-0,0364211;0,00010768;0;0,670644;0,0674423;3,67629;-0,0322886;0,0109956;0;0;0;-1080;1080;-500;1700;-10;10;-10;-0;0;-0;250;1,2;0,2;177;-1,2;-1;2555;0,07;4294967295;3750003968;0;16384;
6,62918;-5,44133;0,004;178;216;2555;0;-0,00167471;0,199983;-0,00196607;-0,000418526;0,0560055;-0,000631612;0;0;-0,004;0;0;0;0;0;0;0;0;0;0;0;0;0;0;0;0;0;0;-0,00167471;0,199983;-0,00196607;-0,16515;0,0229931;-0,104261;-0,0364211;0,000143573;0;0,671708;0,0663718;3,67629;-0,0324631;0,010821;0;0;0;-1080;1080;-500;1700;-10;10;-10;-0;0;-0;250;1,2;0,2;177;-1,2;-1;2555;0,07;4294967295;3750003968;0;16384;
6,63913;-5,44133;0,004;178;216;2555;0;-0,00167471;0,199983;-0,00196607;-0,000435191;0,0579955;-0,000651176;0;0;-0,004;0;0;0;0;0;0;0;0;0;0;0;0;0;0;0;0;0;0;-0,00167471;0,199983;-0,00196607;-0,16515;0,0229931;-0,104261;-0,0364211;0,000143573;0;0,671698;0,0663709;3,67638;-0,0324631;0,010821;0;0;0;-1080;1080;-500;1700;-10;10;-10;-0;0;-0;250;1,2;0,2;177;-1,2;-1;2555;0,07;4294967295;3750003968;0;16384;
6,64902;-5,44133;0,004;178;216;2555;0;-0,00167468;0,199984;-0,00193087;-0,000451753;0,0599733;-0,000670273;0;0;-0,004;0;0;0;0;0;0;0;0;0;0;0;0;0;0;0;0;0;0;-0,00167468;0,199984;-0,00193087;-0,16515;0,0229931;-0,104261;-0,0364211;0,000143573;0;0,672763;0,0653005;3,67638;-0,0326377;0,0106465;0;0;0;-1080;1080;-500;1700;-10;10;-10;-0;0;-0;250;1,2;0,2;177;-1,2;-1;2555;0,07;4294967295;3750003968;0;16384;
6,65905;-5,44133;0,004;178;216;2555;0;-0,00167468;0,199984;-0,00189597;-0,000468554;0,0619796;-0,000689293;0;0;-0,004;0;0;0;0;0;0;0;0;0;0;0;0;0;0;0;0;0;0;-0,00167468;0,199984;-0,00189597;-0,16515;0,0229931;-0,104261;-0,0364211;0,000143573;0;0,672758;0,0642296;3,67642;-0,0326377;0,010472;0;0;0;-1080;1080;-500;1700;-10;10;-10;-0;0;-0;250;1,2;0,2;177;-1,2;-1;2555;0,07;4294967295;3750003968;0;16384;
6,66908;-5,44133;0,005;178;216;2555;0;-0,00167351;0,199984;-0,001895;-0,000485334;0,0639848;-0,000708294;0;0;-0,005;0;0;0;0;0;0;0;0;0;0;0;0;0;0;0;0;0;0;-0,00167351;0,199984;-0,001895;-0,16515;0,0229931;-0,104261;-0,0364211;0,000179466;0;0,672753;0,0652996;3,67646;-0,0326377;0,0106465;0;0;0;-1080;1080;-500;1700;-10;10;-10;-0;0;-0;250;1,2;0,2;177;-1,2;-1;2555;0,07;4294967295;3750003968;0;16384;
6,67915;-5,44133;0,005;178;216;2555;0;-0,00167351;0,199984;-0,001895;-0,000502198;0,0660001;-0,00072739;0;0;-0,005;0;0;0;0;0;0;0;0;0;0;0;0;0;0;0;0;0;0;-0,00167351;0,199984;-0,001895;-0,16515;0,0229931;-0,104261;-0,0364211;0,000179466;0;0,672753;0,0652996;3,67646;-0,0326377;0,0106465;0;0;0;-1080;1080;-500;1700;-10;10;-10;-0;0;-0;250;1,2;0,2;177;-1,2;-1;2555;0,07;4294967295;3750003968;0;16384;
6,68908;-5,44133;0,005;178;216;2555;0;-0,00170844;0,199984;-0,00189415;-0,000519161;0,0679857;-0,000746197;0;0;-0,005;0;0;0;0;0;0;0;0;0;0;0;0;0;0;0;0;0;0;-0,00170844;0,199984;-0,00189415;-0,16515;0,0229931;-0,104261;-0,0364211;0,000179466;0;0,671689;0,0652996;3,67646;-0,0324631;0,0106465;0;0;0;-1080;1080;-500;1700;-10;10;-10;-0;0;-0;250;1,2;0,2;177;-1,2;-1;2555;0,07;4294967295;3750003968;0;16384;
6,69916;-5,44133;0,005;178;216;2555;0;-0,00170848;0,199983;-0,00192936;-0,00053637;0,0700001;-0,000765632;0;0;-0,005;0;0;0;0;0;0;0;0;0;0;0;0;0;0;0;0;0;0;-0,00170848;0,199983;-0,00192936;-0,16515;0,0229931;-0,104261;-0,0364211;0,000179466;0;0,670625;0,06637;3,67646;-0,0322886;0,010821;0;0;0;-1080;1080;-500;1700;-10;10;-10;-0;0;-0;250;1,2;0,2;177;-1,2;-1;2555;0,07;4294967295;3750003968;0;16384;
6,70913;-5,44133;0,006;178;216;2555;0;-0,00170732;0,199984;-0,00189348;-0,000553406;0,0719956;-0,000784525;0;0;-0,006;0;0;0;0;0;0;0;0;0;0;0;0;0;0;0;0;0;0;-0,00170732;0,199984;-0,00189348;-0,16515;0,0229931;-0,104261;-0,0364211;0,000215359;0;0,67063;0,0663705;3,67642;-0,0322886;0,010821;0;0;0;-1080;1080;-500;1700;-10;10;-10;-0;0;-0;250;1,2;0,2;177;-1,2;-1;2555;0,07;4294967295;3750003968;0;16384;
6,71913;-5,44133;0,006;178;216;2555;0;-0,00170732;0,199984;-0,00189348;-0,000570471;0,0739944;-0,00080345;0;0;-0,006;0;0;0;0;0;0;0;0;0;0;0;0;0;0;0;0;0;0;-0,00170732;0,199984;-0,00189348;-0,16515;0,0229931;-0,104261;-0,0364211;0,000215359;0;0,670625;0,06637;3,67646;-0,0322886;0,010821;0;0;0;-1080;1080;-500;1700;-10;10;-10;-0;0;-0;250;1,2;0,2;177;-1,2;-1;2555;0,07;4294967295;3750003968;0;16384;
6,72908;-5,44133;0,006;178;216;2555;0;-0,00170736;0,199984;-0,00185888;-0,000587457;0,075984;-0,000821944;0;0;-0,006;0;0;0;0;0;0;0;0;0;0;0;0;0;0;0;0;0;0;-0,00170736;0,199984;-0,00185888;-0,16515;0,0229931;-0,104261;-0,0364211;0,000215359;0;0,669561;0,0652996;3,67646;-0,0321141;0,0106465;0;0;0;-1080;1080;-500;1700;-10;10;-10;-0;0;-0;250;1,2;0,2;177;-1,2;-1;2555;0,07;4294967295;3750003968;0;16384;
6,73908;-5,44133;0,007;178;216;2555;0;-0,00170626;0,199985;-0,0017884;-0,000604528;0,0779849;-0,000839837;0;0;-0,007;0;0;0;0;0;0;0;0;0;0;0;0;0;0;0;0;0;0;-0,00170626;0,199985;-0,0017884;-0,16515;0,0229931;-0,104261;-0,0364211;0,000251252;0;0,668493;0,0642287;3,6765;-0,0319395;0,010472;0;0;0;-1080;1080;-500;1700;-10;10;-10;-0;0;-0;250;1,2;0,2;177;-1,2;-1;2555;0,07;4294967295;3750003968;0;16384;
6,74909;-5,44133;0,008;178;216;2555;0;-0,00170518;0,199985;-0,00171792;-0,000621597;0,0799867;-0,000857033;0;0;-0,008;0;0;0;0;0;0;0;0;0;0;0;0;0;0;0;0;0;0;-0,00170518;0,199985;-0,00171792;-0,16515;0,0229931;-0,104261;-0,0364211;0,000287145;0;0,667419;0,0631574;3,67658;-0,031765;0,0102974;0;0;0;-1080;1080;-500;1700;-10;10;-10;-0;0;-0;250;1,2;0,2;177;-1,2;-1;2555;0,07;4294967295;3750003968;0;16384;
6,75903;-5,44133;0,008;178;216;2555;0;-0,00170518;0,199985;-0,00171792;-0,000638538;0,0819736;-0,000874101;0;0;-0,008;0;0;0;0;0;0;0;0;0;0;0;0;0;0;0;0;0;0;-0,00170518;0,199985;-0,00171792;-0,16515;0,0229931;-0,104261;-0,0364211;0,000287145;0;0,66741;0,0631565;3,67667;-0,031765;0,0102974;0;0;0;-1080;1080;-500;1700;-10;10;-10;-0;0;-0;250;1,2;0,2;177;-1,2;-1;2555;0,07;4294967295;3750003968;0;16384;
6,76911;-5,44133;0,009;178;216;2555;0;-0,00170404;0,199985;-0,00171695;-0,000655722;0,0839902;-0,000891415;0;0;-0,009;0;0;0;0;0;0;0;0;0;0;0;0;0;0;0;0;0;0;-0,00170404;0,199985;-0,00171695;-0,165149;0,0229931;-0,104261;-0,0364211;0,000323039;0;0,66741;0,0642269;3,67667;-0,031765;0,010472;0;0;0;-1080;1080;-500;1700;-10;10;-10;-0;0;-0;250;1,2;0,2;177;-1,2;-1;2555;0,07;4294967295;3750003968;0;16384;
6,77911;-5,44133;0,009;178;216;2555;0;-0,00166915;0,199986;-0,00171806;-0,000672415;0,0859903;-0,000908597;0;0;-0,009;0;0;0;0;0;0;0;0;0;0;0;0;0;0;0;0;0;0;-0,00166915;0,199986;-0,00171806;-0,165149;0,0229931;-0,104261;-0,0364211;0,000323039;0;0,66741;0,0642269;3,67667;-0,031765;0,010472;0;0;0;-1080;1080;-500;1700;-10;10;-10;-0;0;-0;250;1,2;0,2;177;-1,2;-1;2555;0,07;4294967295;3750003968;0;16384;
6,78906;-5,44133;0,01;178;216;2555;0;-0,00166794;0,199986;-0,0017168;-0,000689002;0,0879792;-0,000925671;0;0;-0,01;0;0;0;0;0;0;0;0;0;0;0;0;0;0;0;0;0;0;-0,00166794;0,199986;-0,0017168;-0,165149;0,0229931;-0,104261;-0,0364211;0,000358932;0;0,668474;0,0652974;3,67667;-0,0319395;0,0106465;0;0;0;-1080;1080;-500;1700;-10;10;-10;-0;0;-0;250;1,2;0,2;177;-1,2;-1;2555;0,07;4294967295;3750003968;0;16384;
6,79918;-5,44133;0,01;178;216;2555;0;-0,00166794;0,199986;-0,0017168;-0,000705887;0,0900036;-0,00094305;0;0;-0,01;0;0;0;0;0;0;0;0;0;0;0;0;0;0;0;0;0;0;-0,00166794;0,199986;-0,0017168;-0,165149;0,0229931;-0,104261;-0,0364211;0,000358932;0;0,668474;0,0652973;3,67667;-0,0319395;0,0106465;0;0;0;-1080;1080;-500;1700;-10;10;-10;-0;0;-0;250;1,2;0,2;177;-1,2;-1;2555;0,07;4294967295;3750003968;0;16384;
6,80909;-5,44133;0,01;178;216;2555;0;-0,00166787;0,199985;-0,00175141;-0,000722417;0,0919857;-0,000960408;0;0;-0,01;0;0;0;0;0;0;0;0;0;0;0;0;0;0;0;0;0;0;-0,00166787;0,199985;-0,00175141;-0,165149;0,0229931;-0,104261;-0,0364211;0,000358932;0;0,669538;0,0663677;3,67667;-0,0321141;0,010821;0;0;0;-1080;1080;-500;1700;-10;10;-10;-0;0;-0;250;1,2;0,2;177;-1,2;-1;2555;0,07;4294967295;3750003968;0;16384;
6,81905;-5,44133;0,01;178;216;2555;0;-0,00166787;0,199985;-0,00178632;-0,000739033;0,0939779;-0,000978203;0;0;-0,01;0;0;0;0;0;0;0;0;0;0;0;0;0;0;0;0;0;0;-0,00166787;0,199985;-0,00178632;-0,165149;0,0229931;-0,104261;-0,0364211;0,000358932;0;0,669543;0,0674386;3,67663;-0,0321141;0,0109956;0;0;0;-1080;1080;-500;1700;-10;10;-10;-0;0;-0;250;1,2;0,2;177;-1,2;-1;2555;0,07;4294967295;3750003968;0;16384;
6,82907;-5,44133;0,011;178;216;2555;0;-0,00166679;0,199985;-0,00175074;-0,000755734;0,0959818;-0,000995746;0;0;-0,011;0;0;0;0;0;0;0;0;0;0;0;0;0;0;0;0;0;0;-0,00166679;0,199985;-0,00175074;-0,165149;0,0229931;-0,104261;-0,0364211;0,000394825;0;0,668483;0,0674391;3,67658;-0,0319395;0,0109956;0;0;0;-1080;1080;-500;1700;-10;10;-10;-0;0;-0;250;1,2;0,2;177;-1,2;-1;2555;0,07;4294967295;3750003968;0;16384;
6,83904;-5,44133;0,011;178;216;2555;0;-0,00166679;0,199985;-0,00175074;-0,000772345;0,0979748;-0,00101319;0;0;-0,011;0;0;0;0;0;0;0;0;0;0;0;0;0;0;0;0;0;0;-0,00166679;0,199985;-0,00175074;-0,165149;0,0229931;-0,104261;-0,0364211;0,000394825;0;0,668479;0,0674386;3,67663;-0,0319395;0,0109956;0;0;0;-1080;1080;-500;1700;-10;10;-10;-0;0;-0;250;1,2;0,2;177;-1,2;-1;2555;0,07;4294967295;3750003968;0;16384;
6,84916;-5,44133;0,011;178;216;2555;0;-0,00170176;0,199985;-0,00178482;-0,000789565;0,0999985;-0,00103125;0;0;-0,011;0;0;0;0;0;0;0;0;0;0;0;0;0;0;0;0;0;0;-0,00170176;0,199985;-0,00178482;-0,165149;0,0229931;-0,104261;-0,0364211;0,000394825;0;0,667415;0,068509;3,67663;-0,031765;0,0111701;0;0;0;-1080;1080;-500;1700;-10;10;-10;-0;0;-0;250;1,2;0,2;177;-1,2;-1;2555;0,07;4294967295;3750003968;0;16384;
6,85909;-5,44133;0,011;178;217;2555;0;-0,00170176;0,199985;-0,00178482;-0,000806462;0,101984;-0,00104898;0;0;-0,011;0;0;0;0;0;0;0;0;0;0;0;0;0;0;0;0;0;0;-0,00170176;0,199985;-0,00178482;-0,165149;0,0229931;-0,104261;-0,0364211;0,000394825;0;0,667419;0,0685095;3,67658;-0,031765;0,0111701;0;0;0;-1080;1080;-500;1700;-10;10;-10;-0;0;-0;250;1,2;0,2;177;-1,2;-1;2555;0,07;4294967295;3750003968;0;16384;
6,86911;-5,44133;0,01;178;217;2555;0;-0,00170297;0,199985;-0,00178608;-0,000823531;0,103989;-0,00106688;0;0;-0,01;0;0;0;0;0;0;0;0;0;0;0;0;0;0;0;0;0;0;-0,00170297;0,199985;-0,00178608;-0,165149;0,0229931;-0,104261;-0,0364211;0,000358932;0;0,666355;0,0674391;3,67658;-0,0315905;0,0109956;0;0;0;-1080;1080;-500;1700;-10;10;-10;-0;0;-0;250;1,2;0,2;177;-1,2;-1;2555;0,07;4294967295;3750003968;0;16384;
6,8791;-5,44133;0,01;178;217;2555;0;-0,00170297;0,199985;-0,00178608;-0,00084054;0,105986;-0,00108472;0;0;-0,01;0;0;0;0;0;0;0;0;0;0;0;0;0;0;0;0;0;0;-0,00170297;0,199985;-0,00178608;-0,165149;0,0229931;-0,104261;-0,0364211;0,000358932;0;0,666355;0,0674391;3,67658;-0,0315905;0,0109956;0;0;0;-1080;1080;-500;1700;-10;10;-10;-0;0;-0;250;1,2;0,2;177;-1,2;-1;2555;0,07;4294967295;3750003968;0;16384;
6,88903;-5,44133;0,009;178;217;2555;0;-0,00170417;0,199984;-0,00182226;-0,000857466;0,107972;-0,00110282;0;0;-0,009;0;0;0;0;0;0;0;0;0;0;0;0;0;0;0;0;0;0;-0,00170417;0,199984;-0,00182226;-0,165149;0,0229931;-0,104261;-0,0364211;0,000323039;0;0,665291;0,0674391;3,67658;-0,0314159;0,0109956;0;0;0;-1080;1080;-500;1700;-10;10;-10;-0;0;-0;250;1,2;0,2;177;-1,2;-1;2555;0,07;4294967295;3750003968;0;16384;
6,89914;-5,44133;0,008;178;217;2555;0;-0,00170524;0,199984;-0,00182293;-0,000874706;0,109994;-0,00112125;0;0;-0,008;0;0;0;0;0;0;0;0;0;0;0;0;0;0;0;0;0;0;-0,00170524;0,199984;-0,00182293;-0,16515;0,0229931;-0,104261;-0,0364211;0,000287145;0;0,66636;0,0663692;3,67654;-0,0315905;0,010821;0;0;0;-1080;1080;-500;1700;-10;10;-10;-0;0;-0;250;1,2;0,2;177;-1,2;-1;2555;0,07;4294967295;3750003968;0;16384;
6,90928;-5,44133;0,007;178;217;2555;0;-0,00170632;0,199984;-0,0018236;-0,000892004;0,112022;-0,00113973;0;0;-0,007;0;0;0;0;0;0;0;0;0;0;0;0;0;0;0;0;0;0;-0,00170632;0,199984;-0,0018236;-0,16515;0,0229931;-0,104261;-0,0364211;0,000251252;0;0,667425;0,0652987;3,67654;-0,031765;0,0106465;0;0;0;-1080;1080;-500;1700;-10;10;-10;-0;0;-0;250;1,2;0,2;177;-1,2;-1;2555;0,07;4294967295;3750003968;0;16384;
6,9191;-5,44133;0,007;178;217;2555;0;-0,00170632;0,199984;-0,0018236;-0,000908757;0,113985;-0,00115764;0;0;-0,007;0;0;0;0;0;0;0;0;0;0;0;0;0;0;0;0;0;0;-0,00170632;0,199984;-0,0018236;-0,16515;0,0229931;-0,104261;-0,0364211;0,000251252;0;0,667425;0,0652988;3,67653;-0,031765;0,0106465;0;0;0;-1080;1080;-500;1700;-10;10;-10;-0;0;-0;250;1,2;0,2;177;-1,2;-1;2555;0,07;4294967295;3750003968;0;16384;
6,92912;-5,44133;0,007;178;217;2555;0;-0,00170632;0,199984;-0,0018236;-0,000925863;0,11599;-0,00117592;0;0;-0,007;0;0;0;0;0;0;0;0;0;0;0;0;0;0;0;0;0;0;-0,00170632;0,199984;-0,0018236;-0,16515;0,0229931;-0,104261;-0,0364211;0,000251252;0;0,667425;0,0652988;3,67653;-0,031765;0,0106465;0;0;0;-1080;1080;-500;1700;-10;10;-10;-0;0;-0;250;1,2;0,2;177;-1,2;-1;2555;0,07;4294967295;3750003968;0;16384;
6,93902;-5,44133;0,006;178;217;2555;0;-0,00170746;0,199984;-0,00185947;-0,00094276;0,117969;-0,00119432;0;0;-0,006;0;0;0;0;0;0;0;0;0;0;0;0;0;0;0;0;0;0;-0,00170746;0,199984;-0,00185947;-0,16515;0,0229931;-0,104261;-0,0364211;0,000215359;0;0,667425;0,0652988;3,67653;-0,031765;0,0106465;0;0;0;-1080;1080;-500;1700;-10;10;-10;-0;0;-0;250;1,2;0,2;177;-1,2;-1;2555;0,07;4294967295;3750003968;0;16384;
6,94915;-5,44133;0,005;178;217;2555;0;-0,00170864;0,199983;-0,00193055;-0,000960075;0,119996;-0,00121388;0;0;-0,005;0;0;0;0;0;0;0;0;0;0;0;0;0;0;0;0;0;0;-0,00170864;0,199983;-0,00193055;-0,16515;0,0229931;-0,104261;-0,0364211;0,000179466;0;0,666365;0,0663697;3,67649;-0,0315905;0,010821;0;0;0;-1080;1080;-500;1700;-10;10;-10;-0;0;-0;250;1,2;0,2;177;-1,2;-1;2555;0,07;4294967295;3750003968;0;16384;
6,95908;-5,44133;0,005;178;217;2555;0;-0,00170864;0,199983;-0,00193055;-0,000977032;0,12198;-0,00123304;0;0;-0,005;0;0;0;0;0;0;0;0;0;0;0;0;0;0;0;0;0;0;-0,00170864;0,199983;-0,00193055;-0,16515;0,0229931;-0,104261;-0,0364211;0,000179466;0;0,666375;0,0663706;3,6764;-0,0315905;0,010821;0;0;0;-1080;1080;-500;1700;-10;10;-10;-0;0;-0;250;1,2;0,2;177;-1,2;-1;2555;0,07;4294967295;3750003968;0;16384;
6,96907;-5,44133;0,005;178;217;2555;0;-0,00170864;0,199983;-0,00193055;-0,000994103;0,123978;-0,00125233;0;0;-0,005;0;0;0;0;0;0;0;0;0;0;0;0;0;0;0;0;0;0;-0,00170864;0,199983;-0,00193055;-0,16515;0,0229931;-0,104261;-0,0364211;0,000179466;0;0,666375;0,0663706;3,6764;-0,0315905;0,010821;0;0;0;-1080;1080;-500;1700;-10;10;-10;-0;0;-0;250;1,2;0,2;177;-1,2;-1;2555;0,07;4294967295;3750003968;0;16384;
6,97911;-5,44133;0,003;178;217;2556;0;-0,00171094;0,199982;-0,0020375;-0,00101129;0,125987;-0,0012728;0;0;-0,003;0;0;0;0;0;0;0;0;0;0;0;0;0;0;0;0;0;0;-0,00171094;0,199982;-0,0020375;-0,16515;0,0229931;-0,104261;-0,0364211;0,00010768;0;0,665311;0,0674411;3,6764;-0,0314159;0,0109956;0;0;0;-1080;1080;-500;1700;-10;10;-10;-0;0;-0;250;1,2;0,2;177;-1,2;-1;2555;0,07;4294967295;3750003968;0;16384;
6,98907;-5,44133;0,002;178;217;2556;0;-0,00171208;0,199982;-0,00210857;-0,00102834;0,127979;-0,0012938;0;0;-0,002;0;0;0;0;0;0;0;0;0;0;0;0;0;0;0;0;0;0;-0,00171208;0,199982;-0,00210857;-0,16515;0,0229932;-0,104261;-0,0364212;7,17864e-05;0;0,66426;0,0685129;3,67627;-0,0312414;0,0111701;0;0;0;-1080;1080;-500;1700;-10;10;-10;-0;0;-0;250;1,2;0,2;177;-1,2;-1;2555;0,07;4294967295;3750003968;0;16384;
6,99908;-5,44133;0,002;178;217;2556;0;-0,00171208;0,199982;-0,00210857;-0,00104548;0,12998;-0,0013149;0;0;-0,002;0;0;0;0;0;0;0;0;0;0;0;0;0;0;0;0;0;0;-0,00171208;0,199982;-0,00210857;-0,16515;0,0229932;-0,104261;-0,0364212;7,17864e-05;0;0,66427;0,0685139;3,67619;-0,0312414;0,0111701;0;0;0;-1080;1080;-500;1700;-10;10;-10;-0;0;-0;250;1,2;0,2;177;-1,2;-1;2555;0,07;4294967295;3750003968;0;16384;
7,00913;-5,44133;0;178;217;2556;0;-0,00171433;0,199981;-0,00218032;-0,00106271;0,13199;-0,00133682;0;0;-0;0;0;0;0;0;0;0;0;0;0;0;0;0;0;0;0;0;0;-0,00171433;0,199981;-0,00218032;-0,16515;0,0229932;-0,104261;-0,0364212;0;0;0,66427;0,0685139;3,67619;-0,0312414;0,0111701;0;0;0;-1080;1080;-500;1700;-10;10;-10;-0;0;-0;250;1,2;0,2;177;-1,2;-1;2555;0,07;4294967295;3750003968;0;16384;
7,01915;-5,44133;0;178;217;2556;0;-0,00171434;0,19998;-0,00221552;-0,00107988;0,133993;-0,001359;0;0;-0;0;0;0;0;0;0;0;0;0;0;0;0;0;0;0;0;0;0;-0,00171434;0,19998;-0,00221552;-0,16515;0,0229932;-0,104261;-0,0364212;0;0;0,663215;0,0695854;3,6761;-0,0310669;0,0113446;0;0;0;-1080;1080;-500;1700;-10;10;-10;-0;0;-0;250;1,2;0,2;177;-1,2;-1;2555;0,07;4294967295;3750003968;0;16384;
7,02912;-5,44133;-0,001;178;217;2556;0;-0,00171545;0,19998;-0,0022517;-0,00109699;0,135988;-0,00138146;0;0;0,001;0;0;0;0;0;0;0;0;0;0;0;0;0;0;0;0;0;0;-0,00171545;0,19998;-0,0022517;-0,16515;0,0229932;-0,104261;-0,0364212;-3,58932e-05;0;0,662155;0,0695859;3,67606;-0,0308923;0,0113446;0;0;0;-1080;1080;-500;1700;-10;10;-10;-0;0;-0;250;1,2;0,2;177;-1,2;-1;2555;0,07;4294967295;3750003968;0;16384;
7,03914;-5,44133;-0,001;178;217;2556;0;-0,00171545;0,19998;-0,0022517;-0,00111417;0,137991;-0,00140402;0;0;0,001;0;0;0;0;0;0;0;0;0;0;0;0;0;0;0;0;0;0;-0,00171545;0,19998;-0,0022517;-0,16515;0,0229932;-0,104261;-0,0364212;-3,58932e-05;0;0,66216;0,0695864;3,67602;-0,0308923;0,0113446;0;0;0;-1080;1080;-500;1700;-10;10;-10;-0;0;-0;250;1,2;0,2;177;-1,2;-1;2555;0,07;4294967295;3750003968;0;16384;
7,04912;-5,44133;-0,002;178;217;2556;0;-0,00171656;0,199979;-0,00232277;-0,00113131;0,139988;-0,00142721;0;0;0,002;0;0;0;0;0;0;0;0;0;0;0;0;0;0;0;0;0;0;-0,00171656;0,199979;-0,00232277;-0,16515;0,0229932;-0,104261;-0,0364212;-7,17864e-05;0;0,661096;0,0706569;3,67601;-0,0307178;0,0115192;0;0;0;-1080;1080;-500;1700;-10;10;-10;-0;0;-0;250;1,2;0,2;177;-1,2;-1;2555;0,07;4294967295;3750003968;0;16384;
7,05913;-5,44133;-0,002;178;217;2556;0;-0,00171656;0,199979;-0,00232247;-0,00114849;0,14199;-0,00145046;0;0;0,002;0;0;0;0;0;0;0;0;0;0;0;0;0;0;0;0;0;0;-0,00171656;0,199979;-0,00232247;-0,16515;0,0229932;-0,104261;-0,0364212;-7,17864e-05;0;0,662169;0,0706579;3,67593;-0,0308923;0,0115192;0;0;0;-1080;1080;-500;1700;-10;10;-10;-0;0;-0;250;1,2;0,2;177;-1,2;-1;2555;0,07;4294967295;3750003968;0;16384;
7,069;-5,44133;-0,003;178;217;2556;0;-0,00171768;0,199978;-0,00239295;-0,00116545;0,143963;-0,00147408;0;0;0,003;0;0;0;0;0;0;0;0;0;0;0;0;0;0;0;0;0;0;-0,00171768;0,199978;-0,00239295;-0,16515;0,0229931;-0,104261;-0,0364211;-0,00010768;0;0,663233;0,0717284;3,67593;-0,0310669;0,0116937;0;0;0;-1080;1080;-500;1700;-10;10;-10;-0;0;-0;250;1,2;0,2;177;-1,2;-1;2555;0,07;4294967295;3750003968;0;16384;
7,07903;-5,44133;-0,003;178;217;2556;0;-0,00171768;0,199978;-0,00239295;-0,00118266;0,145968;-0,00149806;0;0;0,003;0;0;0;0;0;0;0;0;0;0;0;0;0;0;0;0;0;0;-0,00171768;0,199978;-0,00239295;-0,16515;0,0229931;-0,104261;-0,0364211;-0,00010768;0;0,663243;0,0717294;3,67584;-0,0310669;0,0116937;0;0;0;-1080;1080;-500;1700;-10;10;-10;-0;0;-0;250;1,2;0,2;177;-1,2;-1;2555;0,07;4294967295;3750003968;0;16384;
7,08909;-5,44133;-0,003;178;217;2556;0;-0,00171768;0,199978;-0,00242785;-0,00119995;0,14798;-0,0015225;0;0;0,003;0;0;0;0;0;0;0;0;0;0;0;0;0;0;0;0;0;0;-0,00171768;0,199978;-0,00242785;-0,16515;0,0229931;-0,104261;-0,0364211;-0,00010768;0;0,663243;0,0727999;3,67584;-0,0310669;0,0118682;0;0;0;-1080;1080;-500;1700;-10;10;-10;-0;0;-0;250;1,2;0,2;177;-1,2;-1;2555;0,07;4294967295;3750003968;0;16384;
7,09919;-5,44133;-0,003;178;217;2556;0;-0,00171769;0,199977;-0,00246246;-0,0012173;0,15;-0,00154737;0;0;0,003;0;0;0;0;0;0;0;0;0;0;0;0;0;0;0;0;0;0;-0,00171769;0,199977;-0,00246246;-0,16515;0,0229931;-0,104261;-0,0364211;-0,00010768;0;0,664312;0,073871;3,6758;-0,0312414;0,0120428;0;0;0;-1080;1080;-500;1700;-10;10;-10;-0;0;-0;250;1,2;0,2;177;-1,2;-1;2555;0,07;4294967295;3750003968;0;16384;
7,10902;-5,44133;-0,002;178;217;2556;0;-0,00171657;0,199978;-0,00242688;-0,00123417;0,151966;-0,00157122;0;0;0,002;0;0;0;0;0;0;0;0;0;0;0;0;0;0;0;0;0;0;-0,00171657;0,199978;-0,00242688;-0,16515;0,0229932;-0,104261;-0,0364212;-7,17864e-05;0;0,663252;0,0738715;3,67576;-0,0310669;0,0120428;0;0;0;-1080;1080;-500;1700;-10;10;-10;-0;0;-0;250;1,2;0,2;177;-1,2;-1;2555;0,07;4294967295;3750003968;0;16384;
7,11911;-5,44133;-0,002;178;217;2556;0;-0,00171657;0,199978;-0,00242688;-0,0012515;0,153984;-0,00159572;0;0;0,002;0;0;0;0;0;0;0;0;0;0;0;0;0;0;0;0;0;0;-0,00171657;0,199978;-0,00242688;-0,16515;0,0229932;-0,104261;-0,0364212;-7,17864e-05;0;0,663247;0,073871;3,6758;-0,0310669;0,0120428;0;0;0;-1080;1080;-500;1700;-10;10;-10;-0;0;-0;250;1,2;0,2;177;-1,2;-1;2555;0,07;4294967295;3750003968;0;16384;
7,12902;-5,44133;-0,001;178;217;2556;0;-0,00175034;0,199978;-0,00242513;-0,00126885;0,155966;-0,00161975;0;0;0,001;0;0;0;0;0;0;0;0;0;0;0;0;0;0;0;0;0;0;-0,00175034;0,199978;-0,00242513;-0,16515;0,0229932;-0,104261;-0,0364212;-3,58932e-05;0;0,662183;0,0749415;3,6758;-0,0308923;0,0122173;0;0;0;-1080;1080;-500;1700;-10;10;-10;-0;0;-0;250;1,2;0,2;177;-1,2;-1;2555;0,07;4294967295;3750003968;0;16384;
7,13911;-5,44133;-0,001;178;217;2556;0;-0,00175034;0,199977;-0,00246003;-0,0012865;0,157983;-0,00164457;0;0;0,001;0;0;0;0;0;0;0;0;0;0;0;0;0;0;0;0;0;0;-0,00175034;0,199977;-0,00246003;-0,16515;0,0229932;-0,104261;-0,0364212;-3,58932e-05;0;0,662183;0,076012;3,6758;-0,0308923;0,0123918;0;0;0;-1080;1080;-500;1700;-10;10;-10;-0;0;-0;250;1,2;0,2;177;-1,2;-1;2555;0,07;4294967295;3750003968;0;16384;
7,14912;-5,44133;0;178;217;2556;0;-0,00174924;0,199978;-0,00242446;-0,001304;0,159984;-0,00166883;0;0;-0;0;0;0;0;0;0;0;0;0;0;0;0;0;0;0;0;0;0;-0,00174924;0,199978;-0,00242446;-0,16515;0,0229932;-0,104261;-0,0364212;0;0;0,661123;0,0760126;3,67576;-0,0307178;0,0123918;0;0;0;-1080;1080;-500;1700;-10;10;-10;-0;0;-0;250;1,2;0,2;177;-1,2;-1;2555;0,07;4294967295;3750003968;0;16384;
7,15908;-5,44133;0;178;217;2556;0;-0,00174924;0,199978;-0,00242446;-0,00132143;0,161977;-0,00169298;0;0;-0;0;0;0;0;0;0;0;0;0;0;0;0;0;0;0;0;0;0;-0,00174924;0,199978;-0,00242446;-0,16515;0,0229932;-0,104261;-0,0364212;0;0;0,661119;0,0760121;3,6758;-0,0307178;0,0123918;0;0;0;-1080;1080;-500;1700;-10;10;-10;-0;0;-0;250;1,2;0,2;177;-1,2;-1;2555;0,07;4294967295;3750003968;0;16384;
7,16914;-5,44133;0;178;217;2556;0;-0,00174925;0,199977;-0,00245967;-0,00133903;0,163989;-0,00171773;0;0;-0;0;0;0;0;0;0;0;0;0;0;0;0;0;0;0;0;0;0;-0,00174925;0,199977;-0,00245967;-0,16515;0,0229932;-0,104261;-0,0364212;0;0;0,660054;0,0770826;3,6758;-0,0305433;0,0125664;0;0;0;-1080;1080;-500;1700;-10;10;-10;-0;0;-0;250;1,2;0,2;177;-1,2;-1;2555;0,07;4294967295;3750003968;0;16384;
7,17906;-5,44133;0;178;217;2556;0;-0,00171436;0,199978;-0,00246074;-0,00135603;0,165972;-0,00174213;0;0;-0;0;0;0;0;0;0;0;0;0;0;0;0;0;0;0;0;0;0;-0,00171436;0,199978;-0,00246074;-0,16515;0,0229932;-0,104261;-0,0364212;0;0;0,660059;0,0770831;3,67576;-0,0305433;0,0125664;0;0;0;-1080;1080;-500;1700;-10;10;-10;-0;0;-0;250;1,2;0,2;177;-1,2;-1;2555;0,07;4294967295;3750003968;0;16384;
7,18914;-5,44133;0;178;217;2556;0;-0,00171436;0,199978;-0,00246074;-0,00137331;0,167988;-0,00176694;0;0;-0;0;0;0;0;0;0;0;0;0;0;0;0;0;0;0;0;0;0;-0,00171436;0,199978;-0,00246074;-0,16515;0,0229932;-0,104261;-0,0364212;0;0;0,660059;0,0770832;3,67576;-0,0305433;0,0125664;0;0;0;-1080;1080;-500;1700;-10;10;-10;-0;0;-0;250;1,2;0,2;177;-1,2;-1;2555;0,07;4294967295;3750003968;0;16384;
7,19916;-5,44133;0;178;217;2556;0;-0,00171437;0,199978;-0,00246104;-0,00139049;0,169992;-0,0017916;0;0;-0;0;0;0;0;0;0;0;0;0;0;0;0;0;0;0;0;0;0;-0,00171437;0,199978;-0,00246104;-0,16515;0,0229932;-0,104261;-0,0364212;0;0;0,658995;0,0770832;3,67576;-0,0303687;0,0125664;0;0;0;-1080;1080;-500;1700;-10;10;-10;-0;0;-0;250;1,2;0,2;177;-1,2;-1;2555;0,07;4294967295;3750003968;0;16384;
7,20917;-5,44133;0;178;217;2556;0;-0,00171438;0,199978;-0,00242644;-0,00140766;0,171994;-0,00181589;0;0;-0;0;0;0;0;0;0;0;0;0;0;0;0;0;0;0;0;0;0;-0,00171438;0,199978;-0,00242644;-0,16515;0,0229932;-0,104261;-0,0364212;0;0;0,65793;0,0760126;3,67575;-0,0301942;0,0123918;0;0;0;-1080;1080;-500;1700;-10;10;-10;-0;0;-0;250;1,2;0,2;177;-1,2;-1;2555;0,07;4294967295;3750003968;0;16384;
7,21912;-5,44133;0;178;217;2556;0;-0,00171439;0,199978;-0,00239183;-0,00142471;0,173983;-0,00183968;0;0;-0;0;0;0;0;0;0;0;0;0;0;0;0;0;0;0;0;0;0;-0,00171439;0,199978;-0,00239183;-0,16515;0,0229932;-0,104261;-0,0364212;0;0;0,656861;0,0749416;3,6758;-0,0300197;0,0122173;0;0;0;-1080;1080;-500;1700;-10;10;-10;-0;0;-0;250;1,2;0,2;177;-1,2;-1;2555;0,07;4294967295;3750003968;0;16384;
7,22904;-5,44133;0;178;217;2556;0;-0,00171439;0,199978;-0,00239183;-0,00144171;0,175966;-0,00186341;0;0;-0;0;0;0;0;0;0;0;0;0;0;0;0;0;0;0;0;0;0;-0,00171439;0,199978;-0,00239183;-0,16515;0,0229932;-0,104261;-0,0364212;0;0;0,656857;0,0749411;3,67584;-0,0300197;0,0122173;0;0;0;-1080;1080;-500;1700;-10;10;-10;-0;0;-0;250;1,2;0,2;177;-1,2;-1;2555;0,07;4294967295;3750003968;0;16384;
7,23912;-5,44133;-0,001;178;217;2556;0;-0,00171547;0,199978;-0,00242771;-0,00145901;0,177982;-0,00188788;0;0;0,001;0;0;0;0;0;0;0;0;0;0;0;0;0;0;0;0;0;0;-0,00171547;0,199978;-0,00242771;-0,16515;0,0229932;-0,104261;-0,0364212;-3,58932e-05;0;0,656857;0,0749411;3,67584;-0,0300197;0,0122173;0;0;0;-1080;1080;-500;1700;-10;10;-10;-0;0;-0;250;1,2;0,2;177;-1,2;-1;2555;0,07;4294967295;3750003968;0;16384;
7,2492;-5,44133;-0,002;178;217;2556;0;-0,00171654;0,199978;-0,00242898;-0,00147631;0,179999;-0,00191237;0;0;0,002;0;0;0;0;0;0;0;0;0;0;0;0;0;0;0;0;0;0;-0,00171654;0,199978;-0,00242898;-0,16515;0,0229932;-0,104261;-0,0364212;-7,17864e-05;0;0,655797;0,0738711;3,67579;-0,0298451;0,0120428;0;0;0;-1080;1080;-500;1700;-10;10;-10;-0;0;-0;250;1,2;0,2;177;-1,2;-1;2555;0,07;4294967295;3750003968;0;16384;
7,25911;-5,44133;-0,003;178;217;2556;0;-0,0017176;0,199977;-0,00246515;-0,00149334;0,181981;-0,0019368;0;0;0,003;0;0;0;0;0;0;0;0;0;0;0;0;0;0;0;0;0;0;-0,0017176;0,199977;-0,00246515;-0,16515;0,0229931;-0,104261;-0,0364211;-0,00010768;0;0,654733;0,0738711;3,67579;-0,0296706;0,0120428;0;0;0;-1080;1080;-500;1700;-10;10;-10;-0;0;-0;250;1,2;0,2;177;-1,2;-1;2555;0,07;4294967295;3750003968;0;16384;
7,26906;-5,44133;-0,003;178;217;2556;0;-0,0017176;0,199977;-0,00246515;-0,00151043;0,18397;-0,00196133;0;0;0,003;0;0;0;0;0;0;0;0;0;0;0;0;0;0;0;0;0;0;-0,0017176;0,199977;-0,00246515;-0,16515;0,0229931;-0,104261;-0,0364211;-0,00010768;0;0,654738;0,0738716;3,67575;-0,0296706;0,0120428;0;0;0;-1080;1080;-500;1700;-10;10;-10;-0;0;-0;250;1,2;0,2;177;-1,2;-1;2555;0,07;4294967295;3750003968;0;16384;
7,27916;-5,44133;-0,003;178;217;2556;0;-0,00171761;0,199977;-0,00249976;-0,00152777;0,18599;-0,00198657;0;0;0,003;0;0;0;0;0;0;0;0;0;0;0;0;0;0;0;0;0;0;-0,00171761;0,199977;-0,00249976;-0,16515;0,0229931;-0,104261;-0,0364211;-0,00010768;0;0,655802;0,0749422;3,67575;-0,0298451;0,0122173;0;0;0;-1080;1080;-500;1700;-10;10;-10;-0;0;-0;250;1,2;0,2;177;-1,2;-1;2555;0,07;4294967295;3750003968;0;16384;
7,28902;-5,44133;-0,003;178;217;2556;0;-0,00171762;0,199977;-0,00249946;-0,00154471;0,187962;-0,00201122;0;0;0,003;0;0;0;0;0;0;0;0;0;0;0;0;0;0;0;0;0;0;-0,00171762;0,199977;-0,00249946;-0,16515;0,0229931;-0,104261;-0,0364211;-0,00010768;0;0,656871;0,0749427;3,6757;-0,0300197;0,0122173;0;0;0;-1080;1080;-500;1700;-10;10;-10;-0;0;-0;250;1,2;0,2;177;-1,2;-1;2555;0,07;4294967295;3750003968;0;16384;
7,29917;-5,44133;-0,003;178;217;2556;0;-0,00171762;0,199977;-0,00253436;-0,00156214;0,189991;-0,00203693;0;0;0,003;0;0;0;0;0;0;0;0;0;0;0;0;0;0;0;0;0;0;-0,00171762;0,199977;-0,00253436;-0,16515;0,0229931;-0,104261;-0,0364211;-0,00010768;0;0,656871;0,0760133;3,6757;-0,0300197;0,0123918;0;0;0;-1080;1080;-500;1700;-10;10;-10;-0;0;-0;250;1,2;0,2;177;-1,2;-1;2555;0,07;4294967295;3750003968;0;16384;
7,30909;-5,44133;-0,003;178;217;2556;0;-0,00171762;0,199977;-0,00253436;-0,00157919;0,191976;-0,00206209;0;0;0,003;0;0;0;0;0;0;0;0;0;0;0;0;0;0;0;0;0;0;-0,00171762;0,199977;-0,00253436;-0,16515;0,0229931;-0,104261;-0,0364211;-0,00010768;0;0,656876;0,0760138;3,67566;-0,0300197;0,0123918;0;0;0;-1080;1080;-500;1700;-10;10;-10;-0;0;-0;250;1,2;0,2;177;-1,2;-1;2555;0,07;4294967295;3750003968;0;16384;
7,31912;-5,44133;-0,003;178;217;2556;0;-0,00175252;0,199976;-0,002533;-0,00159676;0,193981;-0,00208749;0;0;0,003;0;0;0;0;0;0;0;0;0;0;0;0;0;0;0;0;0;0;-0,00175252;0,199976;-0,002533;-0,16515;0,0229931;-0,104261;-0,0364211;-0,00010768;0;0,65794;0,0760138;3,67566;-0,0301942;0,0123918;0;0;0;-1080;1080;-500;1700;-10;10;-10;-0;0;-0;250;1,2;0,2;177;-1,2;-1;2555;0,07;4294967295;3750003968;0;16384;
7,32912;-5,44133;-0,002;178;217;2556;0;-0,00178633;0,199976;-0,00249576;-0,00161463;0,195982;-0,00211246;0;0;0,002;0;0;0;0;0;0;0;0;0;0;0;0;0;0;0;0;0;0;-0,00178633;0,199976;-0,00249576;-0,16515;0,0229932;-0,104261;-0,0364212;-7,17864e-05;0;0,659005;0,0760138;3,67566;-0,0303687;0,0123918;0;0;0;-1080;1080;-500;1700;-10;10;-10;-0;0;-0;250;1,2;0,2;177;-1,2;-1;2555;0,07;4294967295;3750003968;0;16384;
7,33905;-5,44133;-0,002;178;217;2556;0;-0,00182122;0,199977;-0,00245979;-0,00163271;0,197967;-0,00213688;0;0;0,002;0;0;0;0;0;0;0;0;0;0;0;0;0;0;0;0;0;0;-0,00182122;0,199977;-0,00245979;-0,16515;0,0229932;-0,104261;-0,0364212;-7,17864e-05;0;0,659;0,0749427;3,6757;-0,0303687;0,0122173;0;0;0;-1080;1080;-500;1700;-10;10;-10;-0;0;-0;250;1,2;0,2;177;-1,2;-1;2555;0,07;4294967295;3750003968;0;16384;
7,34911;-5,44133;-0,002;179;217;2556;0;-0,001891;0,199976;-0,00242243;-0,00165172;0,199977;-0,00216123;0;0;0,002;0;0;0;0;0;0;0;0;0;0;0;0;0;0;0;0;0;0;-0,001891;0,199976;-0,00242243;-0,16515;0,0229932;-0,104261;-0,0364212;-7,17864e-05;0;0,66006;0,0738716;3,67575;-0,0305433;0,0120428;0;0;0;-1080;1080;-500;1700;-10;10;-10;-0;0;-0;250;1,2;0,2;177;-1,2;-1;2555;0,07;4294967295;3750003968;0;16384;
7,35919;-5,44133;-0,002;179;217;2556;0;-0,001891;0,199976;-0,00242243;-0,00167079;0,201994;-0,00218566;0;0;0,002;0;0;0;0;0;0;0;0;0;0;0;0;0;0;0;0;0;0;-0,001891;0,199976;-0,00242243;-0,16515;0,0229932;-0,104261;-0,0364212;-7,17864e-05;0;0,660055;0,0738711;3,67579;-0,0305433;0,0120428;0;0;0;-1080;1080;-500;1700;-10;10;-10;-0;0;-0;250;1,2;0,2;177;-1,2;-1;2555;0,07;4294967295;3750003968;0;16384;
7,36901;-5,44133;-0,002;179;218;2556;0;-0,00192589;0,199976;-0,00242103;-0,00168971;0,203958;-0,00220944;0;0;0,002;0;0;0;0;0;0;0;0;0;0;0;0;0;0;0;0;0;0;-0,00192589;0,199976;-0,00242103;-0,16515;0,0229932;-0,104261;-0,0364212;-7,17864e-05;0;0,66112;0,0738711;3,67579;-0,0307178;0,0120428;0;0;0;-1080;1080;-500;1700;-10;10;-10;-0;0;-0;250;1,2;0,2;177;-1,2;-1;2555;0,07;4294967295;3750003968;0;16384;
7,37903;-5,44133;-0,003;179;218;2556;0;-0,00196188;0,199976;-0,00242092;-0,00170937;0,205963;-0,00223371;0;0;0,003;0;0;0;0;0;0;0;0;0;0;0;0;0;0;0;0;0;0;-0,00196188;0,199976;-0,00242092;-0,16515;0,0229931;-0,104261;-0,0364211;-0,00010768;0;0,66112;0,0728005;3,67579;-0,0307178;0,0118682;0;0;0;-1080;1080;-500;1700;-10;10;-10;-0;0;-0;250;1,2;0,2;177;-1,2;-1;2555;0,07;4294967295;3750003968;0;16384;
7,38911;-5,44133;-0,003;179;218;2556;0;-0,00196188;0,199976;-0,00242092;-0,00172913;0,207977;-0,00225809;0;0;0,003;0;0;0;0;0;0;0;0;0;0;0;0;0;0;0;0;0;0;-0,00196188;0,199976;-0,00242092;-0,16515;0,0229931;-0,104261;-0,0364211;-0,00010768;0;0,66112;0,0728005;3,67579;-0,0307178;0,0118682;0;0;0;-1080;1080;-500;1700;-10;10;-10;-0;0;-0;250;1,2;0,2;177;-1,2;-1;2555;0,07;4294967295;3750003968;0;16384;
7,39917;-5,44133;-0,003;179;218;2556;0;-0,00196189;0,199975;-0,00245548;-0,00174887;0,209988;-0,00228279;0;0;0,003;0;0;0;0;0;0;0;0;0;0;0;0;0;0;0;0;0;0;-0,00196189;0,199975;-0,00245548;-0,16515;0,0229931;-0,104261;-0,0364211;-0,00010768;0;0,662184;0,0738711;3,67579;-0,0308923;0,0120428;0;0;0;-1080;1080;-500;1700;-10;10;-10;-0;0;-0;250;1,2;0,2;177;-1,2;-1;2555;0,07;4294967295;3750003968;0;16384;
7,40913;-5,44133;-0,003;179;218;2556;0;-0,0019619;0,199975;-0,00245514;-0,00176842;0,211981;-0,00230726;0;0;0,003;0;0;0;0;0;0;0;0;0;0;0;0;0;0;0;0;0;0;-0,0019619;0,199975;-0,00245514;-0,16515;0,0229931;-0,104261;-0,0364211;-0,00010768;0;0,663253;0,0738716;3,67575;-0,0310669;0,0120428;0;0;0;-1080;1080;-500;1700;-10;10;-10;-0;0;-0;250;1,2;0,2;177;-1,2;-1;2555;0,07;4294967295;3750003968;0;16384;
7,41912;-5,44133;-0,004;179;218;2556;0;-0,00196301;0,199975;-0,00249101;-0,00178802;0,213978;-0,00233213;0;0;0,004;0;0;0;0;0;0;0;0;0;0;0;0;0;0;0;0;0;0;-0,00196301;0,199975;-0,00249101;-0,16515;0,0229931;-0,104261;-0,0364211;-0,000143573;0;0,663253;0,0738716;3,67575;-0,0310669;0,0120428;0;0;0;-1080;1080;-500;1700;-10;10;-10;-0;0;-0;250;1,2;0,2;177;-1,2;-1;2555;0,07;4294967295;3750003968;0;16384;
7,42905;-5,44133;-0,004;179;218;2556;0;-0,00196301;0,199975;-0,00249101;-0,00180751;0,215964;-0,00235687;0;0;0,004;0;0;0;0;0;0;0;0;0;0;0;0;0;0;0;0;0;0;-0,00196301;0,199975;-0,00249101;-0,16515;0,0229931;-0,104261;-0,0364211;-0,000143573;0;0,663258;0,0738721;3,67571;-0,0310669;0,0120428;0;0;0;-1080;1080;-500;1700;-10;10;-10;-0;0;-0;250;1,2;0,2;177;-1,2;-1;2555;0,07;4294967295;3750003968;0;16384;
7,4391;-5,44133;-0,004;179;218;2556;0;-0,001963;0,199975;-0,00245645;-0,00182725;0,217975;-0,00238157;0;0;0,004;0;0;0;0;0;0;0;0;0;0;0;0;0;0;0;0;0;0;-0,001963;0,199975;-0,00245645;-0,16515;0,0229931;-0,104261;-0,0364211;-0,000143573;0;0,662193;0,0728016;3,6757;-0,0308923;0,0118682;0;0;0;-1080;1080;-500;1700;-10;10;-10;-0;0;-0;250;1,2;0,2;177;-1,2;-1;2555;0,07;4294967295;3750003968;0;16384;
7,44913;-5,44133;-0,004;179;218;2556;0;-0,00196298;0,199976;-0,00242189;-0,00184693;0,219979;-0,00240584;0;0;0,004;0;0;0;0;0;0;0;0;0;0;0;0;0;0;0;0;0;0;-0,00196298;0,199976;-0,00242189;-0,16515;0,0229931;-0,104261;-0,0364211;-0,000143573;0;0,661125;0,0717305;3,67575;-0,0307178;0,0116937;0;0;0;-1080;1080;-500;1700;-10;10;-10;-0;0;-0;250;1,2;0,2;177;-1,2;-1;2555;0,07;4294967295;3750003968;0;16384;
7,45914;-5,44133;-0,004;179;218;2556;0;-0,00196297;0,199976;-0,00238733;-0,00186659;0,221982;-0,00242976;0;0;0,004;0;0;0;0;0;0;0;0;0;0;0;0;0;0;0;0;0;0;-0,00196297;0,199976;-0,00238733;-0,16515;0,0229931;-0,104261;-0,0364211;-0,000143573;0;0,660056;0,0706595;3,67579;-0,0305433;0,0115192;0;0;0;-1080;1080;-500;1700;-10;10;-10;-0;0;-0;250;1,2;0,2;177;-1,2;-1;2555;0,07;4294967295;3750003968;0;16384;
7,46913;-5,44133;-0,004;179;218;2556;0;-0,00196297;0,199976;-0,00238733;-0,00188619;0,223979;-0,0024536;0;0;0,004;0;0;0;0;0;0;0;0;0;0;0;0;0;0;0;0;0;0;-0,00196297;0,199976;-0,00238733;-0,16515;0,0229931;-0,104261;-0,0364211;-0,000143573;0;0,660051;0,070659;3,67583;-0,0305433;0,0115192;0;0;0;-1080;1080;-500;1700;-10;10;-10;-0;0;-0;250;1,2;0,2;177;-1,2;-1;2555;0,07;4294967295;3750003968;0;16384;
7,47914;-5,44133;-0,004;179;218;2556;0;-0,00196298;0,199976;-0,00238699;-0,00190584;0,225981;-0,00247749;0;0;0,004;0;0;0;0;0;0;0;0;0;0;0;0;0;0;0;0;0;0;-0,00196298;0,199976;-0,00238699;-0,16515;0,0229931;-0,104261;-0,0364211;-0,000143573;0;0,661116;0,070659;3,67583;-0,0307178;0,0115192;0;0;0;-1080;1080;-500;1700;-10;10;-10;-0;0;-0;250;1,2;0,2;177;-1,2;-1;2555;0,07;4294967295;3750003968;0;16384;
7,48909;-5,44133;-0,005;179;218;2556;0;-0,00196409;0,199976;-0,00238796;-0,00192538;0,22797;-0,00250125;0;0;0,005;0;0;0;0;0;0;0;0;0;0;0;0;0;0;0;0;0;0;-0,00196409;0,199976;-0,00238796;-0,16515;0,0229931;-0,104261;-0,0364211;-0,000179466;0;0,661116;0,0695885;3,67583;-0,0307178;0,0113446;0;0;0;-1080;1080;-500;1700;-10;10;-10;-0;0;-0;250;1,2;0,2;177;-1,2;-1;2555;0,07;4294967295;3750003968;0;16384;
7,49916;-5,44133;-0,005;179;218;2556;0;-0,00196409;0,199976;-0,00238796;-0,00194516;0,229984;-0,00252529;0;0;0,005;0;0;0;0;0;0;0;0;0;0;0;0;0;0;0;0;0;0;-0,00196409;0,199976;-0,00238796;-0,16515;0,0229931;-0,104261;-0,0364211;-0,000179466;0;0,661116;0,0695885;3,67582;-0,0307178;0,0113446;0;0;0;-1080;1080;-500;1700;-10;10;-10;-0;0;-0;250;1,2;0,2;177;-1,2;-1;2555;0,07;4294967295;3750003968;0;16384;
7,50918;-5,44133;-0,005;179;218;2556;0;-0,00196409;0,199976;-0,00238796;-0,00196484;0,231988;-0,00254922;0;0;0,005;0;0;0;0;0;0;0;0;0;0;0;0;0;0;0;0;0;0;-0,00196409;0,199976;-0,00238796;-0,16515;0,0229931;-0,104261;-0,0364211;-0,000179466;0;0,661116;0,0695885;3,67582;-0,0307178;0,0113446;0;0;0;-1080;1080;-500;1700;-10;10;-10;-0;0;-0;250;1,2;0,2;177;-1,2;-1;2555;0,07;4294967295;3750003968;0;16384;
7,51912;-5,44133;-0,005;179;218;2556;0;-0,00196407;0,199977;-0,0023534;-0,00198437;0,233976;-0,00257262;0;0;0,005;0;0;0;0;0;0;0;0;0;0;0;0;0;0;0;0;0;0;-0,00196407;0,199977;-0,0023534;-0,16515;0,0229931;-0,104261;-0,0364211;-0,000179466;0;0,660052;0,068518;3,67582;-0,0305433;0,0111701;0;0;0;-1080;1080;-500;1700;-10;10;-10;-0;0;-0;250;1,2;0,2;177;-1,2;-1;2555;0,07;4294967295;3750003968;0;16384;
7,52913;-5,44133;-0,006;179;218;2556;0;-0,00196513;0,199976;-0,00235472;-0,00200404;0,235978;-0,00259619;0;0;0,006;0;0;0;0;0;0;0;0;0;0;0;0;0;0;0;0;0;0;-0,00196513;0,199976;-0,00235472;-0,16515;0,0229931;-0,104261;-0,0364211;-0,000215359;0;0,658983;0,067447;3,67586;-0,0303687;0,0109956;0;0;0;-1080;1080;-500;1700;-10;10;-10;-0;0;-0;250;1,2;0,2;177;-1,2;-1;2555;0,07;4294967295;3750003968;0;16384;
7,53911;-5,44133;-0,006;179;218;2556;0;-0,00196513;0,199976;-0,00235472;-0,00202365;0,237974;-0,00261969;0;0;0,006;0;0;0;0;0;0;0;0;0;0;0;0;0;0;0;0;0;0;-0,00196513;0,199976;-0,00235472;-0,16515;0,0229931;-0,104261;-0,0364211;-0,000215359;0;0,658983;0,067447;3,67586;-0,0303687;0,0109956;0;0;0;-1080;1080;-500;1700;-10;10;-10;-0;0;-0;250;1,2;0,2;177;-1,2;-1;2555;0,07;4294967295;3750003968;0;16384;
7,54903;-5,44133;-0,006;179;218;2556;0;-0,00196513;0,199976;-0,00235472;-0,00204315;0,239958;-0,00264306;0;0;0,006;0;0;0;0;0;0;0;0;0;0;0;0;0;0;0;0;0;0;-0,00196513;0,199976;-0,00235472;-0,16515;0,0229931;-0,104261;-0,0364211;-0,000215359;0;0,658983;0,067447;3,67586;-0,0303687;0,0109956;0;0;0;-1080;1080;-500;1700;-10;10;-10;-0;0;-0;250;1,2;0,2;177;-1,2;-1;2555;0,07;4294967295;3750003968;0;16384;
7,55906;-5,44133;-0,006;179;218;2556;0;-0,00196516;0,199977;-0,00231947;-0,00206285;0,241962;-0,0026663;0;0;0,006;0;0;0;0;0;0;0;0;0;0;0;0;0;0;0;0;0;0;-0,00196516;0,199977;-0,00231947;-0,16515;0,0229931;-0,104261;-0,0364211;-0,000215359;0;0,660048;0,0663765;3,67586;-0,0305433;0,010821;0;0;0;-1080;1080;-500;1700;-10;10;-10;-0;0;-0;250;1,2;0,2;177;-1,2;-1;2555;0,07;4294967295;3750003968;0;16384;
7,56919;-5,44133;-0,007;179;218;2556;0;-0,00196629;0,199977;-0,0023201;-0,00208277;0,243988;-0,00268981;0;0;0,007;0;0;0;0;0;0;0;0;0;0;0;0;0;0;0;0;0;0;-0,00196629;0,199977;-0,0023201;-0,16515;0,0229931;-0,104261;-0,0364211;-0,000251252;0;0,661108;0,0653055;3,6759;-0,0307178;0,0106465;0;0;0;-1080;1080;-500;1700;-10;10;-10;-0;0;-0;250;1,2;0,2;177;-1,2;-1;2555;0,07;4294967295;3750003968;0;16384;
7,57903;-5,44133;-0,006;179;218;2556;0;-0,00196519;0,199977;-0,00228422;-0,00210212;0,245957;-0,0027123;0;0;0,006;0;0;0;0;0;0;0;0;0;0;0;0;0;0;0;0;0;0;-0,00196519;0,199977;-0,00228422;-0,16515;0,0229931;-0,104261;-0,0364211;-0,000215359;0;0,661108;0,0653055;3,6759;-0,0307178;0,0106465;0;0;0;-1080;1080;-500;1700;-10;10;-10;-0;0;-0;250;1,2;0,2;177;-1,2;-1;2555;0,07;4294967295;3750003968;0;16384;
7,58911;-5,44133;-0,006;179;218;2556;0;-0,00196519;0,199977;-0,00228422;-0,00212191;0,247972;-0,00273531;0;0;0,006;0;0;0;0;0;0;0;0;0;0;0;0;0;0;0;0;0;0;-0,00196519;0,199977;-0,00228422;-0,16515;0,0229931;-0,104261;-0,0364211;-0,000215359;0;0,661103;0,065305;3,67594;-0,0307178;0,0106465;0;0;0;-1080;1080;-500;1700;-10;10;-10;-0;0;-0;250;1,2;0,2;177;-1,2;-1;2555;0,07;4294967295;3750003968;0;16384;
7,59915;-5,44133;-0,006;179;218;2556;0;-0,00196519;0,199977;-0,00231913;-0,00214166;0,249981;-0,00275861;0;0;0,006;0;0;0;0;0;0;0;0;0;0;0;0;0;0;0;0;0;0;-0,00196519;0,199977;-0,00231913;-0,16515;0,0229931;-0,104261;-0,0364211;-0,000215359;0;0,661103;0,0663756;3,67594;-0,0307178;0,010821;0;0;0;-1080;1080;-500;1700;-10;10;-10;-0;0;-0;250;1,2;0,2;177;-1,2;-1;2555;0,07;4294967295;3750003968;0;16384;
7,60899;-5,44133;-0,006;179;218;2556;0;-0,00196519;0,199976;-0,00235403;-0,00216099;0,251948;-0,00278176;0;0;0,006;0;0;0;0;0;0;0;0;0;0;0;0;0;0;0;0;0;0;-0,00196519;0,199976;-0,00235403;-0,16515;0,0229931;-0,104261;-0,0364211;-0,000215359;0;0,661108;0,0674466;3,6759;-0,0307178;0,0109956;0;0;0;-1080;1080;-500;1700;-10;10;-10;-0;0;-0;250;1,2;0,2;177;-1,2;-1;2555;0,07;4294967295;3750003968;0;16384;
7,61903;-5,44133;-0,006;179;218;2556;0;-0,00196519;0,199977;-0,00231913;-0,00218073;0,253956;-0,00280506;0;0;0,006;0;0;0;0;0;0;0;0;0;0;0;0;0;0;0;0;0;0;-0,00196519;0,199977;-0,00231913;-0,16515;0,0229931;-0,104261;-0,0364211;-0,000215359;0;0,661112;0,0663765;3,67586;-0,0307178;0,010821;0;0;0;-1080;1080;-500;1700;-10;10;-10;-0;0;-0;250;1,2;0,2;177;-1,2;-1;2555;0,07;4294967295;3750003968;0;16384;
7,62912;-5,44133;-0,006;179;218;2556;0;-0,00196519;0,199977;-0,00231913;-0,00220055;0,255974;-0,00282846;0;0;0,006;0;0;0;0;0;0;0;0;0;0;0;0;0;0;0;0;0;0;-0,00196519;0,199977;-0,00231913;-0,16515;0,0229931;-0,104261;-0,0364211;-0,000215359;0;0,661108;0,0663761;3,6759;-0,0307178;0,010821;0;0;0;-1080;1080;-500;1700;-10;10;-10;-0;0;-0;250;1,2;0,2;177;-1,2;-1;2555;0,07;4294967295;3750003968;0;16384;
7,63902;-5,44133;-0,006;179;218;2556;0;-0,00196519;0,199977;-0,00228422;-0,00222;0,257953;-0,00285106;0;0;0,006;0;0;0;0;0;0;0;0;0;0;0;0;0;0;0;0;0;0;-0,00196519;0,199977;-0,00228422;-0,16515;0,0229931;-0,104261;-0,0364211;-0,000215359;0;0,661108;0,0653055;3,6759;-0,0307178;0,0106465;0;0;0;-1080;1080;-500;1700;-10;10;-10;-0;0;-0;250;1,2;0,2;177;-1,2;-1;2555;0,07;4294967295;3750003968;0;16384;
7,64911;-5,44133;-0,006;179;218;2556;0;-0,00196522;0,199978;-0,00224898;-0,00223984;0,259972;-0,00287376;0;0;0,006;0;0;0;0;0;0;0;0;0;0;0;0;0;0;0;0;0;0;-0,00196522;0,199978;-0,00224898;-0,16515;0,0229931;-0,104261;-0,0364211;-0,000215359;0;0,662168;0,0642345;3,67594;-0,0308923;0,010472;0;0;0;-1080;1080;-500;1700;-10;10;-10;-0;0;-0;250;1,2;0,2;177;-1,2;-1;2555;0,07;4294967295;3750003968;0;16384;
7,65913;-5,44133;-0,006;179;218;2556;0;-0,00196522;0,199978;-0,00224898;-0,00225952;0,261975;-0,00289629;0;0;0,006;0;0;0;0;0;0;0;0;0;0;0;0;0;0;0;0;0;0;-0,00196522;0,199978;-0,00224898;-0,16515;0,0229931;-0,104261;-0,0364211;-0,000215359;0;0,662163;0,0642341;3,67598;-0,0308923;0,010472;0;0;0;-1080;1080;-500;1700;-10;10;-10;-0;0;-0;250;1,2;0,2;177;-1,2;-1;2555;0,07;4294967295;3750003968;0;16384;
7,66922;-5,44133;-0,006;179;218;2556;0;-0,00196522;0,199978;-0,00224898;-0,00227936;0,263993;-0,00291899;0;0;0,006;0;0;0;0;0;0;0;0;0;0;0;0;0;0;0;0;0;0;-0,00196522;0,199978;-0,00224898;-0,16515;0,0229931;-0,104261;-0,0364211;-0,000215359;0;0,662163;0,0642341;3,67598;-0,0308923;0,010472;0;0;0;-1080;1080;-500;1700;-10;10;-10;-0;0;-0;250;1,2;0,2;177;-1,2;-1;2555;0,07;4294967295;3750003968;0;16384;
7,6791;-5,44133;-0,006;179;218;2556;0;-0,00196524;0,199978;-0,00224864;-0,00229877;0,265968;-0,0029412;0;0;0,006;0;0;0;0;0;0;0;0;0;0;0;0;0;0;0;0;0;0;-0,00196524;0,199978;-0,00224864;-0,16515;0,0229931;-0,104261;-0,0364211;-0,000215359;0;0,663228;0,0642341;3,67598;-0,0310669;0,010472;0;0;0;-1080;1080;-500;1700;-10;10;-10;-0;0;-0;250;1,2;0,2;177;-1,2;-1;2555;0,07;4294967295;3750003968;0;16384;
7,68913;-5,44133;-0,006;179;218;2556;0;-0,00196522;0,199978;-0,00224898;-0,00231848;0,267974;-0,00296375;0;0;0,006;0;0;0;0;0;0;0;0;0;0;0;0;0;0;0;0;0;0;-0,00196522;0,199978;-0,00224898;-0,16515;0,0229931;-0,104261;-0,0364211;-0,000215359;0;0,662163;0,0642341;3,67598;-0,0308923;0,010472;0;0;0;-1080;1080;-500;1700;-10;10;-10;-0;0;-0;250;1,2;0,2;177;-1,2;-1;2555;0,07;4294967295;3750003968;0;16384;
7,69915;-5,44133;-0,006;179;218;2556;0;-0,00196524;0,199977;-0,00228354;-0,00233817;0,269978;-0,00298664;0;0;0,006;0;0;0;0;0;0;0;0;0;0;0;0;0;0;0;0;0;0;-0,00196524;0,199977;-0,00228354;-0,16515;0,0229931;-0,104261;-0,0364211;-0,000215359;0;0,663228;0,0653047;3,67598;-0,0310669;0,0106465;0;0;0;-1080;1080;-500;1700;-10;10;-10;-0;0;-0;250;1,2;0,2;177;-1,2;-1;2555;0,07;4294967295;3750003968;0;16384;
7,70908;-5,44133;-0,006;179;218;2556;0;-0,00196524;0,199977;-0,00228354;-0,0023577;0,271965;-0,00300932;0;0;0,006;0;0;0;0;0;0;0;0;0;0;0;0;0;0;0;0;0;0;-0,00196524;0,199977;-0,00228354;-0,16515;0,0229931;-0,104261;-0,0364211;-0,000215359;0;0,663232;0,0653051;3,67594;-0,0310669;0,0106465;0;0;0;-1080;1080;-500;1700;-10;10;-10;-0;0;-0;250;1,2;0,2;177;-1,2;-1;2555;0,07;4294967295;3750003968;0;16384;
7,71919;-5,44133;-0,006;179;218;2556;0;-0,00196522;0,199977;-0,00231878;-0,00237755;0,273985;-0,00303275;0;0;0,006;0;0;0;0;0;0;0;0;0;0;0;0;0;0;0;0;0;0;-0,00196522;0,199977;-0,00231878;-0,16515;0,0229931;-0,104261;-0,0364211;-0,000215359;0;0,662168;0,0663756;3,67594;-0,0308923;0,010821;0;0;0;-1080;1080;-500;1700;-10;10;-10;-0;0;-0;250;1,2;0,2;177;-1,2;-1;2555;0,07;4294967295;3750003968;0;16384;
7,72912;-5,44133;-0,006;179;218;2556;0;-0,00196519;0,199977;-0,00231913;-0,00239706;0,275971;-0,00305578;0;0;0,006;0;0;0;0;0;0;0;0;0;0;0;0;0;0;0;0;0;0;-0,00196519;0,199977;-0,00231913;-0,16515;0,0229931;-0,104261;-0,0364211;-0,000215359;0;0,661108;0,0663761;3,6759;-0,0307178;0,010821;0;0;0;-1080;1080;-500;1700;-10;10;-10;-0;0;-0;250;1,2;0,2;177;-1,2;-1;2555;0,07;4294967295;3750003968;0;16384;
7,73907;-5,44133;-0,006;179;218;2556;0;-0,00196519;0,199976;-0,00235403;-0,00241662;0,277961;-0,00307921;0;0;0,006;0;0;0;0;0;0;0;0;0;0;0;0;0;0;0;0;0;0;-0,00196519;0,199976;-0,00235403;-0,16515;0,0229931;-0,104261;-0,0364211;-0,000215359;0;0,661109;0,0674467;3,67589;-0,0307178;0,0109956;0;0;0;-1080;1080;-500;1700;-10;10;-10;-0;0;-0;250;1,2;0,2;177;-1,2;-1;2555;0,07;4294967295;3750003968;0;16384;
7,74905;-5,44133;-0,006;179;218;2556;0;-0,00196519;0,199976;-0,00235403;-0,00243624;0,279957;-0,00310271;0;0;0,006;0;0;0;0;0;0;0;0;0;0;0;0;0;0;0;0;0;0;-0,00196519;0,199976;-0,00235403;-0,16515;0,0229931;-0,104261;-0,0364211;-0,000215359;0;0,661113;0,0674471;3,67585;-0,0307178;0,0109956;0;0;0;-1080;1080;-500;1700;-10;10;-10;-0;0;-0;250;1,2;0,2;177;-1,2;-1;2555;0,07;4294967295;3750003968;0;16384;
7,75911;-5,44133;-0,006;179;218;2556;0;-0,00196516;0,199976;-0,00238928;-0,002456;0,281968;-0,00312673;0;0;0,006;0;0;0;0;0;0;0;0;0;0;0;0;0;0;0;0;0;0;-0,00196516;0,199976;-0,00238928;-0,16515;0,0229931;-0,104261;-0,0364211;-0,000215359;0;0,660049;0,0685177;3,67585;-0,0305433;0,0111701;0;0;0;-1080;1080;-500;1700;-10;10;-10;-0;0;-0;250;1,2;0,2;177;-1,2;-1;2555;0,07;4294967295;3750003968;0;16384;
7,7692;-5,44133;-0,006;179;218;2556;0;-0,00196519;0,199976;-0,00242383;-0,00247583;0,283986;-0,00315119;0;0;0,006;0;0;0;0;0;0;0;0;0;0;0;0;0;0;0;0;0;0;-0,00196519;0,199976;-0,00242383;-0,16515;0,0229931;-0,104261;-0,0364211;-0,000215359;0;0,661118;0,0695887;3,67581;-0,0307178;0,0113446;0;0;0;-1080;1080;-500;1700;-10;10;-10;-0;0;-0;250;1,2;0,2;177;-1,2;-1;2555;0,07;4294967295;3750003968;0;16384;
7,77918;-5,44133;-0,006;179;218;2556;0;-0,00196516;0,199976;-0,00242418;-0,00249544;0,285982;-0,00317538;0;0;0,006;0;0;0;0;0;0;0;0;0;0;0;0;0;0;0;0;0;0;-0,00196516;0,199976;-0,00242418;-0,16515;0,0229931;-0,104261;-0,0364211;-0,000215359;0;0,660058;0,0695892;3,67577;-0,0305433;0,0113446;0;0;0;-1080;1080;-500;1700;-10;10;-10;-0;0;-0;250;1,2;0,2;177;-1,2;-1;2555;0,07;4294967295;3750003968;0;16384;
7,78911;-5,44133;-0,006;179;218;2556;0;-0,00196516;0,199976;-0,00242418;-0,00251497;0,287968;-0,00319946;0;0;0,006;0;0;0;0;0;0;0;0;0;0;0;0;0;0;0;0;0;0;-0,00196516;0,199976;-0,00242418;-0,16515;0,0229931;-0,104261;-0,0364211;-0,000215359;0;0,660058;0,0695892;3,67577;-0,0305433;0,0113446;0;0;0;-1080;1080;-500;1700;-10;10;-10;-0;0;-0;250;1,2;0,2;177;-1,2;-1;2555;0,07;4294967295;3750003968;0;16384;
7,79919;-5,44133;-0,005;179;218;2556;0;-0,00196407;0,199976;-0,0023883;-0,00253476;0,289983;-0,00322353;0;0;0,005;0;0;0;0;0;0;0;0;0;0;0;0;0;0;0;0;0;0;-0,00196407;0,199976;-0,0023883;-0,16515;0,0229931;-0,104261;-0,0364211;-0,000179466;0;0,660058;0,0695892;3,67576;-0,0305433;0,0113446;0;0;0;-1080;1080;-500;1700;-10;10;-10;-0;0;-0;250;1,2;0,2;177;-1,2;-1;2555;0,07;4294967295;3750003968;0;16384;
7,80912;-5,44133;-0,005;179;218;2556;0;-0,00196405;0,199976;-0,00238865;-0,00255427;0,29197;-0,00324726;0;0;0,005;0;0;0;0;0;0;0;0;0;0;0;0;0;0;0;0;0;0;-0,00196405;0,199976;-0,00238865;-0,16515;0,0229931;-0,104261;-0,0364211;-0,000179466;0;0,658989;0,0695887;3,67581;-0,0303687;0,0113446;0;0;0;-1080;1080;-500;1700;-10;10;-10;-0;0;-0;250;1,2;0,2;177;-1,2;-1;2555;0,07;4294967295;3750003968;0;16384;
7,81912;-5,44133;-0,004;179;218;2556;0;-0,00192807;0,199977;-0,00231893;-0,00257355;0,29397;-0,00327045;0;0;0,004;0;0;0;0;0;0;0;0;0;0;0;0;0;0;0;0;0;0;-0,00192807;0,199977;-0,00231893;-0,16515;0,0229931;-0,104261;-0,0364211;-0,000143573;0;0,658989;0,0685182;3,67581;-0,0303687;0,0111701;0;0;0;-1080;1080;-500;1700;-10;10;-10;-0;0;-0;250;1,2;0,2;177;-1,2;-1;2555;0,07;4294967295;3750003968;0;16384;
7,8291;-5,44133;-0,004;179;218;2556;0;-0,00192807;0,199977;-0,00231893;-0,00259278;0,295965;-0,00329358;0;0;0,004;0;0;0;0;0;0;0;0;0;0;0;0;0;0;0;0;0;0;-0,00192807;0,199977;-0,00231893;-0,16515;0,0229931;-0,104261;-0,0364211;-0,000143573;0;0,65898;0,0685173;3,67589;-0,0303687;0,0111701;0;0;0;-1080;1080;-500;1700;-10;10;-10;-0;0;-0;250;1,2;0,2;177;-1,2;-1;2555;0,07;4294967295;3750003968;0;16384;
7,83902;-5,44133;-0,004;179;218;2556;0;-0,00189318;0,199978;-0,00228509;-0,00261157;0,297949;-0,00331625;0;0;0,004;0;0;0;0;0;0;0;0;0;0;0;0;0;0;0;0;0;0;-0,00189318;0,199978;-0,00228509;-0,16515;0,0229931;-0,104261;-0,0364211;-0,000143573;0;0,65898;0,0674467;3,67589;-0,0303687;0,0109956;0;0;0;-1080;1080;-500;1700;-10;10;-10;-0;0;-0;250;1,2;0,2;177;-1,2;-1;2555;0,07;4294967295;3750003968;0;16384;
