time ;e1;e2;ctrlpitch;ctrlroll;ctrlthrust;ctrlyaw;edx;edy;edz;cumulx;cumuly;cumulz;x;y;z;dxr;dyr;dzr;dxrT;dyrT;dzrT;dxrUn;dyrUn;dzrUn;x_pred;y_pred;z_pred;dx_pred;dy_pred;dz_pred;ux;uy;uz;dxd;dyd;dzd;Perpx;Tangx;Perpy;Tangy;Perpz;Tanz;ax;ay;az;err_sti_x;err_sti_y;err_sti_z;err_sti_dx;err_sti_dy;err_sti_dz;pitch;roll;yaw;yawd;eyaw;kpvx;kpvy;kpvz;kpyaw;kivx;kivy;kivz;kdvx;kdvy;kdvz;kdyaw;ktg;veld;pitchoff;ke1;ke2;gravity;thr_vel;gps_accuracy;height_accuracy;gps_sat_num;gps_status
13,2459;-0,107081;-2,091;50;50;1450;0;-0,137894;0,123073;-0,1624;-0,00111612;0,000996153;-0,00131446;-0,011112;-0,0146583;0,091;0,0249641;0,048684;-0,180742;0;0;0;0;0;0;0;0;0;0;0;0;0,205665;0,0810057;2,82845;-0,11293;0,171757;-0,343142;0,0177488;-0,000726868;6,48615e-05;0,198901;-0,346587;0;0;-0;9,81;0;0;0;0;0;0;-0,0123918;-0,0122173;0;0,92215;0,796903;-850;850;-600;1700;-0;0;-10;-0;0;-0;250;1,2;0,4;177;-1,2;-1;2555;0,07;2326;3923;9;56579;
13,2478;-0,107081;-2,091;100;100;1500;0;-0,138001;0,123048;-0,162328;-0,0013717;0,00122404;-0,00161509;-0,011112;-0,0146583;0,091;0,0248611;0,0486889;-0,180755;0;0;0;0;0;0;0;0;0;0;0;0;0,129036;0,167558;2,70047;-0,11314;0,171737;-0,343082;0,0177488;-0,000726868;6,48615e-05;0,198901;-0,346587;0;0,573248;-0,0777625;3,44489;0;0;0;0;0;0;-0,0129154;-0,0122173;0;0,92215;0,796903;-850;850;-600;1700;-0;0;-10;-0;0;-0;250;1,2;0,4;177;-1,2;-1;2555;0,07;2326;3923;9;56579;
13,2581;-0,107081;-2,091;150;104;1550;0;-0,138001;0,123048;-0,162328;-0,00279973;0,00249734;-0,00329486;-0,011112;-0,0146583;0,091;0,0248611;0,0486889;-0,180755;0;0;0;0;0;0;0;0;0;0;0;0;0,0467625;0,180064;2,57249;-0,11314;0,171737;-0,343082;0,0177488;-0,000726868;6,48615e-05;0,198901;-0,346587;0;0,57324;-0,0777614;3,44499;0;0;0;0;0;0;-0,0129154;-0,0122173;0;0,92215;0,796903;-850;850;-600;1700;-0;0;-10;-0;0;-0;250;1,2;0,4;177;-1,2;-1;2555;0,07;2326;3923;9;56579;
13,2679;-0,107081;-2,091;200;104;1600;0;-0,137993;0,123027;-0,16337;-0,00414627;0,00369785;-0,00488903;-0,011112;-0,0146583;0,091;0,0248821;0,0486092;-0,179772;0;0;0;0;0;0;0;0;0;0;0;0;-0,04112;0,185873;2,4445;-0,113111;0,171637;-0,343143;0,0177488;-0,000726868;6,48615e-05;0,198901;-0,346587;0;0,573243;-0,0755402;3,44495;0;0;0;0;0;0;-0,0129154;-0,0118682;0;0,92215;0,796903;-850;850;-600;1700;-0;0;-10;-0;0;-0;250;1,2;0,4;177;-1,2;-1;2555;0,07;2326;3923;9;56579;
13,2779;-0,107081;-2,091;250;104;1650;0;-0,138035;0,122982;-0,164389;-0,0055309;0,00493147;-0,00653802;-0,011112;-0,0146583;0,091;0,0248637;0,0485349;-0,178794;0;0;0;0;0;0;0;0;0;0;0;0;-0,134569;0,191682;2,31652;-0,113171;0,171517;-0,343183;0,0177488;-0,000726868;6,48615e-05;0,198901;-0,346587;0;0,574489;-0,0733363;3,44341;0;0;0;0;0;1,21112e-05;-0,01309;-0,0115192;0;0,92215;0,796903;-850;850;-600;1700;-0;0;-10;-0;0;-0;250;1,2;0,4;177;-1,2;-1;2555;0,07;2326;3923;9;56579;
13,2879;-0,107081;-2,091;294;104;1700;0;-0,138035;0,122982;-0,164389;-0,00691084;0,00616092;-0,00818141;-0,011112;-0,0146583;0,091;0,0248637;0,0485349;-0,178794;0;0;0;0;0;0;0;0;0;0;0;0;-0,222156;0,19749;2,18853;-0,113171;0,171517;-0,343183;0,0177488;-0,000726868;6,48615e-05;0,198901;-0,346587;0;0,574625;-0,0733536;3,4419;-3,99719e-06;-1,59888e-06;1,44698e-05;0;0;2,81256e-05;-0,01309;-0,0115192;0;0,92215;0,796903;-850;850;-600;1700;-0;0;-10;-0;0;-0;250;1,2;0,4;177;-1,2;-1;2555;0,07;2326;3923;9;56579;
13,298;-0,107081;-2,091;294;104;1750;0;-0,138074;0,122987;-0,16741;-0,00830414;0,00740198;-0,00987075;-0,011112;-0,0146583;0,091;0,024903;0,0484697;-0,175803;0;0;0;0;0;0;0;0;0;0;0;0;-0,22869;0,203299;2,06055;-0,113171;0,171457;-0,343213;0,0177488;-0,000726868;6,48615e-05;0,198901;-0,346587;0;0,574628;-0,0722427;3,44186;-1,12434e-05;-4,49736e-06;4,07011e-05;-5,96118e-06;-2,34794e-06;-1,37736e-05;-0,01309;-0,0113446;0;0,92215;0,796903;-850;850;-600;1700;-0;0;-10;-0;0;-0;250;1,2;0,4;177;-1,2;-1;2555;0,07;2326;3923;9;56579;
13,3078;-0,107081;-2,091;294;104;1800;0;-0,138074;0,122987;-0,16741;-0,00966072;0,00861033;-0,0115156;-0,011112;-0,0146583;0,091;0,024903;0,0484697;-0,175803;0;0;0;0;0;0;0;0;0;0;0;0;-0,235224;0,209107;1,93256;-0,113171;0,171457;-0,343213;0,0177488;-0,000726868;6,48615e-05;0,198901;-0,346587;0;0,575024;-0,0722925;3,43747;-1,96386e-05;-7,85529e-06;7,04479e-05;-1,71641e-05;-1,06677e-05;-0,000165245;-0,01309;-0,0113446;0;0,92215;0,796903;-850;850;-600;1700;-0;0;-10;-0;0;-0;250;1,2;0,4;177;-1,2;-1;2555;0,07;2326;3923;9;56579;
13,3178;-0,107081;-2,091;294;104;1850;0;-0,138024;0,122992;-0,170503;-0,0110428;0,00984185;-0,0132228;-0,011112;-0,0146583;0,091;0,025033;0,0484054;-0,172798;0;0;0;0;0;0;0;0;0;0;0;0;-0,241758;0,214916;1,80458;-0,112991;0,171397;-0,343302;0,0177488;-0,000726868;6,48615e-05;0,198901;-0,346587;0;0,571705;-0,0711808;3,43743;-3,50448e-05;-1,40595e-05;0,000121811;-4,0368e-05;-3,67405e-05;-0,000597783;-0,0125664;-0,0111701;0;0,92215;0,796903;-850;850;-600;1700;-0;0;-10;-0;0;-0;250;1,2;0,4;177;-1,2;-1;2555;0,07;2326;3923;9;56579;
13,3279;-0,107081;-2,091;294;104;1900;0;-0,137918;0,122814;-0,171734;-0,0124359;0,0110824;-0,0149575;-0,011112;-0,0146583;0,091;0,0252017;0,0482882;-0,171805;0;0;0;0;0;0;0;0;0;0;0;0;-0,248292;0,220724;1,67659;-0,112717;0,171102;-0,343539;0,0177488;-0,000726868;6,48615e-05;0,198901;-0,346587;0;0,565456;-0,0667792;3,43294;-5,60355e-05;-2,27008e-05;0,000175276;-8,38275e-05;-9,20992e-05;-0,00159276;-0,0115192;-0,010472;0;0,92215;0,796903;-850;850;-600;1700;-0;0;-10;-0;0;-0;250;1,2;0,4;177;-1,2;-1;2555;0,07;2326;3923;9;56579;
13,3379;-0,107081;-2,091;294;104;1950;0;-0,137918;0,122814;-0,171734;-0,0138109;0,0123068;-0,0166697;-0,011112;-0,0146583;0,091;0,0252017;0,0482882;-0,171805;0;0;0;0;0;0;0;0;0;0;0;0;-0,254826;0,226533;1,54861;-0,112717;0,171102;-0,343539;0,0177488;-0,000726868;6,48615e-05;0,198901;-0,346587;0;0,565617;-0,0667982;3,43113;-7,66172e-05;-3,17918e-05;0,000228547;-9,41658e-05;-0,000163602;-0,00257277;-0,0115192;-0,010472;0;0,92215;0,796903;-850;850;-600;1700;-0;0;-10;-0;0;-0;250;1,2;0,4;177;-1,2;-1;2555;0,07;2326;3923;9;56579;
13,3479;-0,107081;-2,091;294;104;2000;0;-0,137802;0,122701;-0,172923;-0,015186;0,0135313;-0,0183953;-0,011112;-0,0146583;0,091;0,02539;0,0482666;-0,170783;0;0;0;0;0;0;0;0;0;0;0;0;-0,26136;0,232341;1,42063;-0,112412;0,170967;-0,343706;0,0177488;-0,000726868;6,48615e-05;0,198901;-0,346587;0;0,557858;-0,0656854;3,43108;-9,76013e-05;-4,1441e-05;0,000284342;-6,85804e-05;-0,000242162;-0,00353873;-0,0102974;-0,0102974;0;0,92215;0,796903;-850;850;-600;1700;-0;0;-10;-0;0;-0;250;1,2;0,4;177;-1,2;-1;2555;0,07;2326;3923;9;56579;
13,3579;-0,107081;-2,091;293;104;2050;0;-0,137513;0,122569;-0,172233;-0,016565;0,0147604;-0,0201224;-0,011112;-0,0146583;0,091;0,025708;0,0482653;-0,171737;0;0;0;0;0;0;0;0;0;0;0;0;-0,265606;0,23815;1,29264;-0,111805;0,170834;-0,34397;0,0177488;-0,000726868;6,48615e-05;0,198901;-0,346587;0;0,544698;-0,0645898;3,42933;-0,000121752;-5,33146e-05;0,000346473;-1,47411e-06;-0,000338981;-0,00467874;-0,00820305;-0,0101229;0;0,92215;0,796903;-850;850;-600;1700;-0;0;-10;-0;0;-0;250;1,2;0,4;177;-1,2;-1;2555;0,07;2326;3923;9;56579;
13,3679;-0,107081;-2,091;293;104;2100;0;-0,137513;0,122569;-0,172233;-0,0179396;0,0159856;-0,0218441;-0,011112;-0,0146583;0,091;0,025708;0,0482653;-0,171737;0;0;0;0;0;0;0;0;0;0;0;0;-0,272085;0,243958;1,16466;-0,111805;0,170834;-0,34397;0,0177488;-0,000726868;6,48615e-05;0,198901;-0,346587;0;0,544616;-0,0645802;3,43028;-0,000144676;-6,50322e-05;0,000408561;9,33484e-05;-0,000437402;-0,00574977;-0,00820305;-0,0101229;0;0,92215;0,796903;-850;850;-600;1700;-0;0;-10;-0;0;-0;250;1,2;0,4;177;-1,2;-1;2555;0,07;2326;3923;9;56579;
13,3779;-0,107081;-2,091;293;104;2150;0;-0,137257;0,122369;-0,169543;-0,0193127;0,0172098;-0,0235402;-0,011112;-0,0146583;0,091;0,0260015;0,048293;-0,17469;0;0;0;0;0;0;0;0;0;0;0;0;-0,278563;0,249767;1,03667;-0,111256;0,170662;-0,344233;0,0177488;-0,000726868;6,48615e-05;0,198901;-0,346587;0;0,531306;-0,0634672;3,43024;-0,000167068;-7,68809e-05;0,000472123;0,000208551;-0,000539566;-0,0067957;-0,00610865;-0,00994838;0;0,92215;0,796903;-850;850;-600;1700;-0;0;-10;-0;0;-0;250;1,2;0,4;177;-1,2;-1;2555;0,07;2326;3923;9;56579;
13,3878;-0,107081;-2,091;293;103;2200;0;-0,137156;0,121987;-0,166869;-0,0206736;0,0184201;-0,0251959;-0,011112;-0,0146583;0,091;0,0262128;0,0482455;-0,177677;0;0;0;0;0;0;0;0;0;0;0;0;-0,285041;0,25312;0,908689;-0,110943;0,170233;-0,344547;0,0177488;-0,000726868;6,48615e-05;0,198901;-0,346587;0;0,519896;-0,058978;3,43407;-0,000189311;-8,8755e-05;0,000536227;0,000327124;-0,000644671;-0,00781767;-0,00436332;-0,00925025;0;0,92215;0,796903;-850;850;-600;1700;-0;0;-10;-0;0;-0;250;1,2;0,4;177;-1,2;-1;2555;0,07;2326;3923;9;56579;
13,3979;-0,107081;-2,091;293;103;2250;0;-0,137156;0,121987;-0,166869;-0,0220576;0,0196511;-0,0268797;-0,011112;-0,0146583;0,091;0,0262128;0,0482455;-0,177677;0;0;0;0;0;0;0;0;0;0;0;0;-0,291519;0,258872;0,780705;-0,110943;0,170233;-0,344547;0,0177488;-0,000726868;6,48615e-05;0,198901;-0,346587;0;0,519586;-0,0589428;3,43788;-0,000211314;-0,000100597;0,000601651;0,000448602;-0,000752321;-0,00876204;-0,00436332;-0,00925025;0;0,92215;0,796903;-850;850;-600;1700;-0;0;-10;-0;0;-0;250;1,2;0,4;177;-1,2;-1;2555;0,07;2326;3923;9;56579;
13,408;-0,107081;-2,091;293;103;2300;0;-0,137322;0,121547;-0,162007;-0,0234378;0,0208728;-0,0285081;-0,011112;-0,0146583;0,091;0,0261811;0,0482571;-0,182688;0;0;0;0;0;0;0;0;0;0;0;0;-0,297997;0,264625;0,65272;-0,111141;0,169804;-0,344695;0,0177488;-0,000726868;6,48615e-05;0,198901;-0,346587;0;0,516263;-0,0556069;3,43784;-0,000233071;-0,000112396;0,000667866;0,000572852;-0,000862421;-0,00968863;-0,00383972;-0,00872665;0;0,92215;0,796903;-850;850;-600;1700;-0;0;-10;-0;0;-0;250;1,2;0,4;177;-1,2;-1;2555;0,07;2326;3923;9;56579;
13,4179;-0,21416;-2,094;243;153;2350;0;-0,0668174;0,188896;-0,153971;-0,0240975;0,0227377;-0,0300282;-0,022224;-0,0134398;0,094;-0,0304166;-0,00931098;-0,189969;0;0;0;0;0;0;0;0;0;0;0;0;-0,173286;0,401466;0,524736;-0,097234;0,179585;-0,34394;0,035355;-0,000661942;0,000118134;0,198104;-0,345694;0;0,514592;-0,0499916;3,4448;-0,000365992;-0,000112083;0,000766932;-9,98372e-05;-0,00107611;-0,0105955;-0,00366519;-0,00785398;0;0,543899;0,517476;-850;850;-600;1700;-0;0;-10;-0;0;-0;250;1,2;0,4;177;-1,2;-1;2555;0,07;2321;3914;9;56579;
13,4279;-0,21416;-2,094;233;160;2400;0;-0,0668174;0,188896;-0,153971;-0,0247711;0,0246418;-0,0315803;-0,022224;-0,0134398;0,094;-0,0304166;-0,00931098;-0,189969;0;0;0;0;0;0;0;0;0;0;0;0;-0,150165;0,428736;0,396751;-0,097234;0,179585;-0,34394;0,035355;-0,000661942;0,000118134;0,198104;-0,345694;0;0,51366;-0,049901;3,45634;-0,000498792;-0,000111764;0,000868494;-0,000769957;-0,00129267;-0,0114072;-0,00366519;-0,00785398;0;0,543899;0,517476;-850;850;-600;1700;-0;0;-10;-0;0;-0;250;1,2;0,4;177;-1,2;-1;2555;0,07;2321;3914;9;56579;
13,4379;-0,21416;-2,094;234;160;2450;0;-0,0674064;0,188427;-0,145201;-0,0254455;0,026527;-0,033033;-0,022224;-0,0134398;0,094;-0,0304136;-0,00958187;-0,198958;0;0;0;0;0;0;0;0;0;0;0;0;-0,15603;0,437668;0,268767;-0,09782;0,178846;-0,344159;0,035355;-0,000661942;0,000118134;0,198104;-0,345694;0;0,513663;-0,042139;3,4563;-0,000631057;-0,000111416;0,000970642;-0,00143578;-0,00151126;-0,0122407;-0,00366519;-0,00663225;0;0,543899;0,517476;-850;850;-600;1700;-0;0;-10;-0;0;-0;250;1,2;0,4;177;-1,2;-1;2555;0,07;2321;3914;9;56579;
13,4479;-0,21416;-2,094;234;159;2500;0;-0,0681493;0,187743;-0,131639;-0,0261251;0,0283994;-0,0343458;-0,022224;-0,0134398;0,094;-0,0303799;-0,0101016;-0,212941;0;0;0;0;0;0;0;0;0;0;0;0;-0,159214;0,443814;0,140783;-0,0985292;0,177641;-0,34458;0,035355;-0,000661942;0,000118134;0,198104;-0,345694;0;0,511542;-0,0276682;3,46889;-0,000763347;-0,000111053;0,00107633;-0,00210009;-0,00173261;-0,0131;-0,00349066;-0,00436332;0;0,543899;0,517476;-850;850;-600;1700;-0;0;-10;-0;0;-0;250;1,2;0,4;177;-1,2;-1;2555;0,07;2321;3914;9;56579;
13,4579;-0,21416;-2,094;234;159;2550;0;-0,0681493;0,187743;-0,131639;-0,0268051;0,0302727;-0,0356593;-0,022224;-0,0134398;0,094;-0,0303799;-0,0101016;-0,212941;0;0;0;0;0;0;0;0;0;0;0;0;-0,162399;0,45269;0,0127984;-0,0985292;0,177641;-0,34458;0,035355;-0,000661942;0,000118134;0,198104;-0,345694;0;0,509969;-0,0275831;3,48839;-0,000743714;-0,000117974;0,00115658;-0,00195966;-0,00185685;-0,0138269;-0,00349066;-0,00436332;0;0,543899;0,517476;-850;850;-600;1700;-0;0;-10;-0;0;-0;250;1,2;0,4;177;-1,2;-1;2555;0,07;2321;3914;9;56579;
13,4679;-0,21416;-2,094;235;159;2600;0;-0,0688624;0,187098;-0,120134;-0,0274946;0,0321461;-0,0368622;-0,022224;-0,0134398;0,094;-0,0301339;-0,010699;-0,22495;0;0;0;0;0;0;0;0;0;0;0;0;-0,168487;0,461566;-0,115186;-0,0989964;0,176399;-0,345084;0,035355;-0,000661942;0,000118134;0,198104;-0,345694;0;0,503373;-0,01324;3,48836;-0,00072339;-0,000124939;0,00123745;-0,00181559;-0,00198329;-0,0146073;-0,00244346;-0,0020944;0;0,543899;0,517476;-850;850;-600;1700;-0;0;-10;-0;0;-0;250;1,2;0,4;177;-1,2;-1;2555;0,07;2321;3914;9;56579;
13,4779;-0,21416;-2,094;235;159;2627;0;-0,0688624;0,187098;-0,120134;-0,0281847;0,034021;-0,0380661;-0,022224;-0,0134398;0,094;-0,0301339;-0,010699;-0,22495;0;0;0;0;0;0;0;0;0;0;0;0;-0,170237;0,466359;-0,184297;-0,0989964;0,176399;-0,345084;0,035355;-0,000661942;0,000118134;0,198104;-0,345694;0;0,502056;-0,0132054;3,50489;-0,000702421;-0,000131912;0,00132327;-0,00168127;-0,00212448;-0,015231;-0,00244346;-0,0020944;0;0,543899;0,517476;-850;850;-600;1700;-0;0;-10;-0;0;-0;250;1,2;0,4;177;-1,2;-1;2555;0,07;2321;3914;9;56579;
13,4878;-0,21416;-2,094;236;158;2614;0;-0,0694819;0,186538;-0,0986371;-0,0288709;0,0358632;-0,0390402;-0,022224;-0,0134398;0,094;-0,0296175;-0,0112663;-0,246992;0;0;0;0;0;0;0;0;0;0;0;0;-0,172314;0,461137;-0,151022;-0,0990994;0,175271;-0,345629;0,035355;-0,000661942;0,000118134;0,198104;-0,345694;0;0,488894;-0,00110045;3,50486;-0,000680766;-0,00013911;0,00141721;-0,00155856;-0,00228421;-0,0158722;-0,000349066;-0,000174533;0;0,543899;0,517476;-850;850;-600;1700;-0;0;-10;-0;0;-0;250;1,2;0,4;177;-1,2;-1;2555;0,07;2321;3914;9;56579;
13,4979;-0,21416;-2,094;236;158;2604;0;-0,0704065;0,185939;-0,0812031;-0,0295788;0,0377329;-0,0398567;-0,022224;-0,0134398;0,094;-0,0287658;-0,0119574;-0,265056;0;0;0;0;0;0;0;0;0;0;0;0;-0,171655;0,459373;-0,125425;-0,0991723;0,173982;-0,346259;0,035355;-0,000661942;0,000118134;0,198104;-0,345694;0;0,467933;0,0109506;3,53579;-0,000659429;-0,000146625;0,00151209;-0,00144886;-0,00246239;-0,0166283;0,00261799;0,00174533;0;0,543899;0,517476;-850;850;-600;1700;-0;0;-10;-0;0;-0;250;1,2;0,4;177;-1,2;-1;2555;0,07;2321;3914;9;56579;
13,5079;-0,21416;-2,094;236;158;2604;0;-0,0704065;0,185939;-0,0812031;-0,0302866;0,0396019;-0,040673;-0,022224;-0,0134398;0,094;-0,0287658;-0,0119574;-0,265056;0;0;0;0;0;0;0;0;0;0;0;0;-0,171655;0,459373;-0,125425;-0,0991723;0,173982;-0,346259;0,035355;-0,000661942;0,000118134;0,198104;-0,345694;0;0,466063;0,0109068;3,56088;-0,000639205;-0,000155077;0,00161334;-0,00136611;-0,00267106;-0,0171976;0,00261799;0,00174533;0;0,543899;0,517476;-850;850;-600;1700;-0;0;-10;-0;0;-0;250;1,2;0,4;177;-1,2;-1;2555;0,07;2321;3914;9;56579;
13,5178;-0,21416;-2,094;237;157;2579;0;-0,0715975;0,185502;-0,0396618;-0,0309981;0,0414454;-0,0410671;-0,022224;-0,0134398;0,094;-0,0281563;-0,0128001;-0,307071;0;0;0;0;0;0;0;0;0;0;0;0;-0,172888;0,452088;-0,0614325;-0,0997538;0,172701;-0,346732;0,035355;-0,000661942;0,000118134;0,198104;-0,345694;0;0,457363;0,0229043;3,56086;-0,000619226;-0,000163704;0,00171546;-0,00128686;-0,00288746;-0,0181227;0,00401426;0,00366519;0;0,543899;0,517476;-850;850;-600;1700;-0;0;-10;-0;0;-0;250;1,2;0,4;177;-1,2;-1;2555;0,07;2321;3914;9;56579;
13,5279;-0,21416;-2,094;239;157;2560;0;-0,0729839;0,185102;-0,00908551;-0,0317354;0,0433155;-0,0411589;-0,022224;-0,0134398;0,094;-0,0279517;-0,0138805;-0,338039;0;0;0;0;0;0;0;0;0;0;0;0;-0,177334;0,448758;-0,0127984;-0,100936;0,171222;-0,347124;0,035355;-0,000661942;0,000118134;0,198104;-0,345694;0;0,452986;0,0367281;3,62066;-0,000599225;-0,000172429;0,00182986;-0,00120498;-0,00310881;-0,0190748;0,00401426;0,00593412;0;0,543899;0,517476;-850;850;-600;1700;-0;0;-10;-0;0;-0;250;1,2;0,4;177;-1,2;-1;2555;0,07;2321;3914;9;56579;
13,538;-0,21416;-2,094;239;157;2560;0;-0,0729839;0,185102;-0,00908551;-0,032467;0,0451708;-0,04125;-0,022224;-0,0134398;0,094;-0,0279517;-0,0138805;-0,338039;0;0;0;0;0;0;0;0;0;0;0;0;-0,177334;0,448758;-0,0127984;-0,100936;0,171222;-0,347124;0,035355;-0,000661942;0,000118134;0,198104;-0,345694;0;0,449764;0,0364668;3,66468;-0,000579347;-0,000181156;0,00195373;-0,00112169;-0,00333287;-0,0197868;0,00401426;0,00593412;0;0,543899;0,517476;-850;850;-600;1700;-0;0;-10;-0;0;-0;250;1,2;0,4;177;-1,2;-1;2555;0,07;2321;3914;9;56579;
13,5478;-0,21416;-2,094;240;157;2536;0;-0,0744715;0,184901;0,0314273;-0,0331994;0,0469893;-0,0409409;-0,022224;-0,0134398;0,094;-0,0277014;-0,0153254;-0,378997;0;0;0;0;0;0;0;0;0;0;0;0;-0,178504;0,44455;0,0486341;-0,102173;0,169576;-0,34757;0,035355;-0,000661942;0,000118134;0,198104;-0,345694;0;0,449764;0,0525548;3,66468;-0,000559548;-0,000189904;0,00207818;-0,00103693;-0,00355911;-0,0208678;0,00401426;0,00855211;0;0,543899;0,517476;-850;850;-600;1700;-0;0;-10;-0;0;-0;250;1,2;0,4;177;-1,2;-1;2555;0,07;2321;3914;9;56579;
13,5579;-0,21416;-2,094;241;157;2504;0;-0,07607;0,185065;0,0848489;-0,033969;0,0488616;-0,0400825;-0,022224;-0,0134398;0,094;-0,0272441;-0,0172859;-0,432953;0;0;0;0;0;0;0;0;0;0;0;0;-0,179048;0,438941;0,130544;-0,103314;0,16778;-0,348104;0,035355;-0,000661942;0,000118134;0,198104;-0,345694;0;0,443375;0,0701155;3,72302;-0,000539713;-0,000198724;0,00222475;-0,000950327;-0,00378774;-0,0220446;0,00436332;0,0115192;0;0,543899;0,517476;-850;850;-600;1700;-0;0;-10;-0;0;-0;250;1,2;0,4;177;-1,2;-1;2555;0,07;2321;3914;9;56579;
13,5679;-0,21416;-2,094;241;157;2504;0;-0,07607;0,185065;0,0848489;-0,0347282;0,0507088;-0,0392356;-0,022224;-0,0134398;0,094;-0,0272441;-0,0172859;-0,432953;0;0;0;0;0;0;0;0;0;0;0;0;-0,179048;0,438941;0,130544;-0,103314;0,16778;-0,348104;0,035355;-0,000661942;0,000118134;0,198104;-0,345694;0;0,437771;0,0692292;3,79996;-0,000520022;-0,000207504;0,00238622;-0,000863568;-0,00401574;-0,0228976;0,00436332;0,0115192;0;0,543899;0,517476;-850;850;-600;1700;-0;0;-10;-0;0;-0;250;1,2;0,4;177;-1,2;-1;2555;0,07;2321;3914;9;56579;
13,5779;-0,21416;-2,094;243;157;2470;0;-0,0777159;0,185582;0,14229;-0,0355064;0,052567;-0,0378109;-0,022224;-0,0134398;0,094;-0,0270649;-0,0197245;-0,490876;0;0;0;0;0;0;0;0;0;0;0;0;-0,182135;0,432981;0,217573;-0,104781;0,165857;-0,348586;0,035355;-0,000661942;0,000118134;0,198104;-0,345694;0;0,439862;0,0881084;3,79998;-0,000500419;-0,000216191;0,00254673;-0,000776435;-0,00424153;-0,024347;0,00401426;0,0146608;0;0,543899;0,517476;-850;850;-600;1700;-0;0;-10;-0;0;-0;250;1,2;0,4;177;-1,2;-1;2555;0,07;2321;3914;9;56579;
13,5879;-0,321381;-2,104;250;173;2435;0;-0,0862408;0,204702;0,198938;-0,0363693;0,0546152;-0,0358203;-0,033336;-0,00428288;0,104;-0,0057748;-0,0296357;-0,546624;0;0;0;0;0;0;0;0;0;0;0;0;-0,198591;0,470267;0,307162;-0,0920156;0,175066;-0,347685;0,0526125;-0,000208604;5,58677e-05;0,196449;-0,344441;0;0,432775;0,0951705;3,88272;-0,000592123;-0,000133168;0,00282746;-0,000588617;-0,00466648;-0,0259629;0,00418879;0,016057;0;0,127776;0,127429;-850;850;-600;1700;-0;0;-10;-0;0;-0;250;1,2;0,4;177;-1,2;-1;2555;0,07;2315;3904;9;56579;
13,598;-0,321381;-2,104;250;173;2435;0;-0,0862408;0,204702;0,198938;-0,0372375;0,056676;-0,0338176;-0,033336;-0,00428288;0,104;-0,0057748;-0,0296357;-0,546624;0;0;0;0;0;0;0;0;0;0;0;0;-0,198591;0,470267;0,307162;-0,0920156;0,175066;-0,347685;0,0526125;-0,000208604;5,58677e-05;0,196449;-0,344441;0;0,426816;0,0938601;3,96433;-0,0006837;-5,02738e-05;0,0031344;-0,000400399;-0,00509004;-0,0270463;0,00418879;0,016057;0;0,127776;0,127429;-850;850;-600;1700;-0;0;-10;-0;0;-0;250;1,2;0,4;177;-1,2;-1;2555;0,07;2315;3904;9;56579;
13,6078;-0,321381;-2,104;252;174;2407;0;-0,088427;0,205032;0,245578;-0,0381074;0,0586929;-0,0314018;-0,033336;-0,00428288;0,104;-0,00467719;-0,0311825;-0,593584;0;0;0;0;0;0;0;0;0;0;0;0;-0,201684;0,467541;0,378834;-0,0931041;0,17385;-0,348006;0,0526125;-0,000208604;5,58677e-05;0,196449;-0,344441;0;0,419689;0,101;3,96437;-0,000775407;3,27558e-05;0,00343894;-0,000211908;-0,00551002;-0,0286219;0,00541052;0,0172788;0;0,127776;0,127429;-850;850;-600;1700;-0;0;-10;-0;0;-0;250;1,2;0,4;177;-1,2;-1;2555;0,07;2315;3904;9;56579;
13,6178;-0,321381;-2,104;254;174;2376;0;-0,09169;0,205728;0,297822;-0,0390259;0,0607538;-0,0284182;-0,033336;-0,00428288;0,104;-0,00214552;-0,0336442;-0,646508;0;0;0;0;0;0;0;0;0;0;0;0;-0,204394;0,46152;0,458184;-0,0938355;0,172083;-0,348686;0,0526125;-0,000208604;5,58677e-05;0,196449;-0,344441;0;0,396755;0,112947;4,03159;-0,000867583;0,000116224;0,00377307;-2,14493e-05;-0,00593037;-0,0301774;0,00855211;0,0195477;0;0,127776;0,127429;-850;850;-600;1700;-0;0;-10;-0;0;-0;250;1,2;0,4;177;-1,2;-1;2555;0,07;2315;3904;9;56579;
13,6279;-0,321381;-2,104;254;174;2376;0;-0,09169;0,205728;0,297822;-0,0399438;0,0628132;-0,0254371;-0,033336;-0,00428288;0,104;-0,00214552;-0,0336442;-0,646508;0;0;0;0;0;0;0;0;0;0;0;0;-0,204394;0,46152;0,458184;-0,0938355;0,172083;-0,348686;0,0526125;-0,000208604;5,58677e-05;0,196449;-0,344441;0;0,391586;0,111476;4,10688;-0,000852857;0,000117413;0,00403212;6,81988e-05;-0,00614754;-0,0311779;0,00855211;0,0195477;0;0,127776;0,127429;-850;850;-600;1700;-0;0;-10;-0;0;-0;250;1,2;0,4;177;-1,2;-1;2555;0,07;2315;3904;9;56579;
13,6379;-0,321381;-2,104;258;175;2347;0;-0,0955432;0,20658;0,345943;-0,0409048;0,0648912;-0,0219572;-0,033336;-0,00428288;0,104;0,00116646;-0,0363804;-0,695407;0;0;0;0;0;0;0;0;0;0;0;0;-0,212383;0,458502;0,532415;-0,0943767;0,1702;-0,349464;0,0526125;-0,000208604;5,58677e-05;0,196449;-0,344441;0;0,369731;0,125407;4,10695;-0,000837678;0,000118238;0,00428874;0,000158161;-0,00636206;-0,0326966;0,0123918;0,0219911;0;0,127776;0,127429;-850;850;-600;1700;-0;0;-10;-0;0;-0;250;1,2;0,4;177;-1,2;-1;2555;0,07;2315;3904;9;56579;
13,6479;-0,321381;-2,104;258;175;2347;0;-0,0955432;0,20658;0,345943;-0,0418592;0,0669547;-0,0185016;-0,033336;-0,00428288;0,104;0,00116646;-0,0363804;-0,695407;0;0;0;0;0;0;0;0;0;0;0;0;-0,212383;0,458502;0,532415;-0,0943767;0,1702;-0,349464;0,0526125;-0,000208604;5,58677e-05;0,196449;-0,344441;0;0,365234;0,123881;4,17632;-0,00082204;0,000118693;0,00456653;0,000249958;-0,00657807;-0,0337782;0,0123918;0,0219911;0;0,127776;0,127429;-850;850;-600;1700;-0;0;-10;-0;0;-0;250;1,2;0,4;177;-1,2;-1;2555;0,07;2315;3904;9;56579;
13,6578;-0,321381;-2,104;261;176;2322;0;-0,0992521;0,207367;0,388216;-0,0428422;0,0690085;-0,0146567;-0,033336;-0,00428288;0,104;0,00398419;-0,038949;-0,738301;0;0;0;0;0;0;0;0;0;0;0;0;-0,2179;0,456205;0,596407;-0,0952679;0,168418;-0,350085;0,0526125;-0,000208604;5,58677e-05;0,196449;-0,344441;0;0,349528;0,135675;4,1764;-0,000805839;0,000118689;0,00487063;0,000344049;-0,00679807;-0,0347776;0,0151844;0,0240855;0;0,127776;0,127429;-850;850;-600;1700;-0;0;-10;-0;0;-0;250;1,2;0,4;177;-1,2;-1;2555;0,07;2315;3904;9;56579;
13,6679;-0,321381;-2,104;264;176;2302;0;-0,102547;0,207946;0,421654;-0,0438794;0,0711116;-0,0103921;-0,033336;-0,00428288;0,104;0,00606782;-0,0411886;-0,772202;0;0;0;0;0;0;0;0;0;0;0;0;-0,223734;0,452275;0,647601;-0,0964789;0,166757;-0,350548;0,0526125;-0,000208604;5,58677e-05;0,196449;-0,344441;0;0,336039;0,14393;4,23736;-0,000789758;0,000118668;0,00517039;0,000439942;-0,00701851;-0,0361465;0,0169297;0,0258309;0;0,127776;0,127429;-850;850;-600;1700;-0;0;-10;-0;0;-0;250;1,2;0,4;177;-1,2;-1;2555;0,07;2315;3904;9;56579;
13,6779;-0,321381;-2,104;264;176;2302;0;-0,102547;0,207946;0,421654;-0,044907;0,0731954;-0,00616669;-0,033336;-0,00428288;0,104;0,00606782;-0,0411886;-0,772202;0;0;0;0;0;0;0;0;0;0;0;0;-0,223734;0,452275;0,647601;-0,0964789;0,166757;-0,350548;0,0526125;-0,000208604;5,58677e-05;0,196449;-0,344441;0;0,333129;0,142684;4,28561;-0,000773604;0,000118382;0,00549327;0,000539811;-0,00724576;-0,0370591;0,0169297;0,0258309;0;0,127776;0,127429;-850;850;-600;1700;-0;0;-10;-0;0;-0;250;1,2;0,4;177;-1,2;-1;2555;0,07;2315;3904;9;56579;
13,6879;-0,321381;-2,104;267;177;2285;0;-0,105925;0,208921;0,449865;-0,0459631;0,0752786;-0,00168108;-0,033336;-0,00428288;0,104;0,00818489;-0,0442477;-0,801049;0;0;0;0;0;0;0;0;0;0;0;0;-0,229736;0,451481;0,691115;-0,0977397;0,164673;-0,351183;0,0526125;-0,000208604;5,58677e-05;0,196449;-0,344441;0;0,323498;0,158102;4,28571;-0,000757489;0,000118105;0,00581514;0,000640354;-0,00747235;-0,0382779;0,018675;0,0286234;0;0,127776;0,127429;-850;850;-600;1700;-0;0;-10;-0;0;-0;250;1,2;0,4;177;-1,2;-1;2555;0,07;2315;3904;9;56579;
13,6979;-0,321381;-2,104;269;178;2274;0;-0,109203;0,209671;0,46809;-0,0470544;0,0773738;0,00299654;-0,033336;-0,00428288;0,104;0,0103355;-0,0470061;-0,819893;0;0;0;0;0;0;0;0;0;0;0;0;-0,233708;0,451841;0,719272;-0,0988672;0,162665;-0,351803;0,0526125;-0,000208604;5,58677e-05;0,196449;-0,344441;0;0,310603;0,171286;4,32644;-0,000741409;0,000117855;0,00615679;0,000742623;-0,00769757;-0,0392855;0,0205949;0,0312414;0;0,127776;0,127429;-850;850;-600;1700;-0;0;-10;-0;0;-0;250;1,2;0,4;177;-1,2;-1;2555;0,07;2315;3904;9;56579;
13,7078;-0,321381;-2,104;269;178;2274;0;-0,109203;0,209671;0,46809;-0,0481382;0,0794548;0,00764233;-0,033336;-0,00428288;0,104;0,0103355;-0,0470061;-0,819893;0;0;0;0;0;0;0;0;0;0;0;0;-0,233708;0,451841;0,719272;-0,0988672;0,162665;-0,351803;0,0526125;-0,000208604;5,58677e-05;0,196449;-0,344441;0;0,309111;0,170463;4,35279;-0,000725433;0,000117657;0,00651212;0,000845795;-0,0079203;-0,0399728;0,0205949;0,0312414;0;0,127776;0,127429;-850;850;-600;1700;-0;0;-10;-0;0;-0;250;1,2;0,4;177;-1,2;-1;2555;0,07;2315;3904;9;56579;
13,7179;-0,321381;-2,104;272;178;2264;0;-0,112685;0,210375;0,484285;-0,0492735;0,0815743;0,0125215;-0,033336;-0,00428288;0,104;0,0126722;-0,0497967;-0,836722;0;0;0;0;0;0;0;0;0;0;0;0;-0,240263;0,449854;0,744869;-0,100013;0,160578;-0,352437;0,0526125;-0,000208604;5,58677e-05;0,196449;-0,344441;0;0,297693;0,184739;4,3529;-0,000709502;0,00011746;0,00686622;0,000950365;-0,0081426;-0,0408435;0,0226893;0,0338594;0;0,127776;0,127429;-850;850;-600;1700;-0;0;-10;-0;0;-0;250;1,2;0,4;177;-1,2;-1;2555;0,07;2315;3904;9;56579;
13,7279;-0,321381;-2,104;275;179;2258;0;-0,115788;0,210601;0,494679;-0,0504322;0,0836818;0,0174717;-0,033336;-0,00428288;0,104;0,0147614;-0,0517082;-0,84759;0;0;0;0;0;0;0;0;0;0;0;0;-0,247189;0,451177;0,760227;-0,101026;0,158893;-0,352912;0,0526125;-0,000208604;5,58677e-05;0,196449;-0,344441;0;0,285997;0,193423;4,37634;-0,000693556;0,000117281;0,00723352;0,00105782;-0,00836398;-0,0415601;0,0246091;0,0356047;0;0,127776;0,127429;-850;850;-600;1700;-0;0;-10;-0;0;-0;250;1,2;0,4;177;-1,2;-1;2555;0,07;2315;3904;9;56579;
13,7379;-0,321381;-2,104;275;179;2257;0;-0,115788;0,210601;0,494679;-0,0515923;0,0857918;0,0224279;-0,033336;-0,00428288;0,104;0,0147614;-0,0517082;-0,84759;0;0;0;0;0;0;0;0;0;0;0;0;-0,24708;0,450977;0,762787;-0,101026;0,158893;-0,352912;0,0526125;-0,000208604;5,58677e-05;0,196449;-0,344441;0;0,285203;0,192886;4,39142;-0,000677682;0,00011711;0,00760825;0,00116625;-0,00858439;-0,0420968;0,0246091;0,0356047;0;0,127776;0,127429;-850;850;-600;1700;-0;0;-10;-0;0;-0;250;1,2;0,4;177;-1,2;-1;2555;0,07;2315;3904;9;56579;
13,7479;-0,321381;-2,104;278;178;2252;0;-0,119159;0,21022;0,503228;-0,0527813;0,0878894;0,0274491;-0,033336;-0,00428288;0,104;0,0170125;-0,0528396;-0,856494;0;0;0;0;0;0;0;0;0;0;0;0;-0,254075;0,447469;0,775585;-0,102146;0,157381;-0,353267;0,0526125;-0,000208604;5,58677e-05;0,196449;-0,344441;0;0,273864;0,197607;4,39154;-0,000661868;0,000116972;0,00797985;0,00127663;-0,00880318;-0,0427444;0,0267035;0,0364774;0;0,127776;0,127429;-850;850;-600;1700;-0;0;-10;-0;0;-0;250;1,2;0,4;177;-1,2;-1;2555;0,07;2315;3904;9;56579;
13,7578;-0,321381;-2,104;280;178;2250;0;-0,12224;0,210061;0,507663;-0,053993;0,0899718;0,0324816;-0,033336;-0,00428288;0,104;0,0191641;-0,0542796;-0,861368;0;0;0;0;0;0;0;0;0;0;0;0;-0,258872;0,447072;0,780705;-0,103076;0,155782;-0,353705;0,0526125;-0,000208604;5,58677e-05;0,196449;-0,344441;0;0,261927;0,204697;4,40397;-0,000646071;0,000116862;0,00835817;0,0013892;-0,00902115;-0,0432891;0,0287979;0,0378736;0;0,127776;0,127429;-850;850;-600;1700;-0;0;-10;-0;0;-0;250;1,2;0,4;177;-1,2;-1;2555;0,07;2315;3904;9;56579;
13,7679;-0,321381;-2,104;280;178;2250;0;-0,12224;0,210061;0,507663;-0,0552252;0,0920892;0,0375988;-0,033336;-0,00428288;0,104;0,0191641;-0,0542796;-0,861368;0;0;0;0;0;0;0;0;0;0;0;0;-0,258872;0,447072;0,780705;-0,103076;0,155782;-0,353705;0,0526125;-0,000208604;5,58677e-05;0,196449;-0,344441;0;0,261612;0,204451;4,41047;-0,000630335;0,000116753;0,0087401;0,00150267;-0,00923888;-0,0437302;0,0287979;0,0378736;0;0,127776;0,127429;-850;850;-600;1700;-0;0;-10;-0;0;-0;250;1,2;0,4;177;-1,2;-1;2555;0,07;2315;3904;9;56579;
13,7779;-0,321381;-2,104;283;178;2248;0;-0,125278;0,209672;0,51015;-0,0564803;0,0941897;0,0427095;-0,033336;-0,00428288;0,104;0,0211356;-0,0555047;-0,86425;0;0;0;0;0;0;0;0;0;0;0;0;-0,26617;0,446675;0,785824;-0,104142;0,154168;-0,3541;0,0526125;-0,000208604;5,58677e-05;0,196449;-0,344441;0;0,251251;0,211038;4,4106;-0,000614644;0,000116653;0,00911937;0,00161816;-0,00945584;-0,0442145;0,0307178;0,0390954;0;0,127776;0,127429;-850;850;-600;1700;-0;0;-10;-0;0;-0;250;1,2;0,4;177;-1,2;-1;2555;0,07;2315;3904;9;56579;
13,7878;-0,321381;-2,104;283;178;2248;0;-0,125278;0,209672;0,51015;-0,0577214;0,0962669;0,0477636;-0,033336;-0,00428288;0,104;0,0211356;-0,0555047;-0,86425;0;0;0;0;0;0;0;0;0;0;0;0;-0,26617;0,446675;0,785824;-0,104142;0,154168;-0,3541;0,0526125;-0,000208604;5,58677e-05;0,196449;-0,344441;0;0,251079;0,210893;4,4143;-0,000599001;0,000116554;0,00950099;0,00173567;-0,00967255;-0,0446178;0,0307178;0,0390954;0;0,127776;0,127429;-850;850;-600;1700;-0;0;-10;-0;0;-0;250;1,2;0,4;177;-1,2;-1;2555;0,07;2315;3904;9;56579;
13,7979;-0,321381;-2,104;285;177;2247;0;-0,127871;0,209188;0,511752;-0,0590113;0,0983772;0,0529261;-0,033336;-0,00428288;0,104;0,022757;-0,0563858;-0,866156;0;0;0;0;0;0;0;0;0;0;0;0;-0,271068;0,443973;0,788384;-0,105114;0,152802;-0,354404;0,0526125;-0,000208604;5,58677e-05;0,196449;-0,344441;0;0,242607;0,215593;4,41442;-0,000583399;0,000116454;0,00988364;0,00185454;-0,00988922;-0,0449954;0,0322886;0,039968;0;0,127776;0,127429;-850;850;-600;1700;-0;0;-10;-0;0;-0;250;1,2;0,4;177;-1,2;-1;2555;0,07;2315;3904;9;56579;
13,8079;-0,321375;-2,054;318;127;2243;0;-0,16679;0,123367;0,518799;-0,0606814;0,0996125;0,0581209;-0,033336;0,00365551;0,054;0,0586902;0,0312742;-0,871504;0;0;0;0;0;0;0;0;0;0;0;0;-0,353172;0,318143;0,798622;-0,1081;0,154641;-0,352704;0,0535523;0,00018123;-4,85357e-05;0,199962;-0,342268;-0;0,234034;0,219258;4,41685;-0,000567855;0,000195587;0,00976422;0,00287381;-0,00980511;-0,0454096;0,0338594;0,0406662;0;-0,10922;-0,109003;-850;850;-600;1700;-0;0;-10;-0;0;-0;250;1,2;0,4;177;-1,2;-1;2555;0,07;2311;3898;9;56579;
13,8179;-0,321375;-2,054;318;104;2243;0;-0,16679;0,123367;0,518799;-0,0623395;0,100839;0,0632783;-0,033336;0,00365551;0,054;0,0586902;0,0312742;-0,871504;0;0;0;0;0;0;0;0;0;0;0;0;-0,353172;0,260571;0,798622;-0,1081;0,154641;-0,352704;0,0535523;0,00018123;-4,85357e-05;0,199962;-0,342268;-0;0,233589;0,218841;4,42712;-0,000552304;0,00027489;0,00964392;0,00389773;-0,00972039;-0,0457994;0,0338594;0,0406662;0;-0,10922;-0,109003;-850;850;-600;1700;-0;0;-10;-0;0;-0;250;1,2;0,4;177;-1,2;-1;2555;0,07;2311;3898;9;56579;
13,8279;-0,321375;-2,054;320;103;2242;0;-0,168406;0,122328;0,519543;-0,0640271;0,102065;0,0684846;-0,033336;0,00365551;0,054;0,0593802;0,0311739;-0,87246;0;0;0;0;0;0;0;0;0;0;0;0;-0,358015;0,257952;0,801182;-0,109026;0,153502;-0,352917;0,0535523;0,00018123;-4,85357e-05;0,199962;-0,342268;-0;0,226075;0,220713;4,42725;-0,00053678;0,000354361;0,00952146;0,00492476;-0,00963488;-0,0462018;0,0352557;0,0410152;0;-0,10922;-0,109003;-850;850;-600;1700;-0;0;-10;-0;0;-0;250;1,2;0,4;177;-1,2;-1;2555;0,07;2311;3898;9;56579;
13,838;-0,321375;-2,054;321;102;2242;0;-0,170425;0,121155;0,519159;-0,0657548;0,103293;0,0737478;-0,033336;0,00365551;0,054;0,0603728;0,030855;-0,872403;0;0;0;0;0;0;0;0;0;0;0;0;-0,360516;0,255449;0,801182;-0,110053;0,15201;-0,353244;0,0535523;0,00018123;-4,85357e-05;0,199962;-0,342268;-0;0,215701;0,224418;4,42844;-0,000521316;0,000433636;0,00939842;0,00595145;-0,00954866;-0,0465865;0,0371755;0,0417134;0;-0,10922;-0,109003;-850;850;-600;1700;-0;0;-10;-0;0;-0;250;1,2;0,4;177;-1,2;-1;2555;0,07;2311;3898;9;56579;
13,8479;-0,321375;-2,054;321;102;2242;0;-0,170425;0,121155;0,519159;-0,0674407;0,104491;0,0788833;-0,033336;0,00365551;0,054;0,0603728;0,030855;-0,872403;0;0;0;0;0;0;0;0;0;0;0;0;-0,360516;0,255449;0,801182;-0,110053;0,15201;-0,353244;0,0535523;0,00018123;-4,85357e-05;0,199962;-0,342268;-0;0,215718;0,224436;4,42802;-0,000550801;0,000418236;0,00977619;0,00607913;-0,00976172;-0,0469414;0,0371755;0,0417134;0;-0,10922;-0,109003;-850;850;-600;1700;-0;0;-10;-0;0;-0;250;1,2;0,4;177;-1,2;-1;2555;0,07;2311;3898;9;56579;
13,8579;-0,321375;-2,054;323;102;2243;0;-0,171962;0,120261;0,517839;-0,0691589;0,105693;0,0840576;-0,033336;0,00365551;0,054;0,060974;0,0303755;-0,871379;0;0;0;0;0;0;0;0;0;0;0;0;-0,365679;0,255563;0,798622;-0,110988;0,150637;-0,35354;0,0535523;0,00018123;-4,85357e-05;0,199962;-0,342268;-0;0,208205;0,229123;4,42814;-0,000580551;0,000402326;0,0101572;0,00620788;-0,00997603;-0,0472892;0,0385718;0,042586;0;-0,10922;-0,109003;-850;850;-600;1700;-0;0;-10;-0;0;-0;250;1,2;0,4;177;-1,2;-1;2555;0,07;2311;3898;9;56579;
13,8678;-0,321375;-2,054;324;101;2244;0;-0,173626;0,119548;0,516427;-0,0708775;0,106876;0,0891692;-0,033336;0,00365551;0,054;0,0616866;0,0294516;-0,87036;0;0;0;0;0;0;0;0;0;0;0;0;-0,368345;0,253172;0,796063;-0,111939;0,148999;-0,353933;0,0535523;0,00018123;-4,85357e-05;0,199962;-0,342268;-0;0,199823;0,236708;4,42636;-0,000610267;0,000386049;0,0105387;0,00634554;-0,0101771;-0,0476183;0,0401426;0,0439823;0;-0,10922;-0,109003;-850;850;-600;1700;-0;0;-10;-0;0;-0;250;1,2;0,4;177;-1,2;-1;2555;0,07;2311;3898;9;56579;
13,8779;-0,321375;-2,054;324;101;2244;0;-0,173626;0,119548;0,516427;-0,0726292;0,108082;0,0943794;-0,033336;0,00365551;0,054;0,0616866;0,0294516;-0,87036;0;0;0;0;0;0;0;0;0;0;0;0;-0,368345;0,253172;0,796063;-0,111939;0,148999;-0,353933;0,0535523;0,00018123;-4,85357e-05;0,199962;-0,342268;-0;0,199894;0,236792;4,42445;-0,000639873;0,000369565;0,0109194;0,00649042;-0,0103589;-0,0479471;0,0401426;0,0439823;0;-0,10922;-0,109003;-850;850;-600;1700;-0;0;-10;-0;0;-0;250;1,2;0,4;177;-1,2;-1;2555;0,07;2311;3898;9;56579;
13,888;-0,321375;-2,054;325;101;2245;0;-0,17495;0,11903;0,514054;-0,0743908;0,109281;0,0995554;-0,033336;0,00365551;0,054;0,0621207;0,0283906;-0,868366;0;0;0;0;0;0;0;0;0;0;0;0;-0,371012;0,253285;0,793503;-0,11283;0,14742;-0,354312;0,0535523;0,00018123;-4,85357e-05;0,199962;-0,342268;-0;0,193314;0,245238;4,42458;-0,00066911;0,000353499;0,0112979;0,00664471;-0,0105214;-0,0482571;0,0413643;0,0455531;0;-0,10922;-0,109003;-850;850;-600;1700;-0;0;-10;-0;0;-0;250;1,2;0,4;177;-1,2;-1;2555;0,07;2311;3898;9;56579;
13,8978;-0,321375;-2,054;326;100;2247;0;-0,176251;0,117774;0,51083;-0,0761253;0,11044;0,104583;-0,033336;0,00365551;0,054;0,0624819;0,0284447;-0,865339;0;0;0;0;0;0;0;0;0;0;0;0;-0,373848;0,251002;0,788384;-0,113769;0,146218;-0,354509;0,0535523;0,00018123;-4,85357e-05;0,199962;-0,342268;-0;0,186853;0,247267;4,42129;-0,000697788;0,000338414;0,0116764;0,00681705;-0,010653;-0,0485513;0,042586;0,0459022;0;-0,10922;-0,109003;-850;850;-600;1700;-0;0;-10;-0;0;-0;250;1,2;0,4;177;-1,2;-1;2555;0,07;2311;3898;9;56579;
13,9078;-0,321375;-2,054;326;100;2247;0;-0,176251;0,117774;0,51083;-0,0778915;0,11162;0,109702;-0,033336;0,00365551;0,054;0,0624819;0,0284447;-0,865339;0;0;0;0;0;0;0;0;0;0;0;0;-0,373848;0,251002;0,788384;-0,113769;0,146218;-0,354509;0,0535523;0,00018123;-4,85357e-05;0,199962;-0,342268;-0;0,187009;0,247474;4,41676;-0,000726156;0,000323905;0,0120503;0,00698906;-0,0107717;-0,0488534;0,042586;0,0459022;0;-0,10922;-0,109003;-850;850;-600;1700;-0;0;-10;-0;0;-0;250;1,2;0,4;177;-1,2;-1;2555;0,07;2311;3898;9;56579;
13,9183;-0,321375;-2,054;327;98;2249;0;-0,177541;0,116199;0,507673;-0,0797546;0,11284;0,115029;-0,033336;0,00365551;0,054;0,0630436;0,0292273;-0,862273;0;0;0;0;0;0;0;0;0;0;0;0;-0,376689;0,246204;0,783264;-0,114497;0,145427;-0,3546;0,0535523;0,00018123;-4,85357e-05;0,199962;-0,342268;-0;0,179479;0,244648;4,41689;-0,000754298;0,000309522;0,0124217;0,0071624;-0,0108893;-0,0491251;0,0439823;0,0453786;0;-0,10922;-0,109003;-850;850;-600;1700;-0;0;-10;-0;0;-0;250;1,2;0,4;177;-1,2;-1;2555;0,07;2311;3898;9;56579;
13,9279;-0,321375;-2,054;329;97;2252;0;-0,178931;0,114213;0,502515;-0,0814637;0,113931;0,119829;-0,033336;0,00365551;0,054;0,0637793;0,0305508;-0,857174;0;0;0;0;0;0;0;0;0;0;0;0;-0,382213;0,244018;0,775585;-0,115152;0,144764;-0,354659;0,0535523;0,00018123;-4,85357e-05;0,199962;-0,342268;-0;0,170211;0,239202;4,41247;-0,000782263;0,000295241;0,0127901;0,00733681;-0,0110059;-0,0493658;0,0457276;0,0443314;0;-0,10922;-0,109003;-850;850;-600;1700;-0;0;-10;-0;0;-0;250;1,2;0,4;177;-1,2;-1;2555;0,07;2311;3898;9;56579;
13,9379;-0,321375;-2,054;329;97;2252;0;-0,178931;0,114213;0,502515;-0,0832609;0,115078;0,124876;-0,033336;0,00365551;0,054;0,0637793;0,0305508;-0,857174;0;0;0;0;0;0;0;0;0;0;0;0;-0,382213;0,244018;0,775585;-0,115152;0,144764;-0,354659;0,0535523;0,00018123;-4,85357e-05;0,199962;-0,342268;-0;0,170441;0,239526;4,40516;-0,000810443;0,000280847;0,0131601;0,00751417;-0,0111238;-0,0496394;0,0457276;0,0443314;0;-0,10922;-0,109003;-850;850;-600;1700;-0;0;-10;-0;0;-0;250;1,2;0,4;177;-1,2;-1;2555;0,07;2311;3898;9;56579;
13,9479;-0,321375;-2,054;330;95;2253;0;-0,180254;0,112527;0,500373;-0,0850618;0,116202;0,129876;-0,033336;0,00365551;0,054;0,0645613;0,0317042;-0,855074;0;0;0;0;0;0;0;0;0;0;0;0;-0,384895;0,239096;0,773025;-0,115693;0,144231;-0,354701;0,0535523;0,00018123;-4,85357e-05;0,199962;-0,342268;-0;0,161952;0,233866;4,40528;-0,000838101;0,000266704;0,0135237;0,00769079;-0,0112399;-0,0498882;0,0472984;0,0432842;0;-0,10922;-0,109003;-850;850;-600;1700;-0;0;-10;-0;0;-0;250;1,2;0,4;177;-1,2;-1;2555;0,07;2311;3898;9;56579;
13,9579;-0,321375;-2,054;330;95;2253;0;-0,180254;0,112527;0,500373;-0,0868572;0,117323;0,134859;-0,033336;0,00365551;0,054;0,0645613;0,0317042;-0,855074;0;0;0;0;0;0;0;0;0;0;0;0;-0,384895;0,239096;0,773025;-0,115693;0,144231;-0,354701;0,0535523;0,00018123;-4,85357e-05;0,199962;-0,342268;-0;0,162041;0,233994;4,40232;-0,000865556;0,000252671;0,0138834;0,00786803;-0,011355;-0,0501649;0,0472984;0,0432842;0;-0,10922;-0,109003;-850;850;-600;1700;-0;0;-10;-0;0;-0;250;1,2;0,4;177;-1,2;-1;2555;0,07;2311;3898;9;56579;
13,9679;-0,321375;-2,054;331;93;2256;0;-0,181478;0,110346;0,495292;-0,0886792;0,118431;0,139832;-0,033336;0,00365551;0,054;0,0651412;0,0334381;-0,849964;0;0;0;0;0;0;0;0;0;0;0;0;-0,387922;0,234377;0,765346;-0,116337;0,143784;-0,354671;0,0535523;0,00018123;-4,85357e-05;0,199962;-0,342268;-0;0,153547;0,225502;4,40244;-0,000892961;0,000238661;0,01424;0,00804629;-0,0114701;-0,0504417;0,0488692;0,0417134;0;-0,10922;-0,109003;-850;850;-600;1700;-0;0;-10;-0;0;-0;250;1,2;0,4;177;-1,2;-1;2555;0,07;2311;3898;9;56579;
13,9779;-0,321375;-2,054;332;92;2259;0;-0,182767;0,10856;0,490086;-0,0905116;0,119519;0,144746;-0,033336;0,00365551;0,054;0,0662777;0,0349617;-0,844814;0;0;0;0;0;0;0;0;0;0;0;0;-0,390957;0,232166;0,757667;-0,116489;0,143522;-0,354728;0,0535523;0,00018123;-4,85357e-05;0,199962;-0,342268;-0;0,142414;0,218248;4,39524;-0,000920496;0,000224565;0,0145993;0,00822749;-0,0115859;-0,050671;0,0509636;0,0403171;0;-0,10922;-0,109003;-850;850;-600;1700;-0;0;-10;-0;0;-0;250;1,2;0,4;177;-1,2;-1;2555;0,07;2311;3898;9;56579;
13,9879;-0,321375;-2,054;332;92;2259;0;-0,182767;0,10856;0,490086;-0,0923325;0,120601;0,149628;-0,033336;0,00365551;0,054;0,0662777;0,0349617;-0,844814;0;0;0;0;0;0;0;0;0;0;0;0;-0,390957;0,232166;0,757667;-0,116489;0,143522;-0,354728;0,0535523;0,00018123;-4,85357e-05;0,199962;-0,342268;-0;0,142609;0,218546;4,38786;-0,000947328;0,000210847;0,0149482;0,00840627;-0,011698;-0,0509114;0,0509636;0,0403171;0;-0,10922;-0,109003;-850;850;-600;1700;-0;0;-10;-0;0;-0;250;1,2;0,4;177;-1,2;-1;2555;0,07;2311;3898;9;56579;
13,998;0,106269;-2,011;382;42;2262;0;-0,292655;-0,0628376;0,484862;-0,095291;0,119965;0,15453;0,011112;0,0146583;0,011;0,131851;0,149843;-0,840632;0;0;0;0;0;0;0;0;0;0;0;0;-0,517462;0,106152;0,749988;-0,160804;0,0870056;-0,35577;-0,0181328;0,000752435;6,66339e-05;0,204757;-0,34314;-0;0,132199;0,210031;4,38798;-0,000529231;0,00030725;0,014868;0,0098889;-0,0117101;-0,0511022;0,0528835;0,0387463;0;-2,21944;-0,796903;-850;850;-600;1700;-0;0;-10;-0;0;-0;250;1,2;0,4;177;-1,2;-1;2555;0,07;2307;3894;9;56579;
14,0079;0,106269;-2,011;425;-8;2265;0;-0,292775;-0,0655243;0,479305;-0,0981941;0,119316;0,159283;0,011112;0,0146583;0,011;0,132002;0,151917;-0,835238;0;0;0;0;0;0;0;0;0;0;0;0;-0,626446;-0,0202474;0,742309;-0,160773;0,0863931;-0,355933;-0,0181328;0,000752435;6,66339e-05;0,204757;-0,34314;-0;0,121959;0,201795;4,38057;-0,000111726;0,00040356;0,0147848;0,0113709;-0,0117209;-0,0512915;0,0548033;0,0371755;0;-2,21944;-0,796903;-850;850;-600;1700;-0;0;-10;-0;0;-0;250;1,2;0,4;177;-1,2;-1;2555;0,07;2307;3894;9;56579;
14,0178;0,106269;-2,011;425;-55;2265;0;-0,292775;-0,0655243;0,479305;-0,101093;0,118667;0,164029;0,011112;0,0146583;0,011;0,132002;0,151917;-0,835238;0;0;0;0;0;0;0;0;0;0;0;0;-0,626446;-0,139188;0,742309;-0,160773;0,0863931;-0,355933;-0,0181328;0,000752435;6,66339e-05;0,204757;-0,34314;-0;0,122136;0,202088;4,37269;0,000306978;0,000500206;0,0146967;0,0128574;-0,0117304;-0,0515289;0,0548033;0,0371755;0;-2,21944;-0,796903;-850;850;-600;1700;-0;0;-10;-0;0;-0;250;1,2;0,4;177;-1,2;-1;2555;0,07;2307;3894;9;56579;
14,0279;0,106269;-2,011;426;-57;2269;0;-0,293004;-0,0680894;0,473669;-0,104048;0,11798;0,168806;0,011112;0,0146583;0,011;0,1324;0,154054;-0,829782;0;0;0;0;0;0;0;0;0;0;0;0;-0,630072;-0,144503;0,73207;-0,160604;0,0859643;-0,356113;-0,0181328;0,000752435;6,66339e-05;0,204757;-0,34314;-0;0,110748;0,192601;4,3728;0,000725702;0,000596981;0,0146033;0,0143412;-0,0117378;-0,0517113;0,0568977;0,0354302;0;-2,21944;-0,796903;-850;850;-600;1700;-0;0;-10;-0;0;-0;250;1,2;0,4;177;-1,2;-1;2555;0,07;2307;3894;9;56579;
14,0379;0,106269;-2,011;426;-60;2273;0;-0,293166;-0,0706198;0,465993;-0,106987;0,117272;0,173476;0,011112;0,0146583;0,011;0,1328;0,15609;-0,822332;0;0;0;0;0;0;0;0;0;0;0;0;-0,631183;-0,152375;0,721832;-0,160366;0,08547;-0,356339;-0,0181328;0,000752435;6,66339e-05;0,204757;-0,34314;-0;0,098559;0,184336;4,3648;0,000632245;0,000578066;0,0149411;0,0145246;-0,0118444;-0,0518746;0,0591667;0,0338594;0;-2,21944;-0,796903;-850;850;-600;1700;-0;0;-10;-0;0;-0;250;1,2;0,4;177;-1,2;-1;2555;0,07;2307;3894;9;56579;
14,0479;0,106269;-2,011;426;-60;2273;0;-0,293166;-0,0706198;0,465993;-0,109909;0,116568;0,178121;0,011112;0,0146583;0,011;0,1328;0,15609;-0,822332;0;0;0;0;0;0;0;0;0;0;0;0;-0,631183;-0,152375;0,721832;-0,160366;0,08547;-0,356339;-0,0181328;0,000752435;6,66339e-05;0,204757;-0,34314;-0;0,098757;0,184706;4,35386;0,00053675;0,000558691;0,0152767;0,014707;-0,0119503;-0,0520857;0,0591667;0,0338594;0;-2,21944;-0,796903;-850;850;-600;1700;-0;0;-10;-0;0;-0;250;1,2;0,4;177;-1,2;-1;2555;0,07;2307;3894;9;56579;
14,0579;0,106269;-2,011;426;-62;2278;0;-0,293173;-0,0732215;0,458369;-0,112847;0,115835;0,182715;0,011112;0,0146583;0,011;0,132978;0,158478;-0,814836;0;0;0;0;0;0;0;0;0;0;0;0;-0,632572;-0,157799;0,709033;-0,160195;0,085257;-0,356467;-0,0181328;0,000752435;6,66339e-05;0,204757;-0,34314;-0;0,0882817;0,173282;4,35397;0,000438854;0,000538801;0,0156141;0,0149022;-0,0120428;-0,0522246;0,0610865;0,031765;0;-2,21944;-0,796903;-850;850;-600;1700;-0;0;-10;-0;0;-0;250;1,2;0,4;177;-1,2;-1;2555;0,07;2307;3894;9;56579;
14,0679;0,106269;-2,011;426;-64;2282;0;-0,293051;-0,0756763;0,450818;-0,11576;0,115082;0,187196;0,011112;0,0146583;0,011;0,132955;0,160563;-0,807418;0;0;0;0;0;0;0;0;0;0;0;0;-0,633682;-0,163174;0,698795;-0,160096;0,0848868;-0,3566;-0,0181328;0,000752435;6,66339e-05;0,204757;-0,34314;-0;0,0789171;0,16409;4,3431;0,000339373;0,000518642;0,0159482;0,0151194;-0,0121092;-0,0523396;0,0628319;0,0300197;0;-2,21944;-0,796903;-850;850;-600;1700;-0;0;-10;-0;0;-0;250;1,2;0,4;177;-1,2;-1;2555;0,07;2307;3894;9;56579;
14,0779;0,106269;-2,011;426;-64;2282;0;-0,293051;-0,0756763;0,450818;-0,118706;0,114322;0,191728;0,011112;0,0146583;0,011;0,132955;0,160563;-0,807418;0;0;0;0;0;0;0;0;0;0;0;0;-0,633682;-0,163174;0,698795;-0,160096;0,0848868;-0,3566;-0,0181328;0,000752435;6,66339e-05;0,204757;-0,34314;-0;0,0790725;0,164413;4,33234;0,000240763;0,000498966;0,0162768;0,0153596;-0,0121384;-0,0525221;0,0628319;0,0300197;0;-2,21944;-0,796903;-850;850;-600;1700;-0;0;-10;-0;0;-0;250;1,2;0,4;177;-1,2;-1;2555;0,07;2307;3894;9;56579;
14,0878;0,106269;-2,011;425;-66;2287;0;-0,292802;-0,0781455;0,442282;-0,121599;0,113549;0,196099;0,011112;0,0146583;0,011;0,132798;0,162881;-0,798959;0;0;0;0;0;0;0;0;0;0;0;0;-0,63253;-0,168641;0,685996;-0,160004;0,0847354;-0,356677;-0,0181328;0,000752435;6,66339e-05;0,204757;-0,34314;-0;0,0704676;0,152942;4,33245;0,000143552;0,000480603;0,0166045;0,0156368;-0,0121173;-0,0526216;0,0644026;0,0279253;0;-2,21944;-0,796903;-850;850;-600;1700;-0;0;-10;-0;0;-0;250;1,2;0,4;177;-1,2;-1;2555;0,07;2307;3894;9;56579;
14,098;0,106269;-2,011;426;-69;2293;0;-0,293214;-0,081299;0,433136;-0,124579;0,112723;0,2005;0,011112;0,0146583;0,011;0,133881;0,16653;-0,789995;0;0;0;0;0;0;0;0;0;0;0;0;-0,636737;-0,176766;0,670638;-0,159334;0,0852309;-0,356859;-0,0181328;0,000752435;6,66339e-05;0,204757;-0,34314;-0;0,053379;0,13221;4,32026;4,7555e-05;0,000463462;0,0169273;0,0159362;-0,0120575;-0,0527077;0,0675442;0,0240855;0;-2,21944;-0,796903;-850;850;-600;1700;-0;0;-10;-0;0;-0;250;1,2;0,4;177;-1,2;-1;2555;0,07;2307;3894;9;56579;
14,1079;0,106269;-2,011;426;-69;2293;0;-0,293214;-0,081299;0,433136;-0,127504;0,111912;0,204821;0,011112;0,0146583;0,011;0,133881;0,16653;-0,789995;0;0;0;0;0;0;0;0;0;0;0;0;-0,636737;-0,176766;0,670638;-0,159334;0,0852309;-0,356859;-0,0181328;0,000752435;6,66339e-05;0,204757;-0,34314;-0;0,053506;0,132525;4,3072;-4,74229e-05;0,000447354;0,017243;0,0162341;-0,0119731;-0,0528602;0,0675442;0,0240855;0;-2,21944;-0,796903;-850;850;-600;1700;-0;0;-10;-0;0;-0;250;1,2;0,4;177;-1,2;-1;2555;0,07;2307;3894;9;56579;
14,1178;0,106269;-2,011;426;-72;2298;0;-0,293674;-0,0848085;0,423817;-0,130414;0,111072;0,209021;0,011112;0,0146583;0,011;0,135111;0,171035;-0,78078;0;0;0;0;0;0;0;0;0;0;0;0;-0,638125;-0,184852;0,65784;-0,158563;0,0862266;-0,356963;-0,0181328;0,000752435;6,66339e-05;0,204757;-0,34314;-0;0,0352579;0,104677;4,3073;-0,000142433;0,000431309;0,0175592;0,0165346;-0,0118857;-0,0529294;0,0708604;0,0190241;0;-2,21944;-0,796903;-850;850;-600;1700;-0;0;-10;-0;0;-0;250;1,2;0,4;177;-1,2;-1;2555;0,07;2307;3894;9;56579;
14,1279;0,106269;-2,011;426;-72;2298;0;-0,293674;-0,0848085;0,423817;-0,133366;0,110219;0,213282;0,011112;0,0146583;0,011;0,135111;0,171035;-0,78078;0;0;0;0;0;0;0;0;0;0;0;0;-0,638125;-0,184852;0,65784;-0,158563;0,0862266;-0,356963;-0,0181328;0,000752435;6,66339e-05;0,204757;-0,34314;-0;0,0353433;0,104931;4,29399;-0,000236926;0,000415423;0,0178699;0,0168353;-0,0117956;-0,0530744;0,0708604;0,0190241;0;-2,21944;-0,796903;-850;850;-600;1700;-0;0;-10;-0;0;-0;250;1,2;0,4;177;-1,2;-1;2555;0,07;2307;3894;9;56579;
14,1379;0,106269;-2,011;426;-75;2304;0;-0,29391;-0,0883551;0,413515;-0,136317;0,109332;0,217432;0,011112;0,0146583;0,011;0,136045;0,17561;-0,770538;0;0;0;0;0;0;0;0;0;0;0;0;-0,639791;-0,193054;0,642481;-0,157865;0,0872544;-0,357023;-0,0181328;0,000752435;6,66339e-05;0,204757;-0,34314;-0;0,0180141;0,0760515;4,29409;-0,000330824;0,000399655;0,0181745;0,0171355;-0,0117047;-0,0532068;0,074002;0,0137881;0;-2,21944;-0,796903;-850;850;-600;1700;-0;0;-10;-0;0;-0;250;1,2;0,4;177;-1,2;-1;2555;0,07;2307;3894;9;56579;
14,1478;0,106269;-2,011;426;-77;2308;0;-0,29383;-0,0906845;0,406776;-0,139217;0,108437;0,221448;0,011112;0,0146583;0,011;0,13625;0,178383;-0,763816;0;0;0;0;0;0;0;0;0;0;0;0;-0,640902;-0,198544;0,632243;-0,15758;0,0876984;-0,35704;-0,0181328;0,000752435;6,66339e-05;0,204757;-0,34314;-0;0,00840943;0,0588809;4,27936;-0,00042399;0,00038405;0,0184766;0,0174348;-0,0116119;-0,0532731;0,0757473;0,0106465;0;-2,21944;-0,796903;-850;850;-600;1700;-0;0;-10;-0;0;-0;250;1,2;0,4;177;-1,2;-1;2555;0,07;2307;3894;9;56579;
14,1579;0,106269;-2,011;426;-77;2308;0;-0,29383;-0,0906845;0,406776;-0,142181;0,107522;0,225551;0,011112;0,0146583;0,011;0,13625;0,178383;-0,763816;0;0;0;0;0;0;0;0;0;0;0;0;-0,640902;-0,198544;0,632243;-0,15758;0,0876984;-0,35704;-0,0181328;0,000752435;6,66339e-05;0,204757;-0,34314;-0;0,00842404;0,0589832;4,26975;-0,0005173;0,000368474;0,0187756;0,0177365;-0,0115162;-0,0534163;0,0757473;0,0106465;0;-2,21944;-0,796903;-850;850;-600;1700;-0;0;-10;-0;0;-0;250;1,2;0,4;177;-1,2;-1;2555;0,07;2307;3894;9;56579;
14,1678;0,106269;-2,011;426;-79;2315;0;-0,2934;-0,0935064;0,395932;-0,145099;0,106593;0,229488;0,011112;0,0146583;0,011;0,136092;0,181737;-0,752961;0;0;0;0;0;0;0;0;0;0;0;0;-0,642846;-0,204317;0,614325;-0,157308;0,0882302;-0,357029;-0,0181328;0,000752435;6,66339e-05;0,204757;-0,34314;-0;-0,00221243;0,0377103;4,26985;-0,000609518;0,000353097;0,019071;0,0180362;-0,0114198;-0,0534556;0,0776672;0,00680678;0;-2,21944;-0,796903;-850;850;-600;1700;-0;0;-10;-0;0;-0;250;1,2;0,4;177;-1,2;-1;2555;0,07;2307;3894;9;56579;
14,1779;0,106269;-2,011;426;-81;2317;0;-0,293368;-0,095338;0,391301;-0,148062;0,10563;0,233441;0,011112;0,0146583;0,011;0,136306;0,183732;-0,748398;0;0;0;0;0;0;0;0;0;0;0;0;-0,643401;-0,209668;0,609205;-0,157062;0,0883943;-0,357097;-0,0181328;0,000752435;6,66339e-05;0,204757;-0,34314;-0;-0,0109454;0,0252107;4,25433;-0,000701423;0,000337826;0,0193609;0,0183364;-0,0113207;-0,0535394;0,0792379;0,00453786;0;-2,21944;-0,796903;-850;850;-600;1700;-0;0;-10;-0;0;-0;250;1,2;0,4;177;-1,2;-1;2555;0,07;2307;3894;9;56579;
14,1879;0,106269;-2,011;426;-81;2317;0;-0,293368;-0,095338;0,391301;-0,15097;0,104685;0,237319;0,011112;0,0146583;0,011;0,136306;0,183732;-0,748398;0;0;0;0;0;0;0;0;0;0;0;0;-0,643401;-0,209668;0,609205;-0,157062;0,0883943;-0,357097;-0,0181328;0,000752435;6,66339e-05;0,204757;-0,34314;-0;-0,0109584;0,0252406;4,24776;-0,00079289;0,000322687;0,0196467;0,0186374;-0,0112191;-0,0536787;0,0792379;0,00453786;0;-2,21944;-0,796903;-850;850;-600;1700;-0;0;-10;-0;0;-0;250;1,2;0,4;177;-1,2;-1;2555;0,07;2307;3894;9;56579;
14,198;0,106269;-2,011;426;-82;2322;0;-0,292993;-0,097468;0,38366;-0,15393;0,1037;0,241195;0,011112;0,0146583;0,011;0,136101;0,186243;-0,740737;0;0;0;0;0;0;0;0;0;0;0;0;-0,64479;-0,212714;0,596407;-0,156891;0,0887751;-0,357077;-0,0181328;0,000752435;6,66339e-05;0,204757;-0,34314;-0;-0,0187244;0,008737;4,24785;-0,000884247;0,000307593;0,0199324;0,0189398;-0,0111156;-0,0537462;0,0806342;0,0015708;0;-2,21944;-0,796903;-850;850;-600;1700;-0;0;-10;-0;0;-0;250;1,2;0,4;177;-1,2;-1;2555;0,07;2307;3894;9;56579;
14,2079;0,633459;-1,974;444;-132;2319;0;-0,314628;-0,280135;0,387795;-0,157059;0,100913;0,245053;0,066672;0,0323809;-0,026;0,116074;0,292463;-0,734817;0;0;0;0;0;0;0;0;0;0;0;0;-0,690304;-0,341859;0,604086;-0,198554;0,0123284;-0,347022;-0,105776;0,0016496;0,000870792;0,200377;-0,329632;-0;-0,0255699;-0,00291805;4,23694;-0,000419742;0,000469669;0,0198395;0,0200384;-0,0103112;-0,0538364;0,0818559;-0,000523599;0;-2,68947;-0,436876;-850;850;-600;1700;-0;0;-10;-0;0;-0;250;1,2;0,4;177;-1,2;-1;2555;0,07;2304;3890;9;56579;
14,218;0,633459;-1,974;444;-182;2319;0;-0,314628;-0,280135;0,387795;-0,160234;0,0980866;0,248966;0,066672;0,0323809;-0,026;0,116074;0,292463;-0,734817;0;0;0;0;0;0;0;0;0;0;0;0;-0,690304;-0,471115;0,604086;-0,198554;0,0123284;-0,347022;-0,105776;0,0016496;0,000870792;0,200377;-0,329632;-0;-0,0255421;-0,00291488;4,24299;4,71813e-05;0,000632569;0,0197436;0,0211428;-0,00950166;-0,0539653;0,0818559;-0,000523599;0;-2,68947;-0,436876;-850;850;-600;1700;-0;0;-10;-0;0;-0;250;1,2;0,4;177;-1,2;-1;2555;0,07;2304;3890;9;56579;
14,2278;0,633459;-1,974;443;-232;2323;0;-0,313609;-0,282017;0,381928;-0,163324;0,0953082;0,252728;0,066672;0,0323809;-0,026;0,11526;0,294543;-0,72906;0;0;0;0;0;0;0;0;0;0;0;0;-0,688916;-0,601183;0,593847;-0,198349;0,0125264;-0,347132;-0,105776;0,0016496;0,000870792;0,200377;-0,329632;-0;-0,0294281;-0,017489;4,24308;0,000513217;0,00079515;0,0196469;0,0222447;-0,0086916;-0,0540379;0,0825541;-0,00314159;0;-2,68947;-0,436876;-850;850;-600;1700;-0;0;-10;-0;0;-0;250;1,2;0,4;177;-1,2;-1;2555;0,07;2304;3890;9;56579;
14,2379;0,633459;-1,974;442;-241;2326;0;-0,312678;-0,28353;0,377298;-0,166465;0,0924602;0,256518;0,066672;0,0323809;-0,026;0,114421;0,296191;-0,724478;0;0;0;0;0;0;0;0;0;0;0;0;-0,687225;-0,625227;0,586168;-0,198257;0,0126613;-0,34718;-0,105776;0,0016496;0,000870792;0,200377;-0,329632;-0;-0,0314184;-0,0291919;4,23472;0,000981005;0,000958319;0,0195454;0,0233503;-0,00787696;-0,0541368;0,0829031;-0,00523599;0;-2,68947;-0,436876;-850;850;-600;1700;-0;0;-10;-0;0;-0;250;1,2;0,4;177;-1,2;-1;2555;0,07;2304;3890;9;56579;
14,2479;0,633459;-1,974;442;-241;2326;0;-0,312678;-0,28353;0,377298;-0,169601;0,0896158;0,260303;0,066672;0,0323809;-0,026;0,114421;0,296191;-0,724478;0;0;0;0;0;0;0;0;0;0;0;0;-0,687225;-0,625227;0,586168;-0,198257;0,0126613;-0,34718;-0,105776;0,0016496;0,000870792;0,200377;-0,329632;-0;-0,0314554;-0,0292264;4,22815;0,000849987;0,000908153;0,0198099;0,0236502;-0,00776496;-0,0543018;0,0829031;-0,00523599;0;-2,68947;-0,436876;-850;850;-600;1700;-0;0;-10;-0;0;-0;250;1,2;0,4;177;-1,2;-1;2555;0,07;2304;3890;9;56579;
14,2578;0,633459;-1,974;441;-242;2327;0;-0,311744;-0,285331;0,374569;-0,172682;0,0867961;0,264005;0,066672;0,0323809;-0,026;0,113517;0,29823;-0,721757;0;0;0;0;0;0;0;0;0;0;0;0;-0,684937;-0,628081;0,583609;-0,198227;0,0128989;-0,347188;-0,105776;0,0016496;0,000870792;0,200377;-0,329632;-0;-0,0324291;-0,0438386;4,22824;0,000715711;0,000856878;0,0200773;0,023952;-0,007651;-0,0544432;0,0830777;-0,00785398;0;-2,68947;-0,436876;-850;850;-600;1700;-0;0;-10;-0;0;-0;250;1,2;0,4;177;-1,2;-1;2555;0,07;2304;3890;9;56579;
14,2679;0,633459;-1,974;441;-243;2329;0;-0,310758;-0,286752;0,371086;-0,175823;0,083898;0,267755;0,066672;0,0323809;-0,026;0,112505;0,299724;-0,718256;0;0;0;0;0;0;0;0;0;0;0;0;-0,685526;-0,631209;0,578489;-0,198253;0,0129728;-0,347171;-0,105776;0,0016496;0,000870792;0,200377;-0,329632;-0;-0,0324514;-0,0545919;4,2244;0,000579655;0,00080503;0,0203413;0,0242561;-0,00752402;-0,0546019;0,0830777;-0,00977384;0;-2,68947;-0,436876;-850;850;-600;1700;-0;0;-10;-0;0;-0;250;1,2;0,4;177;-1,2;-1;2555;0,07;2304;3890;9;56579;
14,2778;0,633459;-1,974;441;-243;2329;0;-0,310758;-0,286752;0,371086;-0,178903;0,0810557;0,271434;0,066672;0,0323809;-0,026;0,112505;0,299724;-0,718256;0;0;0;0;0;0;0;0;0;0;0;0;-0,685526;-0,631209;0,578489;-0,198253;0,0129728;-0,347171;-0,105776;0,0016496;0,000870792;0,200377;-0,329632;-0;-0,03248;-0,0546401;4,21947;0,000441119;0,000752439;0,0206046;0,0245644;-0,00737151;-0,0548006;0,0830777;-0,00977384;0;-2,68947;-0,436876;-850;850;-600;1700;-0;0;-10;-0;0;-0;250;1,2;0,4;177;-1,2;-1;2555;0,07;2304;3890;9;56579;
14,2879;0,633459;-1,974;440;-245;2331;0;-0,309834;-0,288285;0,367443;-0,182022;0,0781535;0,275133;0,066672;0,0323809;-0,026;0,111617;0,301454;-0,714627;0;0;0;0;0;0;0;0;0;0;0;0;-0,683527;-0,636931;0,57337;-0,198217;0,0131683;-0,347184;-0,105776;0,0016496;0,000870792;0,200377;-0,329632;-0;-0,0334552;-0,0673227;4,21956;0,000303923;0,000700713;0,020865;0,0248755;-0,00718045;-0,0549649;0,0832522;-0,0120428;0;-2,68947;-0,436876;-850;850;-600;1700;-0;0;-10;-0;0;-0;250;1,2;0,4;177;-1,2;-1;2555;0,07;2304;3890;9;56579;
14,2978;0,633459;-1,974;440;-245;2331;0;-0,309834;-0,288285;0,367443;-0,185098;0,0752914;0,278781;0,066672;0,0323809;-0,026;0,111617;0,301454;-0,714627;0;0;0;0;0;0;0;0;0;0;0;0;-0,683527;-0,636931;0,57337;-0,198217;0,0131683;-0,347184;-0,105776;0,0016496;0,000870792;0,200377;-0,329632;-0;-0,0334861;-0,0673848;4,21441;0,000167213;0,000650356;0,0211242;0,0251964;-0,00693461;-0,0551498;0,0832522;-0,0120428;0;-2,68947;-0,436876;-850;850;-600;1700;-0;0;-10;-0;0;-0;250;1,2;0,4;177;-1,2;-1;2555;0,07;2304;3890;9;56579;
14,3078;0,633459;-1,974;439;-246;2333;0;-0,309233;-0,29002;0,364425;-0,188189;0,0723929;0,282423;0,066672;0,0323809;-0,026;0,111238;0,303667;-0,711717;0;0;0;0;0;0;0;0;0;0;0;0;-0,681524;-0,640069;0,56825;-0,197995;0,0136472;-0,347292;-0,105776;0,0016496;0,000870792;0,200377;-0,329632;-0;-0,0373919;-0,0839845;4,21449;3,1295e-05;0,000601482;0,0213802;0,0255163;-0,00664788;-0,0553425;0,0839503;-0,0150098;0;-2,68947;-0,436876;-850;850;-600;1700;-0;0;-10;-0;0;-0;250;1,2;0,4;177;-1,2;-1;2555;0,07;2304;3890;9;56579;
14,3178;0,633459;-1,974;439;-248;2335;0;-0,308805;-0,292192;0,360883;-0,191285;0,0694628;0,286042;0,066672;0,0323809;-0,026;0,111156;0,306845;-0,70833;0;0;0;0;0;0;0;0;0;0;0;0;-0,682108;-0,645806;0,563131;-0,19765;0,0146528;-0,347448;-0,105776;0,0016496;0,000870792;0,200377;-0,329632;-0;-0,0432842;-0,108478;4,21024;-0,000103496;0,000553978;0,0216341;0,0258341;-0,00633368;-0,0555111;0,0849975;-0,0193732;0;-2,68947;-0,436876;-850;850;-600;1700;-0;0;-10;-0;0;-0;250;1,2;0,4;177;-1,2;-1;2555;0,07;2304;3890;9;56579;
14,3279;0,633459;-1,974;439;-248;2335;0;-0,308805;-0,292192;0,360883;-0,194403;0,0665129;0,289685;0,066672;0,0323809;-0,026;0,111156;0,306845;-0,70833;0;0;0;0;0;0;0;0;0;0;0;0;-0,682108;-0,645806;0,563131;-0,19765;0,0146528;-0,347448;-0,105776;0,0016496;0,000870792;0,200377;-0,329632;-0;-0,043323;-0,108575;4,20522;-0,00023796;0,000506783;0,0218859;0,0261519;-0,00601347;-0,0557078;0,0849975;-0,0193732;0;-2,68947;-0,436876;-850;850;-600;1700;-0;0;-10;-0;0;-0;250;1,2;0,4;177;-1,2;-1;2555;0,07;2304;3890;9;56579;
14,338;0,633459;-1,974;439;-250;2337;0;-0,308408;-0,294366;0,357274;-0,197495;0,0635621;0,293266;0,066672;0,0323809;-0,026;0,111047;0,310226;-0,704833;0;0;0;0;0;0;0;0;0;0;0;0;-0,682692;-0,651551;0,558012;-0,197361;0,0158595;-0,347559;-0,105776;0,0016496;0,000870792;0,200377;-0,329632;-0;-0,0482132;-0,134979;4,20531;-0,000371684;0,000459879;0,0221364;0,0264692;-0,00569303;-0,0558835;0,0858702;-0,0240855;0;-2,68947;-0,436876;-850;850;-600;1700;-0;0;-10;-0;0;-0;250;1,2;0,4;177;-1,2;-1;2555;0,07;2304;3890;9;56579;
14,348;0,633459;-1,974;438;-251;2340;0;-0,307905;-0,296313;0,352813;-0,200577;0,0605958;0,296798;0,066672;0,0323809;-0,026;0,110774;0,313298;-0,700449;0;0;0;0;0;0;0;0;0;0;0;0;-0,680971;-0,654987;0,550333;-0,197131;0,0169847;-0,347636;-0,105776;0,0016496;0,000870792;0,200377;-0,329632;-0;-0,0521733;-0,159571;4,2002;-0,000505291;0,000413056;0,0223857;0,0267868;-0,00537011;-0,0560483;0,0865683;-0,0284489;0;-2,68947;-0,436876;-850;850;-600;1700;-0;0;-10;-0;0;-0;250;1,2;0,4;177;-1,2;-1;2555;0,07;2304;3890;9;56579;
14,358;0,633459;-1,974;438;-251;2340;0;-0,307905;-0,296313;0,352813;-0,203664;0,0576246;0,300336;0,066672;0,0323809;-0,026;0,110774;0,313298;-0,700449;0;0;0;0;0;0;0;0;0;0;0;0;-0,680971;-0,654987;0,550333;-0,197131;0,0169847;-0,347636;-0,105776;0,0016496;0,000870792;0,200377;-0,329632;-0;-0,0522323;-0,159751;4,19386;-0,000637842;0,000366617;0,0226319;0,0271031;-0,00504723;-0,0562307;0,0865683;-0,0284489;0;-2,68947;-0,436876;-850;850;-600;1700;-0;0;-10;-0;0;-0;250;1,2;0,4;177;-1,2;-1;2555;0,07;2304;3890;9;56579;
14,3679;0,633459;-1,974;438;-253;2343;0;-0,307087;-0,297997;0,346613;-0,206716;0,0546637;0,30378;0,066672;0,0323809;-0,026;0,110006;0,316023;-0,694226;0;0;0;0;0;0;0;0;0;0;0;0;-0,681844;-0,661031;0,542654;-0,197081;0,0180256;-0,347612;-0,105776;0,0016496;0,000870792;0,200377;-0,329632;-0;-0,0532116;-0,182283;4,19395;-0,000770228;0,000320265;0,022878;0,0274199;-0,00472254;-0,0563626;0,0867429;-0,0324631;0;-2,68947;-0,436876;-850;850;-600;1700;-0;0;-10;-0;0;-0;250;1,2;0,4;177;-1,2;-1;2555;0,07;2304;3890;9;56579;
14,378;0,836697;-1,972;388;-227;2337;0;-0,217567;-0,268021;0,357644;-0,208895;0,0519792;0,307362;0,088896;0,0775743;-0,028;0,00897726;0,260643;-0,698871;0;0;0;0;0;0;0;0;0;0;0;0;-0,550223;-0,591815;0,558012;-0,208589;-0,0073772;-0,341227;-0,136278;0,00387665;0,00270299;0,195451;-0,321255;-0;-0,0562405;-0,205136;4,1851;-0,000678777;0,000727835;0,0231014;0,0267318;-0,00379419;-0,0564618;0,0872665;-0,0364774;0;-2,4241;-0,657497;-850;850;-600;1700;-0;0;-10;-0;0;-0;250;1,2;0,4;177;-1,2;-1;2555;0,07;2303;3887;9;56579;
