time ;e1;e2;ctrlpitch;ctrlroll;ctrlthrust;ctrlyaw;edx;edy;edz;cumulx;cumuly;cumulz;x;y;z;dxr;dyr;dzr;dxrT;dyrT;dzrT;dxrUn;dyrUn;dzrUn;x_pred;y_pred;z_pred;dx_pred;dy_pred;dz_pred;ux;uy;uz;dxd;dyd;dzd;Perpx;Tangx;Perpy;Tangy;Perpz;Tanz;ax;ay;az;err_sti_x;err_sti_y;err_sti_z;err_sti_dx;err_sti_dy;err_sti_dz;pitch;roll;yaw;yawd;eyaw;kpvx;kpvy;kpvz;kpyaw;kivx;kivy;kivz;kdvx;kdvy;kdvz;kdyaw;ktg;veld;pitchoff;ke1;ke2;gravity;thr_vel;gps_accuracy;height_accuracy;gps_sat_num;gps_status
20,8727;19,1815;-1,782;50;-50;1450;0;-0,170889;-0,0644761;0,103555;-0,00111146;-0,000419353;0,000673522;-0,122232;0,021342;-0,218;-0,0191827;0,00475209;-0,121039;0;0;0;0;0;0;-0,122232;0,021342;-0,218;-0,02;0;-0,121;0,205665;-0,0810057;2,82845;-0,190072;-0,059724;-0,017484;-0,195795;0,0021387;0,0341863;0,012249;-0,0184649;-0;0;-0;9,81;0;0;0;0;0;0;-0,00785398;-0,00855211;0;-0,17286;-0,172;-1080;1080;-600;1700;-10;10;-10;-0;0;-0;250;1,2;0,2;177;-1,2;-1;2555;0,07;2441;3466;8;56579;
20,8763;19,1815;-1,782;100;-59;1500;0;-0,17023;-0,0549582;0,103448;-0,00172804;-0,000618411;0,00104821;-0,122232;0,021342;-0,218;-0,0198423;-0,00476584;-0,120932;0;0;0;0;0;0;-0,122232;0,021342;-0,218;-0,02;0;-0,121;0,205665;-0,0810057;2,82845;-0,190072;-0,059724;-0,017484;-0,195795;0,0021387;0,0341863;0,012249;-0,0184649;-0;0,508595;-0,0511593;3,82787;0;0;0;0;0;0;-0,00785398;-0,00855211;0;-0,17286;-0,172;-1080;1080;-600;1700;-10;10;-10;-0;0;-0;250;1,2;0,2;177;-1,2;-1;2555;0,07;2441;3466;8;56579;
20,8861;19,1815;-1,782;150;-50;1550;0;-0,174564;-0,0464582;0,103448;-0,00344836;-0,00107626;0,00206769;-0,122232;0,021342;-0,218;-0,0155079;-0,0132659;-0,120932;0;0;0;0;0;0;-0,122232;0,021342;-0,218;-0,02;0;-0,121;0,205665;-0,0810057;2,82845;-0,190072;-0,059724;-0,017484;-0,195795;0,0021387;0,0341863;0,012249;-0,0184649;-0;0,508607;-0,0511605;3,82772;0;0;0;0;0;0;-0,00785398;-0,00855211;0;-0,17286;-0,172;-1080;1080;-600;1700;-10;10;-10;-0;0;-0;250;1,2;0,2;177;-1,2;-1;2555;0,07;2441;3466;8;56579;
20,8962;19,1815;-1,782;200;-44;1600;0;-0,182655;-0,0414206;0,103547;-0,00529446;-0,00149489;0,00311424;-0,122232;0,021342;-0,218;-0,00741682;-0,0183004;-0,121042;0;0;0;0;0;0;-0,122232;0,021342;-0,218;-0,02;0;-0,121;0,205665;-0,0810057;2,82845;-0,190072;-0,059721;-0,0174945;-0,195795;0,0021387;0,0341863;0,012249;-0,0184649;-0;0,508605;-0,0522043;3,82775;0;0;0;0;0;0;-0,00785398;-0,00872665;0;-0,17286;-0,172;-1080;1080;-600;1700;-10;10;-10;-0;0;-0;250;1,2;0,2;177;-1,2;-1;2555;0,07;2441;3466;8;56579;
20,9062;19,1815;-1,782;250;-44;1650;0;-0,192182;-0,0412706;0,103733;-0,00720187;-0,0019045;0,00414379;-0,122232;0,021342;-0,218;0,00211041;-0,0184503;-0,121228;0;0;0;0;0;0;-0,122232;0,021342;-0,218;-0,02;0;-0,121;0,205665;-0,0810057;2,82845;-0,190072;-0,059721;-0,0174945;-0,195795;0,0021387;0,0341863;0,012249;-0,0184649;-0;0,508591;-0,0522029;3,82791;0;0;0;0;0;0;-0,00785398;-0,00872665;0;-0,17286;-0,172;-1080;1080;-600;1700;-10;10;-10;-0;0;-0;250;1,2;0,2;177;-1,2;-1;2555;0,07;2441;3466;8;56579;
20,916;19,1815;-1,782;300;-49;1700;0;-0,200444;-0,046066;0,103899;-0,00917123;-0,0023571;0,0051646;-0,122232;0,021342;-0,218;0,0103752;-0,0136517;-0,121437;0;0;0;0;0;0;-0,122232;0,021342;-0,218;-0,02;0;-0,121;0,205665;-0,0810057;2,82845;-0,190069;-0,0597176;-0,0175381;-0,195795;0,0021387;0,0341863;0,012249;-0,0184649;-0;0,507526;-0,0532443;3,82821;0;0;0;0;0;0;-0,00767945;-0,00890118;0;-0,17286;-0,172;-1080;1080;-600;1700;-10;10;-10;-0;0;-0;250;1,2;0,2;177;-1,2;-1;2555;0,07;2441;3466;8;56579;
20,926;19,1815;-1,782;350;-58;1750;0;-0,205076;-0,0544177;0,104043;-0,0112253;-0,00290215;0,0062067;-0,122232;0,021342;-0,218;0,0150103;-0,00530272;-0,121604;0;0;0;0;0;0;-0,122232;0,021342;-0,218;-0,02;0;-0,121;0,205665;-0,0810057;2,82845;-0,190066;-0,0597204;-0,0175608;-0,195795;0,0021387;0,0341863;0,012249;-0,0184649;-0;0,506463;-0,052198;3,82847;0;0;0;0;0;0;-0,00750492;-0,00872665;0;-0,17286;-0,172;-1080;1080;-600;1700;-10;10;-10;-0;0;-0;250;1,2;0,2;177;-1,2;-1;2555;0,07;2441;3466;8;56579;
20,9361;19,1815;-1,782;398;-69;1800;0;-0,204752;-0,0639626;0,104125;-0,0132924;-0,00354792;0,00725794;-0,122232;0,021342;-0,218;0,0146855;0,00424219;-0,121685;0;0;0;0;0;0;-0,122232;0,021342;-0,218;-0,02;0;-0,121;0,205665;-0,0810057;2,82845;-0,190066;-0,0597204;-0,0175608;-0,195795;0,0021387;0,0341863;0,012249;-0,0184649;-0;0,506444;-0,052196;3,8287;0;0;0;0;0;0;-0,00750492;-0,00872665;0;-0,17286;-0,172;-1080;1080;-600;1700;-10;10;-10;-0;0;-0;250;1,2;0,2;177;-1,2;-1;2555;0,07;2441;3466;8;56579;
20,9469;19,1815;-1,782;392;-77;1850;0;-0,199529;-0,072014;0,104131;-0,0154525;-0,00432754;0,00838527;-0,122232;0,021342;-0,218;0,00947025;0,0122602;-0,121659;0;0;0;0;0;0;-0,122232;0,021342;-0,218;-0,02;0;-0,121;0,205665;-0,0810057;2,82845;-0,190059;-0,0597538;-0,017528;-0,195795;0,0021387;0,0341863;0,012249;-0,0184649;-0;0,507472;-0,0521948;3,82885;0;0;0;0;0;0;-0,00767945;-0,00872665;0;-0,17286;-0,172;-1080;1080;-600;1700;-10;10;-10;-0;0;-0;250;1,2;0,2;177;-1,2;-1;2555;0,07;2441;3466;8;56579;
20,9561;19,1815;-1,782;383;-82;1900;0;-0,19094;-0,0762857;0,103922;-0,0172029;-0,00502685;0,00933792;-0,122232;0,021342;-0,218;0,000908588;0,0164693;-0,121528;0;0;0;0;0;0;-0,122232;0,021342;-0,218;-0,02;0;-0,121;0,205665;-0,0810057;2,82845;-0,190032;-0,0598165;-0,0176055;-0,195795;0,0021387;0,0341863;0,012249;-0,0184649;-0;0,505388;-0,0532383;3,82888;0;0;0;0;0;0;-0,00733038;-0,00890118;0;-0,17286;-0,172;-1080;1080;-600;1700;-10;10;-10;-0;0;-0;250;1,2;0,2;177;-1,2;-1;2555;0,07;2441;3466;8;56579;
20,9661;19,1815;-1,782;373;-81;1950;0;-0,181435;-0,0754806;0,103728;-0,0190254;-0,00578505;0,0103799;-0,122232;0,021342;-0,218;-0,00859666;0,0156641;-0,121333;0;0;0;0;0;0;-0,122232;0,021342;-0,218;-0,02;0;-0,121;0,205665;-0,0810057;2,82845;-0,190032;-0,0598165;-0,0176055;-0,195795;0,0021387;0,0341863;0,012249;-0,0184649;-0;0,505412;-0,0532408;3,8286;0;0;0;0;0;0;-0,00733038;-0,00890118;0;-0,17286;-0,172;-1080;1080;-600;1700;-10;10;-10;-0;0;-0;250;1,2;0,2;177;-1,2;-1;2555;0,07;2441;3466;8;56579;
20,976;19,1815;-1,782;364;-75;2000;0;-0,173741;-0,0700179;0,10338;-0,0207456;-0,0064783;0,0114034;-0,122232;0,021342;-0,218;-0,016247;0,0101094;-0,12114;0;0;0;0;0;0;-0,122232;0,021342;-0,218;-0,02;0;-0,121;0,205665;-0,0810057;2,82845;-0,189988;-0,0599085;-0,0177602;-0,195795;0,0021387;0,0341863;0,012249;-0,0184649;-0;0,501272;-0,055331;3,82835;0;0;0;0;0;0;-0,00663225;-0,00925025;0;-0,17286;-0,172;-1080;1080;-600;1700;-10;10;-10;-0;0;-0;250;1,2;0,2;177;-1,2;-1;2555;0,07;2441;3466;8;56579;
20,9862;19,1815;-1,782;360;-66;2050;0;-0,170112;-0,0615662;0,102991;-0,0224656;-0,0071008;0,0124448;-0,122232;0,021342;-0,218;-0,0197678;0,00139825;-0,12103;0;0;0;0;0;0;-0,122232;0,021342;-0,218;-0,02;0;-0,121;0,205665;-0,0810057;2,82845;-0,18988;-0,0601679;-0,0180388;-0,195795;0,0021387;0,0341863;0,012249;-0,0184649;-0;0,492989;-0,0563794;3,82787;0;0;0;0;0;0;-0,00523599;-0,00942478;0;-0,17286;-0,172;-1080;1080;-600;1700;-10;10;-10;-0;0;-0;250;1,2;0,2;177;-1,2;-1;2555;0,07;2441;3466;8;56579;
20,9963;19,1815;-1,782;362;-56;2100;0;-0,171601;-0,0522885;0,102977;-0,0242009;-0,00762954;0,0134861;-0,122232;0,021342;-0,218;-0,018279;-0,00787942;-0,121016;0;0;0;0;0;0;-0,122232;0,021342;-0,218;-0,02;0;-0,121;0,205665;-0,0810057;2,82845;-0,18988;-0,0601679;-0,0180388;-0,195795;0,0021387;0,0341863;0,012249;-0,0184649;-0;0,493033;-0,0563844;3,82734;0;0;0;0;0;0;-0,00523599;-0,00942478;0;-0,17286;-0,172;-1080;1080;-600;1700;-10;10;-10;-0;0;-0;250;1,2;0,2;177;-1,2;-1;2555;0,07;2441;3466;8;56579;
21,0062;19,1815;-1,782;369;-49;2150;0;-0,177753;-0,0453444;0,102819;-0,0259663;-0,0080799;0,0145073;-0,122232;0,021342;-0,218;-0,0120181;-0,0150891;-0,121115;0;0;0;0;0;0;-0,122232;0,021342;-0,218;-0,02;0;-0,121;0,205665;-0,0810057;2,82845;-0,189771;-0,0604336;-0,0182962;-0,195795;0,0021387;0,0341863;0,012249;-0,0184649;-0;0,484707;-0,0553403;3,82734;0;0;0;0;0;0;-0,00383972;-0,00925025;0;-0,17286;-0,172;-1080;1080;-600;1700;-10;10;-10;-0;0;-0;250;1,2;0,2;177;-1,2;-1;2555;0,07;2441;3466;8;56579;
21,016;19,1815;-1,782;379;-46;2200;0;-0,187032;-0,0429576;0,102413;-0,0278069;-0,00850265;0,0155151;-0,122232;0,021342;-0,218;-0,00251551;-0,0179969;-0,121288;0;0;0;0;0;0;-0,122232;0,021342;-0,218;-0,02;0;-0,121;0,205665;-0,0810057;2,82845;-0,189548;-0,0609545;-0,0188748;-0,195795;0,0021387;0,0341863;0,012249;-0,0184649;-0;0,467028;-0,0563863;3,82714;0;0;0;0;0;0;-0,000872665;-0,00942478;0;-0,17286;-0,172;-1080;1080;-600;1700;-10;10;-10;-0;0;-0;250;1,2;0,2;177;-1,2;-1;2555;0,07;2441;3466;8;56579;
21,0262;19,1815;-1,782;389;-49;2250;0;-0,19666;-0,0454215;0,102571;-0,0298053;-0,00896422;0,0165574;-0,122232;0,021342;-0,218;0,00711195;-0,015533;-0,121446;0;0;0;0;0;0;-0,122232;0,021342;-0,218;-0,02;0;-0,121;0,205665;-0,0810057;2,82845;-0,189548;-0,0609545;-0,0188748;-0,195795;0,0021387;0,0341863;0,012249;-0,0184649;-0;0,467072;-0,0563916;3,82658;0;0;0;0;0;0;-0,000872665;-0,00942478;0;-0,17286;-0,172;-1080;1080;-600;1700;-10;10;-10;-0;0;-0;250;1,2;0,2;177;-1,2;-1;2555;0,07;2441;3466;8;56579;
21,0362;19,1815;-1,782;397;-57;2300;0;-0,203785;-0,0532054;0,101951;-0,031835;-0,00949414;0,0175729;-0,122232;0,021342;-0,218;0,0145061;-0,00837105;-0,121493;0;0;0;0;0;0;-0,122232;0,021342;-0,218;-0,02;0;-0,121;0,205665;-0,0810057;2,82845;-0,189279;-0,0615765;-0,0195417;-0,195795;0,0021387;0,0341863;0,012249;-0,0184649;-0;0,446228;-0,0563892;3,82683;0;0;0;0;0;0;0,00261799;-0,00942478;0;-0,17286;-0,172;-1080;1080;-600;1700;-10;10;-10;-0;0;-0;250;1,2;0,2;177;-1,2;-1;2555;0,07;2441;3466;8;56579;
21,0461;19,1815;-1,782;400;-69;2350;0;-0,206457;-0,0640686;0,101097;-0,033888;-0,0101312;0,0185782;-0,122232;0,021342;-0,218;0,017524;0,00167355;-0,121372;0;0;0;0;0;0;-0,122232;0,021342;-0,218;-0,02;0;-0,121;0,205665;-0,0810057;2,82845;-0,188933;-0,0623951;-0,0202744;-0,195795;0,0021387;0,0341863;0,012249;-0,0184649;-0;0,423376;-0,0563974;3,82596;0;0;0;0;0;0;0,00645772;-0,00942478;0;-0,17286;-0,172;-1080;1080;-600;1700;-10;10;-10;-0;0;-0;250;1,2;0,2;177;-1,2;-1;2555;0,07;2441;3466;8;56579;
21,0562;19,1815;-1,782;397;-80;2400;0;-0,203728;-0,0741943;0,100899;-0,0359412;-0,010879;0,019595;-0,122232;0,021342;-0,218;0,0147951;0,0117993;-0,121173;0;0;0;0;0;0;-0,122232;0,021342;-0,218;-0,02;0;-0,121;0,205665;-0,0810057;2,82845;-0,188933;-0,0623951;-0,0202744;-0,195795;0,0021387;0,0341863;0,012249;-0,0184649;-0;0,423461;-0,0564087;3,82476;0;0;0;0;0;0;0,00645772;-0,00942478;0;-0,17286;-0,172;-1080;1080;-600;1700;-10;10;-10;-0;0;-0;250;1,2;0,2;177;-1,2;-1;2555;0,07;2441;3466;8;56579;
21,0661;19,1781;-1,754;390;-37;2450;0;-0,197228;-0,0349393;0,129512;-0,0379021;-0,0112263;0,0208827;-0,133344;0,0225605;-0,246;0,00897268;-0,0293435;-0,150195;0;0;0;0;0;0;-0,133344;0,0225605;-0,246;-0,01;-0,03;-0,15;-0,58228;-0,101289;0,268767;-0,188255;-0,0642828;-0,0206826;-0,195998;0,00207493;0,0331609;0,0122639;-0,0181805;-0;0,401594;-0,0553666;3,8245;0;0;0;0;0;0;0,0101229;-0,00925025;0;-0,167603;-0,166819;-1080;1080;-600;1700;-10;10;-10;-0;0;-0;250;1,2;0,2;177;-1,2;-1;2555;0,07;2442;3467;8;56579;
21,0767;19,1781;-1,754;407;-50;2477;0;-0,213292;-0,0467621;0,128469;-0,0401623;-0,0117219;0,022244;-0,133344;0,0225605;-0,246;0,0255314;-0,0186775;-0,149998;0;0;0;0;0;0;-0,133344;0,0225605;-0,246;-0,01;-0,03;-0,15;-0,58228;-0,101289;0,268767;-0,187761;-0,0654396;-0,0215286;-0,195998;0,00207493;0,0331609;0,0122639;-0,0181805;-0;0,370875;-0,0508355;3,86573;0;0;0;0;0;0;0,0148353;-0,00855211;0;-0,167603;-0,166819;-1080;1080;-600;1700;-10;10;-10;-0;0;-0;250;1,2;0,2;177;-1,2;-1;2555;0,07;2442;3467;8;56579;
21,086;19,1781;-1,754;416;-69;2477;0;-0,221548;-0,0646398;0,127997;-0,0422161;-0,0123211;0,0234306;-0,133344;0,0225605;-0,246;0,0337872;-0,000799783;-0,149525;0;0;0;0;0;0;-0,133344;0,0225605;-0,246;-0,01;-0,03;-0,15;-0,58228;-0,101289;0,268767;-0,187761;-0,0654396;-0,0215286;-0,195998;0,00207493;0,0331609;0,0122639;-0,0181805;-0;0,370967;-0,0508481;3,86426;0;0;0;0;0;0;0,0148353;-0,00855211;0;-0,167603;-0,166819;-1080;1080;-600;1700;-10;10;-10;-0;0;-0;250;1,2;0,2;177;-1,2;-1;2555;0,07;2442;3467;8;56579;
21,0962;19,1781;-1,754;414;-92;2478;0;-0,219104;-0,0852438;0,12636;-0,0444459;-0,0131886;0,0247165;-0,133344;0,0225605;-0,246;0,0318213;0,0187434;-0,148782;0;0;0;0;0;0;-0,133344;0,0225605;-0,246;-0,01;-0,03;-0,15;-0,58228;-0,101289;0,268767;-0,187283;-0,0665003;-0,0224222;-0,195998;0,00207493;0,0331609;0,0122639;-0,0181805;-0;0,340964;-0,0456646;3,8636;0;0;0;0;0;0;0,0198968;-0,00767945;0;-0,167603;-0,166819;-1080;1080;-600;1700;-10;10;-10;-0;0;-0;250;1,2;0,2;177;-1,2;-1;2555;0,07;2442;3467;8;56579;
21,1061;19,1781;-1,754;400;-108;2479;0;-0,206869;-0,100615;0,125742;-0,0465049;-0,01419;0,025968;-0,133344;0,0225605;-0,246;0,0195857;0,0341144;-0,148164;0;0;0;0;0;0;-0,133344;0,0225605;-0,246;-0,01;-0,03;-0,15;-0,58228;-0,101289;0,268767;-0,187283;-0,0665003;-0,0224222;-0,195998;0,00207493;0,0331609;0,0122639;-0,0181805;-0;0,341097;-0,0456824;3,86128;0;0;0;0;0;0;0,0198968;-0,00767945;0;-0,167603;-0,166819;-1080;1080;-600;1700;-10;10;-10;-0;0;-0;250;1,2;0,2;177;-1,2;-1;2555;0,07;2442;3467;8;56579;
21,1161;19,1781;-1,754;380;-116;2480;0;-0,188342;-0,10809;0,124312;-0,0483781;-0,0152651;0,0272045;-0,133344;0,0225605;-0,246;0,00166197;0,0403064;-0,147894;0;0;0;0;0;0;-0,133344;0,0225605;-0,246;-0,01;-0,03;-0,15;-0,58228;-0,101289;0,268767;-0,18668;-0,0677835;-0,0235815;-0,195998;0,00207493;0,0331609;0,0122639;-0,0181805;-0;0,302782;-0,0415356;3,86042;0;0;0;0;0;0;0,0263545;-0,00698132;0;-0,167603;-0,166819;-1080;1080;-600;1700;-10;10;-10;-0;0;-0;250;1,2;0,2;177;-1,2;-1;2555;0,07;2442;3467;8;56579;
21,1261;19,1781;-1,754;361;-113;2480;0;-0,169938;-0,104642;0,123597;-0,0500841;-0,0163156;0,0284453;-0,133344;0,0225605;-0,246;-0,0161591;0,0356379;-0,148219;0;0;0;0;0;0;-0,133344;0,0225605;-0,246;-0,01;-0,03;-0,15;-0,58228;-0,101289;0,268767;-0,186097;-0,0690039;-0,0246216;-0,195998;0,00207493;0,0331609;0,0122639;-0,0181805;-0;0,270722;-0,0446659;3,85839;0;0;0;0;0;0;0,031765;-0,00750492;0;-0,167603;-0,166819;-1080;1080;-600;1700;-10;10;-10;-0;0;-0;250;1,2;0,2;177;-1,2;-1;2555;0,07;2442;3467;8;56579;
21,1362;19,1781;-1,754;347;-98;2480;0;-0,157673;-0,0909164;0,124415;-0,0516744;-0,0172326;0,0297001;-0,133344;0,0225605;-0,246;-0,0284243;0,0219125;-0,149037;0;0;0;0;0;0;-0,133344;0,0225605;-0,246;-0,01;-0,03;-0,15;-0,58228;-0,101289;0,268767;-0,186097;-0,0690039;-0,0246216;-0,195998;0,00207493;0,0331609;0,0122639;-0,0181805;-0;0,270767;-0,0446734;3,85739;0;0;0;0;0;0;0,031765;-0,00750492;0;-0,167603;-0,166819;-1080;1080;-600;1700;-10;10;-10;-0;0;-0;250;1,2;0,2;177;-1,2;-1;2555;0,07;2442;3467;8;56579;
21,1461;19,1781;-1,754;345;-79;2479;0;-0,155139;-0,0738855;0,124654;-0,0532156;-0,0179666;0,0309384;-0,133344;0,0225605;-0,246;-0,0303554;0,00361267;-0,150218;0;0;0;0;0;0;-0,133344;0,0225605;-0,246;-0,01;-0,03;-0,15;-0,58228;-0,101289;0,268767;-0,185495;-0,0702729;-0,0255638;-0,195998;0,00207493;0,0331609;0,0122639;-0,0181805;-0;0,242693;-0,0508964;3,8586;0;0;0;0;0;0;0,0364774;-0,00855211;0;-0,167603;-0,166819;-1080;1080;-600;1700;-10;10;-10;-0;0;-0;250;1,2;0,2;177;-1,2;-1;2555;0,07;2442;3467;8;56579;
21,156;19,1781;-1,754;354;-63;2479;0;-0,163983;-0,0590059;0,124758;-0,0548367;-0,0185499;0,0321718;-0,133344;0,0225605;-0,246;-0,0208072;-0,012729;-0,151344;0;0;0;0;0;0;-0,133344;0,0225605;-0,246;-0,01;-0,03;-0,15;-0,58228;-0,101289;0,268767;-0,18479;-0,0717348;-0,0265862;-0,195998;0,00207493;0,0331609;0,0122639;-0,0181805;-0;0,211541;-0,0560863;3,85897;0;0;0;0;0;0;0,0417134;-0,00942478;0;-0,167603;-0,166819;-1080;1080;-600;1700;-10;10;-10;-0;0;-0;250;1,2;0,2;177;-1,2;-1;2555;0,07;2442;3467;8;56579;
21,166;19,1781;-1,754;373;-55;2479;0;-0,181121;-0,0509118;0,125246;-0,0566532;-0,0190605;0,0334279;-0,133344;0,0225605;-0,246;-0,00366863;-0,020823;-0,151832;0;0;0;0;0;0;-0,133344;0,0225605;-0,246;-0,01;-0,03;-0,15;-0,58228;-0,101289;0,268767;-0,18479;-0,0717348;-0,0265862;-0,195998;0,00207493;0,0331609;0,0122639;-0,0181805;-0;0,211535;-0,0560846;3,85915;0;0;0;0;0;0;0,0417134;-0,00942478;0;-0,167603;-0,166819;-1080;1080;-600;1700;-10;10;-10;-0;0;-0;250;1,2;0,2;177;-1,2;-1;2555;0,07;2442;3467;8;56579;
21,1761;19,1781;-1,754;393;-60;2480;0;-0,200032;-0,0555279;0,123903;-0,0586611;-0,0196179;0,0346716;-0,133344;0,0225605;-0,246;0,0159414;-0,0176309;-0,151443;0;0;0;0;0;0;-0,133344;0,0225605;-0,246;-0,01;-0,03;-0,15;-0,58228;-0,101289;0,268767;-0,184091;-0,0731588;-0,0275399;-0,195998;0,00207493;0,0331609;0,0122639;-0,0181805;-0;0,182447;-0,0612699;3,85988;0;0;0;0;0;0;0,0466003;-0,0102974;0;-0,167603;-0,166819;-1080;1080;-600;1700;-10;10;-10;-0;0;-0;250;1,2;0,2;177;-1,2;-1;2555;0,07;2442;3467;8;56579;
21,1861;19,1781;-1,754;408;-77;2481;0;-0,214231;-0,0716674;0,121436;-0,0608032;-0,0203345;0,0358858;-0,133344;0,0225605;-0,246;0,0310222;-0,00325516;-0,15009;0;0;0;0;0;0;-0,133344;0,0225605;-0,246;-0,01;-0,03;-0,15;-0,58228;-0,101289;0,268767;-0,183209;-0,0749225;-0,028654;-0,195998;0,00207493;0,0331609;0,0122639;-0,0181805;-0;0,151353;-0,0747933;3,85798;0;0;0;0;0;0;0,0518363;-0,0125664;0;-0,167603;-0,166819;-1080;1080;-600;1700;-10;10;-10;-0;0;-0;250;1,2;0,2;177;-1,2;-1;2555;0,07;2442;3467;8;56579;
21,1961;19,1781;-1,754;413;-99;2482;0;-0,218125;-0,0920996;0,119622;-0,0629857;-0,021256;0,0370828;-0,133344;0,0225605;-0,246;0,0349155;0,017177;-0,148276;0;0;0;0;0;0;-0,133344;0,0225605;-0,246;-0,01;-0,03;-0,15;-0,58228;-0,101289;0,268767;-0,183209;-0,0749225;-0,028654;-0,195998;0,00207493;0,0331609;0,0122639;-0,0181805;-0;0,151442;-0,0748376;3,85446;0;0;0;0;0;0;0,0518363;-0,0125664;0;-0,167603;-0,166819;-1080;1080;-600;1700;-10;10;-10;-0;0;-0;250;1,2;0,2;177;-1,2;-1;2555;0,07;2442;3467;8;56579;
21,2061;19,1781;-1,754;403;-122;2484;0;-0,208773;-0,113004;0,117191;-0,0650776;-0,0223883;0,038257;-0,133344;0,0225605;-0,246;0,0262918;0,0365846;-0,146527;0;0;0;0;0;0;-0,133344;0,0225605;-0,246;-0,01;-0,03;-0,15;-0,58228;-0,101289;0,268767;-0,182481;-0,0764192;-0,0293366;-0,195998;0,00207493;0,0331609;0,0122639;-0,0181805;-0;0,134874;-0,0894271;3,85187;0;0;0;0;0;0;0,0546288;-0,0150098;0;-0,167603;-0,166819;-1080;1080;-600;1700;-10;10;-10;-0;0;-0;250;1,2;0,2;177;-1,2;-1;2555;0,07;2442;3467;8;56579;
21,216;19,181;-1,724;453;-172;2434;0;-0,299949;-0,162284;0,47613;-0,0680456;-0,0239941;0,0429683;-0,122232;0,0292804;-0,276;0,113425;0,0964745;-0,505763;0;0;0;0;0;0;-0,0454158;0,0420831;-0,604389;0,163885;0,00271513;0,0905308;-0,748843;-0,467362;0,309722;-0,186523;-0,0658099;-0,029633;-0,193342;0,00289752;0,0463145;0,0120958;-0,0178693;-0;0,12351;-0,106125;3,8484;0;0;0;0;0;0;0,0565487;-0,0178024;0;-0,235117;-0,232957;-1080;1080;-600;1700;-10;10;-10;-0;0;-0;250;1,2;0,2;177;-1,2;-1;2555;0,07;2444;3468;8;56579;
21,226;19,181;-1,724;446;-222;2384;0;-0,248847;-0,219761;0,470751;-0,0705441;-0,0262005;0,0476947;-0,122232;0,0292804;-0,276;0,0623234;0,153951;-0,500384;0;0;0;0;0;0;-0,0454158;0,0420831;-0,604389;0,163885;0,00271513;0,0905308;-0,748843;-0,467362;0,309722;-0,186523;-0,0658099;-0,029633;-0,193342;0,00289752;0,0463145;0,0120958;-0,0178693;-0;0,112801;-0,0969229;4,36532;0;0;0;0;0;0;0,0565487;-0,0178024;0;-0,235117;-0,232957;-1080;1080;-600;1700;-10;10;-10;-0;0;-0;250;1,2;0,2;177;-1,2;-1;2555;0,07;2444;3468;8;56579;
21,2361;19,181;-1,724;396;-257;2334;0;-0,171552;-0,237744;0,468921;-0,0722778;-0,0286032;0,0524336;-0,122232;0,0292804;-0,276;-0,0142213;0,169984;-0,498871;0;0;0;0;0;0;-0,0454158;0,0420831;-0,604389;0,163885;0,00271513;0,0905308;-0,748843;-0,467362;0,309722;-0,185773;-0,0677605;-0,0299496;-0,193342;0,00289752;0,0463145;0,0120958;-0,0178693;-0;0,106299;-0,10467;4,35769;0;0;0;0;0;0;0,0577704;-0,0191986;0;-0,235117;-0,232957;-1080;1080;-600;1700;-10;10;-10;-0;0;-0;250;1,2;0,2;177;-1,2;-1;2555;0,07;2444;3468;8;56579;
21,2461;19,181;-1,724;346;-221;2284;0;-0,100866;-0,204403;0,472135;-0,0732853;-0,030645;0,0571498;-0,122232;0,0292804;-0,276;-0,0849066;0,136642;-0,502084;0;0;0;0;0;0;-0,0454158;0,0420831;-0,604389;0,163885;0,00271513;0,0905308;-0,748843;-0,467362;0,309722;-0,185773;-0,0677605;-0,0299496;-0,193342;0,00289752;0,0463145;0,0120958;-0,0178693;-0;0,106348;-0,104719;4,35517;0;0;0;0;0;0;0,0577704;-0,0191986;0;-0,235117;-0,232957;-1080;1080;-600;1700;-10;10;-10;-0;0;-0;250;1,2;0,2;177;-1,2;-1;2555;0,07;2444;3468;8;56579;
21,2561;19,181;-1,724;296;-171;2267;0;-0,064233;-0,135737;0,478719;-0,0739265;-0,032;0,0619288;-0,122232;0,0292804;-0,276;-0,120787;0,0660633;-0,508935;0;0;0;0;0;0;-0,0454158;0,0420831;-0,604389;0,163885;0,00271513;0,0905308;-0,748843;-0,467362;0,309722;-0,18502;-0,0696738;-0,0302158;-0,193342;0,00289752;0,0463145;0,0120958;-0,0178693;-0;0,0986474;-0,105579;4,35991;0;0;0;0;0;0;0,0591667;-0,0193732;0;-0,235117;-0,232957;-1080;1080;-600;1700;-10;10;-10;-0;0;-0;250;1,2;0,2;177;-1,2;-1;2555;0,07;2444;3468;8;56579;
21,2661;19,181;-1,724;264;-121;2262;0;-0,0799689;-0,0588672;0,486;-0,0747242;-0,0325872;0,0667767;-0,122232;0,0292804;-0,276;-0,104229;-0,0127635;-0,516665;0;0;0;0;0;0;-0,0454158;0,0420831;-0,604389;0,163885;0,00271513;0,0905308;-0,748843;-0,467362;0,309722;-0,184197;-0,0716307;-0,0306648;-0,193342;0,00289752;0,0463145;0,0120958;-0,0178693;-0;0,0861315;-0,108241;4,36951;0;0;0;0;0;0;0,0614356;-0,0198968;0;-0,235117;-0,232957;-1080;1080;-600;1700;-10;10;-10;-0;0;-0;250;1,2;0,2;177;-1,2;-1;2555;0,07;2444;3468;8;56579;
21,2761;19,181;-1,724;314;-71;2259;0;-0,142186;-0,00736749;0,490943;-0,0761462;-0,0326609;0,0716866;-0,122232;0,0292804;-0,276;-0,0420115;-0,0642632;-0,521607;0;0;0;0;0;0;-0,0454158;0,0420831;-0,604389;0,163885;0,00271513;0,0905308;-0,748843;-0,467362;0,309722;-0,184197;-0,0716307;-0,0306648;-0,193342;0,00289752;0,0463145;0,0120958;-0,0178693;-0;0,0859637;-0,10803;4,38011;0;0;0;0;0;0;0,0614356;-0,0198968;0;-0,235117;-0,232957;-1080;1080;-600;1700;-10;10;-10;-0;0;-0;250;1,2;0,2;177;-1,2;-1;2555;0,07;2444;3468;8;56579;
21,2862;19,181;-1,724;364;-21;2260;0;-0,22466;-0,00815775;0,490199;-0,0784164;-0,0327433;0,07664;-0,122232;0,0292804;-0,276;0,0413974;-0,0655685;-0,521494;0;0;0;0;0;0;-0,0454158;0,0420831;-0,604389;0,163885;0,00271513;0,0905308;-0,748843;-0,467362;0,309722;-0,183262;-0,0737262;-0,0312955;-0,193342;0,00289752;0,0463145;0,0120958;-0,0178693;-0;0,0688151;-0,112617;4,38734;0;0;0;0;0;0;0,0645772;-0,0207694;0;-0,235117;-0,232957;-1080;1080;-600;1700;-10;10;-10;-0;0;-0;250;1,2;0,2;177;-1,2;-1;2555;0,07;2444;3468;8;56579;
21,2962;19,181;-1,724;414;-68;2263;0;-0,290992;-0,0629488;0,48386;-0,0813179;-0,033371;0,0814646;-0,122232;0,0292804;-0,276;0,108627;-0,0127184;-0,515759;0;0;0;0;0;0;-0,0454158;0,0420831;-0,604389;0,163885;0,00271513;0,0905308;-0,748843;-0,467362;0,309722;-0,182365;-0,0756672;-0,0318993;-0,193342;0,00289752;0,0463145;0,0120958;-0,0178693;-0;0,0536826;-0,120208;4,38639;0;0;0;0;0;0;0,0673697;-0,0221657;0;-0,235117;-0,232957;-1080;1080;-600;1700;-10;10;-10;-0;0;-0;250;1,2;0,2;177;-1,2;-1;2555;0,07;2444;3468;8;56579;
21,3061;19,181;-1,724;464;-118;2269;0;-0,308693;-0,146347;0,475067;-0,0843863;-0,0348257;0,0861868;-0,122232;0,0292804;-0,276;0,126328;0,0706795;-0,506966;0;0;0;0;0;0;-0,0454158;0,0420831;-0,604389;0,163885;0,00271513;0,0905308;-0,748843;-0,467362;0,309722;-0,182365;-0,0756672;-0,0318993;-0,193342;0,00289752;0,0463145;0,0120958;-0,0178693;-0;0,0537717;-0,120408;4,37738;0;0;0;0;0;0;0,0673697;-0,0221657;0;-0,235117;-0,232957;-1080;1080;-600;1700;-10;10;-10;-0;0;-0;250;1,2;0,2;177;-1,2;-1;2555;0,07;2444;3468;8;56579;
21,3161;19,181;-1,724;466;-168;2274;0;-0,267354;-0,226107;0,465949;-0,0870441;-0,0370734;0,0908188;-0,122232;0,0292804;-0,276;0,0859669;0,148416;-0,498549;0;0;0;0;0;0;-0,0454158;0,0420831;-0,604389;0,163885;0,00271513;0,0905308;-0,748843;-0,467362;0,309722;-0,181387;-0,077691;-0,0326005;-0,193342;0,00289752;0,0463145;0,0120958;-0,0178693;-0;0,0405914;-0,139688;4,36483;0;0;0;0;0;0;0,0698132;-0,0256563;0;-0,235117;-0,232957;-1080;1080;-600;1700;-10;10;-10;-0;0;-0;250;1,2;0,2;177;-1,2;-1;2555;0,07;2444;3468;8;56579;
21,326;19,181;-1,724;416;-218;2277;0;-0,183902;-0,262593;0,461283;-0,0888691;-0,0396794;0,0953965;-0,122232;0,0292804;-0,276;0,00341621;0,183051;-0,494418;0;0;0;0;0;0;-0,0454158;0,0420831;-0,604389;0,163885;0,00271513;0,0905308;-0,748843;-0,467362;0,309722;-0,180486;-0,079541;-0,0331349;-0,193342;0,00289752;0,0463145;0,0120958;-0,0178693;-0;0,0330675;-0,160019;4,35181;0;0;0;0;0;0;0,0712094;-0,0293215;0;-0,235117;-0,232957;-1080;1080;-600;1700;-10;10;-10;-0;0;-0;250;1,2;0,2;177;-1,2;-1;2555;0,07;2444;3468;8;56579;
21,3367;19,181;-1,724;366;-254;2275;0;-0,0987408;-0,234821;0,464032;-0,0899326;-0,0422084;0,100394;-0,122232;0,0292804;-0,276;-0,0817455;0,15528;-0,497167;0;0;0;0;0;0;-0,0454158;0,0420831;-0,604389;0,163885;0,00271513;0,0905308;-0,748843;-0,467362;0,309722;-0,180486;-0,079541;-0,0331349;-0,193342;0,00289752;0,0463145;0,0120958;-0,0178693;-0;0,0331076;-0,160213;4,34521;0;0;0;0;0;0;0,0712094;-0,0293215;0;-0,235117;-0,232957;-1080;1080;-600;1700;-10;10;-10;-0;0;-0;250;1,2;0,2;177;-1,2;-1;2555;0,07;2444;3468;8;56579;
21,3462;19,181;-1,724;316;-204;2270;0;-0,0507385;-0,15983;0,472022;-0,0904109;-0,0437151;0,104844;-0,122232;0,0292804;-0,276;-0,128823;0,0782508;-0,505223;0;0;0;0;0;0;-0,0454158;0,0420831;-0,604389;0,163885;0,00271513;0,0905308;-0,748843;-0,467362;0,309722;-0,179562;-0,0815796;-0,0332007;-0,193342;0,00289752;0,0463145;0,0120958;-0,0178693;-0;0,0378481;-0,175336;4,34928;0;0;0;0;0;0;0,0703368;-0,0321141;0;-0,235117;-0,232957;-1080;1080;-600;1700;-10;10;-10;-0;0;-0;250;1,2;0,2;177;-1,2;-1;2555;0,07;2444;3468;8;56579;
21,3561;19,181;-1,724;266;-154;2264;0;-0,0656867;-0,0716626;0,481928;-0,0910649;-0,0444287;0,109642;-0,122232;0,0292804;-0,276;-0,113041;-0,0118473;-0,51483;0;0;0;0;0;0;-0,0454158;0,0420831;-0,604389;0,163885;0,00271513;0,0905308;-0,748843;-0,467362;0,309722;-0,178727;-0,08351;-0,0329029;-0,193342;0,00289752;0,0463145;0,0120958;-0,0178693;-0;0,0472778;-0,175913;4,36089;0;0;0;0;0;0;0,0685914;-0,0322886;0;-0,235117;-0,232957;-1080;1080;-600;1700;-10;10;-10;-0;0;-0;250;1,2;0,2;177;-1,2;-1;2555;0,07;2444;3468;8;56579;
21,3661;19,181;-1,724;316;-104;2260;0;-0,138349;-0,0156477;0,488378;-0,0924502;-0,0445853;0,114533;-0,122232;0,0292804;-0,276;-0,0403785;-0,0678623;-0,52128;0;0;0;0;0;0;-0,0454158;0,0420831;-0,604389;0,163885;0,00271513;0,0905308;-0,748843;-0,467362;0,309722;-0,178727;-0,08351;-0,0329029;-0,193342;0,00289752;0,0463145;0,0120958;-0,0178693;-0;0,0471531;-0,175449;4,37527;0;0;0;0;0;0;0,0685914;-0,0322886;0;-0,235117;-0,232957;-1080;1080;-600;1700;-10;10;-10;-0;0;-0;250;1,2;0,2;177;-1,2;-1;2555;0,07;2444;3468;8;56579;
21,3761;19,181;-1,724;366;-54;2260;0;-0,229856;-0,0243033;0,488327;-0,0947414;-0,0448276;0,1194;-0,122232;0,0292804;-0,276;0,0521065;-0,0613382;-0,521049;0;0;0;0;0;0;-0,0454158;0,0420831;-0,604389;0,163885;0,00271513;0,0905308;-0,748843;-0,467362;0,309722;-0,177749;-0,0856415;-0,0327219;-0,193342;0,00289752;0,0463145;0,0120958;-0,0178693;-0;0,0480184;-0,165681;4,38468;0;0;0;0;0;0;0,0684169;-0,0305433;0;-0,235117;-0,232957;-1080;1080;-600;1700;-10;10;-10;-0;0;-0;250;1,2;0,2;177;-1,2;-1;2555;0,07;2444;3468;8;56579;
21,386;19,181;-1,724;416;-101;2265;0;-0,293275;-0,0938457;0,481189;-0,0976536;-0,0457595;0,124178;-0,122232;0,0292804;-0,276;0,116519;0,00626338;-0,514153;0;0;0;0;0;0;-0,0454158;0,0420831;-0,604389;0,163885;0,00271513;0,0905308;-0,748843;-0,467362;0,309722;-0,176756;-0,0875823;-0,0329642;-0,193342;0,00289752;0,0463145;0,0120958;-0,0178693;-0;0,0366557;-0,158108;4,38472;0;0;0;0;0;0;0,0705113;-0,029147;0;-0,235117;-0,232957;-1080;1080;-600;1700;-10;10;-10;-0;0;-0;250;1,2;0,2;177;-1,2;-1;2555;0,07;2444;3468;8;56579;
21,3962;19,181;-1,724;466;-151;2270;0;-0,293092;-0,18698;0,47157;-0,100636;-0,0476622;0,128977;-0,122232;0,0292804;-0,276;0,116336;0,0993975;-0,504535;0;0;0;0;0;0;-0,0454158;0,0420831;-0,604389;0,163885;0,00271513;0,0905308;-0,748843;-0,467362;0,309722;-0,176756;-0,0875823;-0,0329642;-0,193342;0,00289752;0,0463145;0,0120958;-0,0178693;-0;0,0367243;-0,158404;4,37456;0;0;0;0;0;0;0,0705113;-0,029147;0;-0,235117;-0,232957;-1080;1080;-600;1700;-10;10;-10;-0;0;-0;250;1,2;0,2;177;-1,2;-1;2555;0,07;2444;3468;8;56579;
21,4061;19,181;-1,724;423;-201;2275;0;-0,227324;-0,256891;0,463646;-0,102885;-0,0502039;0,133564;-0,122232;0,0292804;-0,276;0,0516881;0,167336;-0,497289;0;0;0;0;0;0;-0,0454158;0,0420831;-0,604389;0,163885;0,00271513;0,0905308;-0,748843;-0,467362;0,309722;-0,175636;-0,0895551;-0,0336427;-0,193342;0,00289752;0,0463145;0,0120958;-0,0178693;-0;0,0177961;-0,163558;4,36082;0;0;0;0;0;0;0,074002;-0,0300197;0;-0,235117;-0,232957;-1080;1080;-600;1700;-10;10;-10;-0;0;-0;250;1,2;0,2;177;-1,2;-1;2555;0,07;2444;3468;8;56579;
21,4161;19,181;-1,724;373;-251;2275;0;-0,133342;-0,260713;0,463233;-0,104217;-0,0528074;0,13819;-0,122232;0,0292804;-0,276;-0,0422946;0,171158;-0,496875;0;0;0;0;0;0;-0,0454158;0,0420831;-0,604389;0,163885;0,00271513;0,0905308;-0,748843;-0,467362;0,309722;-0,175636;-0,0895551;-0,0336427;-0,193342;0,00289752;0,0463145;0,0120958;-0,0178693;-0;0,017833;-0,163897;4,34952;0;0;0;0;0;0;0,074002;-0,0300197;0;-0,235117;-0,232957;-1080;1080;-600;1700;-10;10;-10;-0;0;-0;250;1,2;0,2;177;-1,2;-1;2555;0,07;2444;3468;8;56579;
21,4261;19,181;-1,724;323;-216;2272;0;-0,062288;-0,200095;0,469244;-0,10484;-0,0548079;0,142882;-0,122232;0,0292804;-0,276;-0,112317;0,108777;-0,503509;0;0;0;0;0;0;-0,0454158;0,0420831;-0,604389;0,163885;0,00271513;0,0905308;-0,748843;-0,467362;0,309722;-0,174605;-0,0913172;-0,0342654;-0,193342;0,00289752;0,0463145;0,0120958;-0,0178693;-0;0,00735036;-0,182012;4,34904;0;0;0;0;0;0;0,0759218;-0,0333358;0;-0,235117;-0,232957;-1080;1080;-600;1700;-10;10;-10;-0;0;-0;250;1,2;0,2;177;-1,2;-1;2555;0,07;2444;3468;8;56579;
21,4361;19,181;-1,724;273;-166;2266;0;-0,0556327;-0,108769;0,479125;-0,105397;-0,0558978;0,147683;-0,122232;0,0292804;-0,276;-0,117949;0,0156075;-0,513628;0;0;0;0;0;0;-0,0454158;0,0420831;-0,604389;0,163885;0,00271513;0,0905308;-0,748843;-0,467362;0,309722;-0,173581;-0,0931613;-0,0345026;-0,193342;0,00289752;0,0463145;0,0120958;-0,0178693;-0;0,0101933;-0,20169;4,35781;0;0;0;0;0;0;0,0753982;-0,037001;0;-0,235117;-0,232957;-1080;1080;-600;1700;-10;10;-10;-0;0;-0;250;1,2;0,2;177;-1,2;-1;2555;0,07;2444;3468;8;56579;
21,4461;19,181;-1,724;306;-116;2261;0;-0,118518;-0,0395107;0,48709;-0,106584;-0,0562934;0,15256;-0,122232;0,0292804;-0,276;-0,0550631;-0,0536506;-0,521592;0;0;0;0;0;0;-0,0454158;0,0420831;-0,604389;0,163885;0,00271513;0,0905308;-0,748843;-0,467362;0,309722;-0,173581;-0,0931613;-0,0345026;-0,193342;0,00289752;0,0463145;0,0120958;-0,0178693;-0;0,0101665;-0,20116;4,37215;0;0;0;0;0;0;0,0753982;-0,037001;0;-0,235117;-0,232957;-1080;1080;-600;1700;-10;10;-10;-0;0;-0;250;1,2;0,2;177;-1,2;-1;2555;0,07;2444;3468;8;56579;
21,4561;19,181;-1,724;356;-66;2260;0;-0,21111;-0,0381861;0,488464;-0,108692;-0,0566747;0,157438;-0,122232;0,0292804;-0,276;0,0384087;-0,0566709;-0,522764;0;0;0;0;0;0;-0,0454158;0,0420831;-0,604389;0,163885;0,00271513;0,0905308;-0,748843;-0,467362;0,309722;-0,172701;-0,0948569;-0,0342999;-0,193342;0,00289752;0,0463145;0,0120958;-0,0178693;-0;0,0215095;-0,210195;4,38373;0;0;0;0;0;0;0,0733038;-0,0387463;0;-0,235117;-0,232957;-1080;1080;-600;1700;-10;10;-10;-0;0;-0;250;1,2;0,2;177;-1,2;-1;2555;0,07;2444;3468;8;56579;
21,4661;19,1775;-1,629;406;-116;2210;0;-0,284424;-0,190835;0,673534;-0,111545;-0,0585892;0,164195;-0,133344;0,0304989;-0,371;0,113593;0,0922412;-0,706643;0;0;0;0;0;0;-0,0194474;0,0146899;-0,364643;0,0476137;-0,0685507;0,829635;-0,564568;-0,286337;0,883092;-0,170831;-0,0985937;-0,0331088;-0,193889;0,00277493;0,044347;0,0121323;-0,0168949;-0;0,0262347;-0,20633;4,38583;0;0,00209059;-0,032919;0,0263352;0,00790057;-0,149057;0,0724312;-0,0380482;0;-0,224856;-0,222966;-1080;1080;-600;1700;-10;10;-10;-0;0;-0;250;1,2;0,2;177;-1,2;-1;2555;0,07;2446;3471;8;56579;
21,4761;19,1775;-1,629;429;-166;2160;0;-0,233197;-0,271161;0,664807;-0,113868;-0,0612897;0,170815;-0,133344;0,0304989;-0,371;0,0623664;0,172567;-0,697916;0;0;0;0;0;0;-0,0194474;0,0146899;-0,364643;0,0476137;-0,0685507;0,829635;-0,564568;-0,286337;0,883092;-0,170831;-0,0985937;-0,0331088;-0,193889;0,00277493;0,044347;0,0121323;-0,0168949;-0;0,0249451;-0,196188;4,65246;0;0,00209059;-0,032919;0,0263352;0,00790057;-0,149057;0,0724312;-0,0380482;0;-0,224856;-0,222966;-1080;1080;-600;1700;-10;10;-10;-0;0;-0;250;1,2;0,2;177;-1,2;-1;2555;0,07;2446;3471;8;56579;
21,4863;19,1775;-1,629;379;-216;2155;0;-0,137877;-0,289828;0,6622;-0,115275;-0,0642482;0,177575;-0,133344;0,0304989;-0,371;-0,0319213;0,189551;-0,695563;0;0;0;0;0;0;-0,0194474;0,0146899;-0,364643;0,0476137;-0,0685507;0,829635;-0,564568;-0,286337;0,883092;-0,169798;-0,100277;-0,0333628;-0,193889;0,00277493;0,044347;0,0121323;-0,0168949;-0;0,0159819;-0,194856;4,64005;0;0,00209059;-0,032919;0,0263352;0,00790057;-0,149057;0,0741765;-0,0376991;0;-0,224856;-0,222966;-1080;1080;-600;1700;-10;10;-10;-0;0;-0;250;1,2;0,2;177;-1,2;-1;2555;0,07;2446;3471;8;56579;
21,4961;19,1775;-1,629;329;-252;2152;0;-0,0607365;-0,233441;0,667426;-0,115871;-0,0665406;0,184129;-0,133344;0,0304989;-0,371;-0,107979;0,131517;-0,701284;0;0;0;0;0;0;-0,0194474;0,0146899;-0,364643;0,0476137;-0,0685507;0,829635;-0,564568;-0,286337;0,883092;-0,168716;-0,101924;-0,0338587;-0,193889;0,00277493;0,044347;0,0121323;-0,0168949;-0;0,00425464;-0,201308;4,63646;0;0,00209059;-0,032919;0,0263352;0,00790057;-0,149057;0,0764454;-0,0389208;0;-0,224856;-0,222966;-1080;1080;-600;1700;-10;10;-10;-0;0;-0;250;1,2;0,2;177;-1,2;-1;2555;0,07;2446;3471;8;56579;
21,5062;19,1775;-1,629;279;-202;2146;0;-0,0528339;-0,138456;0,677473;-0,116401;-0,0679293;0,190924;-0,133344;0,0304989;-0,371;-0,115882;0,0365316;-0,711332;0;0;0;0;0;0;-0,0194474;0,0146899;-0,364643;0,0476137;-0,0685507;0,829635;-0,564568;-0,286337;0,883092;-0,168716;-0,101924;-0,0338587;-0,193889;0,00277493;0,044347;0,0121323;-0,0168949;-0;0,00424832;-0,201009;4,64414;0;0,00209059;-0,032919;0,0263352;0,00790057;-0,149057;0,0764454;-0,0389208;0;-0,224856;-0,222966;-1080;1080;-600;1700;-10;10;-10;-0;0;-0;250;1,2;0,2;177;-1,2;-1;2555;0,07;2446;3471;8;56579;
21,516;19,1775;-1,629;305;-152;2141;0;-0,118017;-0,0710017;0,685077;-0,117561;-0,068627;0,197656;-0,133344;0,0304989;-0,371;-0,0497711;-0,0323592;-0,719188;0;0;0;0;0;0;-0,0194474;0,0146899;-0,364643;0,0476137;-0,0685507;0,829635;-0,564568;-0,286337;0,883092;-0,167788;-0,103361;-0,0341109;-0,193889;0,00277493;0,044347;0,0121323;-0,0168949;-0;0,00333723;-0,212118;4,65877;0;0,00209059;-0,032919;0,0263352;0,00790057;-0,149057;0,07662;-0,0411898;0;-0,224856;-0,222966;-1080;1080;-600;1700;-10;10;-10;-0;0;-0;250;1,2;0,2;177;-1,2;-1;2555;0,07;2446;3471;8;56579;
21,526;19,1775;-1,629;355;-102;2141;0;-0,212098;-0,0765116;0,685745;-0,119695;-0,0693968;0,204555;-0,133344;0,0304989;-0,371;0,0453043;-0,0285155;-0,719646;0;0;0;0;0;0;-0,0194474;0,0146899;-0,364643;0,0476137;-0,0685507;0,829635;-0,564568;-0,286337;0,883092;-0,166793;-0,105027;-0,0339007;-0,193889;0,00277493;0,044347;0,0121323;-0,0168949;-0;0,0123012;-0,216142;4,66988;0;0,00209059;-0,032919;0,0263352;0,00790057;-0,149057;0,0748746;-0,0420624;0;-0,224856;-0,222966;-1080;1080;-600;1700;-10;10;-10;-0;0;-0;250;1,2;0,2;177;-1,2;-1;2555;0,07;2446;3471;8;56579;
21,5361;19,1775;-1,629;405;-152;2145;0;-0,271801;-0,150262;0,678618;-0,122436;-0,070912;0,211398;-0,133344;0,0304989;-0,371;0,105007;0,0452346;-0,712519;0;0;0;0;0;0;-0,0194474;0,0146899;-0,364643;0,0476137;-0,0685507;0,829635;-0,564568;-0,286337;0,883092;-0,166793;-0,105027;-0,0339007;-0,193889;0,00277493;0,044347;0,0121323;-0,0168949;-0;0,0122985;-0,216095;4,67101;0;0,00209059;-0,032919;0,0263352;0,00790057;-0,149057;0,0748746;-0,0420624;0;-0,224856;-0,222966;-1080;1080;-600;1700;-10;10;-10;-0;0;-0;250;1,2;0,2;177;-1,2;-1;2555;0,07;2446;3471;8;56579;
21,5462;19,1775;-1,629;451;-202;2151;0;-0,252569;-0,244773;0,66933;-0,124977;-0,0733749;0,218133;-0,133344;0,0304989;-0,371;0,0866721;0,138246;-0,702945;0;0;0;0;0;0;-0,0194474;0,0146899;-0,364643;0,0476137;-0,0685507;0,829635;-0,564568;-0,286337;0,883092;-0,165897;-0,106527;-0,0336157;-0,193889;0,00277493;0,044347;0,0121323;-0,0168949;-0;0,0186135;-0,212928;4,66091;0;0,00209059;-0,032919;0,0263352;0,00790057;-0,149057;0,0736529;-0,0413643;0;-0,224856;-0,222966;-1080;1080;-600;1700;-10;10;-10;-0;0;-0;250;1,2;0,2;177;-1,2;-1;2555;0,07;2446;3471;8;56579;
21,5562;19,1775;-1,629;401;-252;2154;0;-0,169682;-0,291456;0,663911;-0,126668;-0,0762793;0,224749;-0,133344;0,0304989;-0,371;0,00378479;0,184929;-0,697526;0;0;0;0;0;0;-0,0194474;0,0146899;-0,364643;0,0476137;-0,0685507;0,829635;-0,564568;-0,286337;0,883092;-0,165897;-0,106527;-0,0336157;-0,193889;0,00277493;0,044347;0,0121323;-0,0168949;-0;0,0186612;-0,213474;4,6477;0;0,00209059;-0,032919;0,0263352;0,00790057;-0,149057;0,0736529;-0,0413643;0;-0,224856;-0,222966;-1080;1080;-600;1700;-10;10;-10;-0;0;-0;250;1,2;0,2;177;-1,2;-1;2555;0,07;2446;3471;8;56579;
21,566;19,1775;-1,629;351;-280;2152;0;-0,0779418;-0,258947;0,666795;-0,127435;-0,0788276;0,231311;-0,133344;0,0304989;-0,371;-0,0869727;0,150872;-0,700307;0;0;0;0;0;0;-0,0194474;0,0146899;-0,364643;0,0476137;-0,0685507;0,829635;-0,564568;-0,286337;0,883092;-0,164914;-0,108075;-0,0335116;-0,193889;0,00277493;0,044347;0,0121323;-0,0168949;-0;0,0186888;-0,209282;4,64006;0;0,00209059;-0,032919;0,0263352;0,00790057;-0,149057;0,0736529;-0,0404916;0;-0,224856;-0,222966;-1080;1080;-600;1700;-10;10;-10;-0;0;-0;250;1,2;0,2;177;-1,2;-1;2555;0,07;2446;3471;8;56579;
21,5761;19,1775;-1,629;301;-230;2147;0;-0,0445415;-0,167923;0,67574;-0,127886;-0,0805275;0,238151;-0,133344;0,0304989;-0,371;-0,119468;0,0584849;-0,709269;0;0;0;0;0;0;-0,0194474;0,0146899;-0,364643;0,0476137;-0,0685507;0,829635;-0,564568;-0,286337;0,883092;-0,164009;-0,109438;-0,033529;-0,193889;0,00277493;0,044347;0,0121323;-0,0168949;-0;0,0177717;-0,209108;4,64437;0;0,00209059;-0,032919;0,0263352;0,00790057;-0,149057;0,0738274;-0,0404916;0;-0,224856;-0,222966;-1080;1080;-600;1700;-10;10;-10;-0;0;-0;250;1,2;0,2;177;-1,2;-1;2555;0,07;2446;3471;8;56579;
21,5861;19,1775;-1,629;281;-180;2141;0;-0,09526;-0,0841092;0,684376;-0,12884;-0,0813702;0,245009;-0,133344;0,0304989;-0,371;-0,0687493;-0,0253291;-0,717905;0;0;0;0;0;0;-0,0194474;0,0146899;-0,364643;0,0476137;-0,0685507;0,829635;-0,564568;-0,286337;0,883092;-0,164009;-0,109438;-0,033529;-0,193889;0,00277493;0,044347;0,0121323;-0,0168949;-0;0,0177268;-0,20858;4,65741;0;0,00209059;-0,032919;0,0263352;0,00790057;-0,149057;0,0738274;-0,0404916;0;-0,224856;-0,222966;-1080;1080;-600;1700;-10;10;-10;-0;0;-0;250;1,2;0,2;177;-1,2;-1;2555;0,07;2446;3471;8;56579;
21,5962;19,1775;-1,629;331;-130;2140;0;-0,19166;-0,0715391;0,686462;-0,130773;-0,0820914;0,251929;-0,133344;0,0304989;-0,371;0,0285613;-0,039249;-0,72;0;0;0;0;0;0;-0,0194474;0,0146899;-0,364643;0,0476137;-0,0685507;0,829635;-0,564568;-0,286337;0,883092;-0,163099;-0,110788;-0,0335379;-0,193889;0,00277493;0,044347;0,0121323;-0,0168949;-0;0,0212718;-0,214344;4,67001;0;0,00209059;-0,032919;0,0263352;0,00790057;-0,149057;0,0731293;-0,0417134;0;-0,224856;-0,222966;-1080;1080;-600;1700;-10;10;-10;-0;0;-0;250;1,2;0,2;177;-1,2;-1;2555;0,07;2446;3471;8;56579;
21,606;19,1775;-1,629;381;-151;2144;0;-0,262735;-0,139784;0,680595;-0,133338;-0,0834564;0,258575;-0,133344;0,0304989;-0,371;0,100459;0,0277735;-0,714068;0;0;0;0;0;0;-0,0194474;0,0146899;-0,364643;0,0476137;-0,0685507;0,829635;-0,564568;-0,286337;0,883092;-0,162275;-0,11201;-0,0334731;-0,193889;0,00277493;0,044347;0,0121323;-0,0168949;-0;0,0248449;-0,216899;4,67318;0;0,00209059;-0,032919;0,0263352;0,00790057;-0,149057;0,0724312;-0,042237;0;-0,224856;-0,222966;-1080;1080;-600;1700;-10;10;-10;-0;0;-0;250;1,2;0,2;177;-1,2;-1;2555;0,07;2446;3471;8;56579;
21,616;19,1775;-1,629;431;-201;2149;0;-0,255279;-0,237507;0,671053;-0,135904;-0,0858438;0,265321;-0,133344;0,0304989;-0,371;0,0930037;0,125497;-0,704526;0;0;0;0;0;0;-0,0194474;0,0146899;-0,364643;0,0476137;-0,0685507;0,829635;-0,564568;-0,286337;0,883092;-0,162275;-0,11201;-0,0334731;-0,193889;0,00277493;0,044347;0,0121323;-0,0168949;-0;0,024885;-0,217249;4,66489;0;0,00209059;-0,032919;0,0263352;0,00790057;-0,149057;0,0724312;-0,042237;0;-0,224856;-0,222966;-1080;1080;-600;1700;-10;10;-10;-0;0;-0;250;1,2;0,2;177;-1,2;-1;2555;0,07;2446;3471;8;56579;
21,626;19,1702;-1,524;426;-151;2191;0;-0,229845;-0,139879;0,601653;-0,138192;-0,0872359;0,271308;-0,155568;0,0249975;-0,476;0,0761396;0,0160781;-0,634025;0;0;0;0;0;0;-0,374219;-0,0446434;-1,03685;-0,656056;-0,262604;-0,384429;-0,608413;-0,369417;0,931726;-0,153705;-0,123801;-0,0323727;-0,196464;0,00197612;0,0315689;0,0122981;-0,0158189;-0;0,0222496;-0,218722;4,65131;-0,0381885;-0,00383277;0,011592;-0,0270147;-0,00344139;-0,401631;0,0729548;-0,0424115;0;-0,159323;-0,15865;-1080;1080;-600;1700;-10;10;-10;-0;0;-0;250;1,2;0,2;177;-1,2;-1;2555;0,07;2456;3477;7;56579;
21,6361;19,1702;-1,524;431;-201;2196;0;-0,234229;-0,222134;0,593282;-0,14057;-0,0894917;0,277333;-0,155568;0,0249975;-0,476;0,0815387;0,0971884;-0,626059;0;0;0;0;0;0;-0,374219;-0,0446434;-1,03685;-0,656056;-0,262604;-0,384429;-0,608413;-0,369417;0,931726;-0,152691;-0,124945;-0,0327766;-0,196464;0,00197612;0,0315689;0,0122981;-0,0158189;-0;0,0125845;-0,228454;4,55153;-0,0381885;-0,00383277;0,011592;-0,0270147;-0,00344139;-0,401631;0,0748746;-0,0434587;0;-0,159323;-0,15865;-1080;1080;-600;1700;-10;10;-10;-0;0;-0;250;1,2;0,2;177;-1,2;-1;2555;0,07;2456;3477;7;56579;
21,6461;19,1702;-1,524;381;-251;2199;0;-0,173211;-0,276125;0,58752;-0,142291;-0,0922353;0,283171;-0,155568;0,0249975;-0,476;0,0205208;0,15118;-0,620296;0;0;0;0;0;0;-0,374219;-0,0446434;-1,03685;-0,656056;-0,262604;-0,384429;-0,608413;-0,369417;0,931726;-0,152691;-0,124945;-0,0327766;-0,196464;0,00197612;0,0315689;0,0122981;-0,0158189;-0;0,0126129;-0,228971;4,53963;-0,0381885;-0,00383277;0,011592;-0,0270147;-0,00344139;-0,401631;0,0748746;-0,0434587;0;-0,159323;-0,15865;-1080;1080;-600;1700;-10;10;-10;-0;0;-0;250;1,2;0,2;177;-1,2;-1;2555;0,07;2456;3477;7;56579;
21,6562;19,1702;-1,524;331;-285;2199;0;-0,0918793;-0,263176;0,587736;-0,143217;-0,0948868;0,289092;-0,155568;0,0249975;-0,476;-0,0598999;0,137249;-0,620982;0;0;0;0;0;0;-0,374219;-0,0446434;-1,03685;-0,656056;-0,262604;-0,384429;-0,608413;-0,369417;0,931726;-0,151779;-0,125928;-0,0332457;-0,196464;0,00197612;0,0315689;0,0122981;-0,0158189;-0;0,00710482;-0,243131;4,53147;-0,0381885;-0,00383277;0,011592;-0,0270147;-0,00344139;-0,401631;0,0759218;-0,0460767;0;-0,159323;-0,15865;-1080;1080;-600;1700;-10;10;-10;-0;0;-0;250;1,2;0,2;177;-1,2;-1;2555;0,07;2456;3477;7;56579;
21,6661;19,1702;-1,524;281;-235;2195;0;-0,0522114;-0,192714;0,5943;-0,143738;-0,0968093;0,295021;-0,155568;0,0249975;-0,476;-0,098684;0,0657634;-0,627679;0;0;0;0;0;0;-0,374219;-0,0446434;-1,03685;-0,656056;-0,262604;-0,384429;-0,608413;-0,369417;0,931726;-0,150895;-0,12695;-0,0333793;-0,196464;0,00197612;0,0315689;0,0122981;-0,0158189;-0;0,0126314;-0,255993;4,53192;-0,0381885;-0,00383277;0,011592;-0,0270147;-0,00344139;-0,401631;0,0748746;-0,0485202;0;-0,159323;-0,15865;-1080;1080;-600;1700;-10;10;-10;-0;0;-0;250;1,2;0,2;177;-1,2;-1;2555;0,07;2456;3477;7;56579;
21,6763;19,1702;-1,524;271;-185;2190;0;-0,0861226;-0,118897;0,60206;-0,14461;-0,0980131;0,301117;-0,155568;0,0249975;-0,476;-0,0647728;-0,00805378;-0,63544;0;0;0;0;0;0;-0,374219;-0,0446434;-1,03685;-0,656056;-0,262604;-0,384429;-0,608413;-0,369417;0,931726;-0,150895;-0,12695;-0,0333793;-0,196464;0,00197612;0,0315689;0,0122981;-0,0158189;-0;0,0126084;-0,255527;4,54152;-0,0381885;-0,00383277;0,011592;-0,0270147;-0,00344139;-0,401631;0,0748746;-0,0485202;0;-0,159323;-0,15865;-1080;1080;-600;1700;-10;10;-10;-0;0;-0;250;1,2;0,2;177;-1,2;-1;2555;0,07;2456;3477;7;56579;
21,6862;19,1702;-1,524;321;-135;2189;0;-0,164681;-0,102604;0,604818;-0,146243;-0,0990309;0,307116;-0,155568;0,0249975;-0,476;0,0145872;-0,0253151;-0,638115;0;0;0;0;0;0;-0,374219;-0,0446434;-1,03685;-0,656056;-0,262604;-0,384429;-0,608413;-0,369417;0,931726;-0,150094;-0,127919;-0,033297;-0,196464;0,00197612;0,0315689;0,0122981;-0,0158189;-0;0,0180866;-0,258644;4,55284;-0,0381885;-0,00383277;0,011592;-0,0270147;-0,00344139;-0,401631;0,0738274;-0,0492183;0;-0,159323;-0,15865;-1080;1080;-600;1700;-10;10;-10;-0;0;-0;250;1,2;0,2;177;-1,2;-1;2555;0,07;2456;3477;7;56579;
21,696;19,1702;-1,524;371;-169;2191;0;-0,22609;-0,155632;0,600344;-0,148468;-0,100562;0,313023;-0,155568;0,0249975;-0,476;0,075996;0,0277136;-0,633641;0;0;0;0;0;0;-0,374219;-0,0446434;-1,03685;-0,656056;-0,262604;-0,384429;-0,608413;-0,369417;0,931726;-0,150094;-0,127919;-0,033297;-0,196464;0,00197612;0,0315689;0,0122981;-0,0158189;-0;0,0180724;-0,258442;4,55695;-0,0381885;-0,00383277;0,011592;-0,0270147;-0,00344139;-0,401631;0,0738274;-0,0492183;0;-0,159323;-0,15865;-1080;1080;-600;1700;-10;10;-10;-0;0;-0;250;1,2;0,2;177;-1,2;-1;2555;0,07;2456;3477;7;56579;
21,7062;19,1702;-1,524;415;-219;2196;0;-0,219038;-0,237474;0,592246;-0,150689;-0,102971;0,31903;-0,155568;0,0249975;-0,476;0,0697675;0,108611;-0,625604;0;0;0;0;0;0;-0,374219;-0,0446434;-1,03685;-0,656056;-0,262604;-0,384429;-0,608413;-0,369417;0,931726;-0,14927;-0,128863;-0,0333582;-0,196464;0,00197612;0,0315689;0,0122981;-0,0158189;-0;0,0162583;-0,259668;4,55065;-0,0381885;-0,00383277;0,011592;-0,0270147;-0,00344139;-0,401631;0,0741765;-0,0493928;0;-0,159323;-0,15865;-1080;1080;-600;1700;-10;10;-10;-0;0;-0;250;1,2;0,2;177;-1,2;-1;2555;0,07;2456;3477;7;56579;
21,716;19,1702;-1,524;365;-269;2199;0;-0,149977;-0,280892;0,586913;-0,15217;-0,105743;0,324823;-0,155568;0,0249975;-0,476;0,00147876;0,151231;-0,620621;0;0;0;0;0;0;-0,374219;-0,0446434;-1,03685;-0,656056;-0,262604;-0,384429;-0,608413;-0,369417;0,931726;-0,148499;-0,129661;-0,0337085;-0,196464;0,00197612;0,0315689;0,0122981;-0,0158189;-0;0,00341474;-0,260237;4,53914;-0,0381885;-0,00383277;0,011592;-0,0270147;-0,00344139;-0,401631;0,07662;-0,0493928;0;-0,159323;-0,15865;-1080;1080;-600;1700;-10;10;-10;-0;0;-0;250;1,2;0,2;177;-1,2;-1;2555;0,07;2456;3477;7;56579;
21,7265;19,1702;-1,524;315;-272;2198;0;-0,0751165;-0,250966;0,589143;-0,152957;-0,108374;0,330999;-0,155568;0,0249975;-0,476;-0,0733821;0,121305;-0,622852;0;0;0;0;0;0;-0,374219;-0,0446434;-1,03685;-0,656056;-0,262604;-0,384429;-0,608413;-0,369417;0,931726;-0,148499;-0,129661;-0,0337085;-0,196464;0,00197612;0,0315689;0,0122981;-0,0158189;-0;0,00341963;-0,260609;4,5316;-0,0381885;-0,00383277;0,011592;-0,0270147;-0,00344139;-0,401631;0,07662;-0,0493928;0;-0,159323;-0,15865;-1080;1080;-600;1700;-10;10;-10;-0;0;-0;250;1,2;0,2;177;-1,2;-1;2555;0,07;2456;3477;7;56579;
21,736;19,1702;-1,524;265;-222;2193;0;-0,0558725;-0,173817;0,596505;-0,153487;-0,110021;0,336652;-0,155568;0,0249975;-0,476;-0,0917853;0,0433182;-0,630669;0;0;0;0;0;0;-0,374219;-0,0446434;-1,03685;-0,656056;-0,262604;-0,384429;-0,608413;-0,369417;0,931726;-0,147658;-0,130499;-0,0341641;-0,196464;0,00197612;0,0315689;0,0122981;-0,0158189;-0;-0,00855124;-0,265961;4,53496;-0,0381885;-0,00383277;0,011592;-0,0270147;-0,00344139;-0,401631;0,0788889;-0,05044;0;-0,159323;-0,15865;-1080;1080;-600;1700;-10;10;-10;-0;0;-0;250;1,2;0,2;177;-1,2;-1;2555;0,07;2456;3477;7;56579;
21,7461;19,1702;-1,524;295;-172;2189;0;-0,108156;-0,114896;0,603067;-0,15458;-0,111183;0,342747;-0,155568;0,0249975;-0,476;-0,0388199;-0,0163281;-0,637393;0;0;0;0;0;0;-0,374219;-0,0446434;-1,03685;-0,656056;-0,262604;-0,384429;-0,608413;-0,369417;0,931726;-0,146976;-0,131224;-0,0343267;-0,196464;0,00197612;0,0315689;0,0122981;-0,0158189;-0;-0,00669625;-0,274595;4,54569;-0,0381885;-0,00383277;0,011592;-0,0270147;-0,00344139;-0,401631;0,0785398;-0,0521853;0;-0,159323;-0,15865;-1080;1080;-600;1700;-10;10;-10;-0;0;-0;250;1,2;0,2;177;-1,2;-1;2555;0,07;2456;3477;7;56579;
21,7562;19,1702;-1,524;345;-134;2189;0;-0,187757;-0,123379;0,603105;-0,156468;-0,112424;0,348813;-0,155568;0,0249975;-0,476;0,0407808;-0,00784526;-0,637432;0;0;0;0;0;0;-0,374219;-0,0446434;-1,03685;-0,656056;-0,262604;-0,384429;-0,608413;-0,369417;0,931726;-0,146976;-0,131224;-0,0343267;-0,196464;0,00197612;0,0315689;0,0122981;-0,0158189;-0;-0,00668405;-0,274095;4,55528;-0,0381885;-0,00383277;0,011592;-0,0270147;-0,00344139;-0,401631;0,0785398;-0,0521853;0;-0,159323;-0,15865;-1080;1080;-600;1700;-10;10;-10;-0;0;-0;250;1,2;0,2;177;-1,2;-1;2555;0,07;2456;3477;7;56579;
21,7662;19,1702;-1,524;395;-184;2193;0;-0,224594;-0,194378;0,596827;-0,15872;-0,114373;0,354798;-0,155568;0,0249975;-0,476;0,0781954;0,0624427;-0,630896;0;0;0;0;0;0;-0,374219;-0,0446434;-1,03685;-0,656056;-0,262604;-0,384429;-0,608413;-0,369417;0,931726;-0,146398;-0,131935;-0,034069;-0,196464;0,00197612;0,0315689;0,0122981;-0,0158189;-0;0,00707249;-0,279579;4,55549;-0,0381885;-0,00383277;0,011592;-0,0270147;-0,00344139;-0,401631;0,0759218;-0,0532325;0;-0,159323;-0,15865;-1080;1080;-600;1700;-10;10;-10;-0;0;-0;250;1,2;0,2;177;-1,2;-1;2555;0,07;2456;3477;7;56579;
21,7762;19,1702;-1,524;379;-234;2197;0;-0,185863;-0,265695;0,589816;-0,160586;-0,117039;0,360717;-0,155568;0,0249975;-0,476;0,0400565;0,133007;-0,623497;0;0;0;0;0;0;-0,374219;-0,0446434;-1,03685;-0,656056;-0,262604;-0,384429;-0,608413;-0,369417;0,931726;-0,145807;-0,132688;-0,0336812;-0,196464;0,00197612;0,0315689;0,0122981;-0,0158189;-0;0,0190267;-0,278218;4,54659;-0,0381885;-0,00383277;0,011592;-0,0270147;-0,00344139;-0,401631;0,0736529;-0,0528835;0;-0,159323;-0,15865;-1080;1080;-600;1700;-10;10;-10;-0;0;-0;250;1,2;0,2;177;-1,2;-1;2555;0,07;2456;3477;7;56579;
21,7862;19,1702;-1,524;329;-284;2198;0;-0,105848;-0,274765;0,587818;-0,161637;-0,119769;0,366556;-0,155568;0,0249975;-0,476;-0,0399588;0,142078;-0,621499;0;0;0;0;0;0;-0,374219;-0,0446434;-1,03685;-0,656056;-0,262604;-0,384429;-0,608413;-0,369417;0,931726;-0,145807;-0,132688;-0,0336812;-0,196464;0,00197612;0,0315689;0,0122981;-0,0158189;-0;0,0190627;-0,278744;4,53664;-0,0381885;-0,00383277;0,011592;-0,0270147;-0,00344139;-0,401631;0,0736529;-0,0528835;0;-0,159323;-0,15865;-1080;1080;-600;1700;-10;10;-10;-0;0;-0;250;1,2;0,2;177;-1,2;-1;2555;0,07;2456;3477;7;56579;
21,7961;19,1702;-1,524;279;-234;2195;0;-0,0515027;-0,214396;0,593089;-0,162151;-0,121907;0,372473;-0,155568;0,0249975;-0,476;-0,0936803;0,0809993;-0,626663;0;0;0;0;0;0;-0,374219;-0,0446434;-1,03685;-0,656056;-0,262604;-0,384429;-0,608413;-0,369417;0,931726;-0,145183;-0,133397;-0,0335741;-0,196464;0,00197612;0,0315689;0,0122981;-0,0158189;-0;0,0209143;-0,277049;4,5339;-0,0381885;-0,00383277;0,011592;-0,0270147;-0,00344139;-0,401631;0,0733038;-0,0525344;0;-0,159323;-0,15865;-1080;1080;-600;1700;-10;10;-10;-0;0;-0;250;1,2;0,2;177;-1,2;-1;2555;0,07;2456;3477;7;56579;
21,8062;19,1702;-1,524;255;-184;2190;0;-0,0711775;-0,136401;0,600833;-0,16287;-0,123285;0,378541;-0,155568;0,0249975;-0,476;-0,0734594;0,00244584;-0,634541;0;0;0;0;0;0;-0,374219;-0,0446434;-1,03685;-0,656056;-0,262604;-0,384429;-0,608413;-0,369417;0,931726;-0,144637;-0,133955;-0,0337074;-0,196464;0,00197612;0,0315689;0,0122981;-0,0158189;-0;0,0199641;-0,281234;4,54163;-0,0381885;-0,00383277;0,011592;-0,0270147;-0,00344139;-0,401631;0,0734784;-0,0534071;0;-0,159323;-0,15865;-1080;1080;-600;1700;-10;10;-10;-0;0;-0;250;1,2;0,2;177;-1,2;-1;2555;0,07;2456;3477;7;56579;
21,816;19,1702;-1,524;305;-134;2188;0;-0,147766;-0,108799;0,604573;-0,164311;-0,124346;0,384437;-0,155568;0,0249975;-0,476;0,00312875;-0,0251559;-0,63828;0;0;0;0;0;0;-0,374219;-0,0446434;-1,03685;-0,656056;-0,262604;-0,384429;-0,608413;-0,369417;0,931726;-0,144637;-0,133955;-0,0337074;-0,196464;0,00197612;0,0315689;0,0122981;-0,0158189;-0;0,0199213;-0,280631;4,55293;-0,0381885;-0,00383277;0,011592;-0,0270147;-0,00344139;-0,401631;0,0734784;-0,0534071;0;-0,159323;-0,15865;-1080;1080;-600;1700;-10;10;-10;-0;0;-0;250;1,2;0,2;177;-1,2;-1;2555;0,07;2456;3477;7;56579;
21,826;19,1702;-1,524;355;-171;2190;0;-0,212473;-0,157568;0,601084;-0,166448;-0,125931;0,390483;-0,155568;0,0249975;-0,476;0,0683619;0,0230231;-0,634697;0;0;0;0;0;0;-0,374219;-0,0446434;-1,03685;-0,656056;-0,262604;-0,384429;-0,608413;-0,369417;0,931726;-0,144111;-0,134545;-0,0336132;-0,196464;0,00197612;0,0315689;0,0122981;-0,0158189;-0;0,0281494;-0,285828;4,55845;-0,0381885;-0,00383277;0,011592;-0,0270147;-0,00344139;-0,401631;0,0719076;-0,0544543;0;-0,159323;-0,15865;-1080;1080;-600;1700;-10;10;-10;-0;0;-0;250;1,2;0,2;177;-1,2;-1;2555;0,07;2456;3477;7;56579;
21,836;19,1702;-1,524;402;-221;2194;0;-0,207248;-0,23853;0,593874;-0,168512;-0,128307;0,396398;-0,155568;0,0249975;-0,476;0,0635147;0,103495;-0,627135;0;0;0;0;0;0;-0,374219;-0,0446434;-1,03685;-0,656056;-0,262604;-0,384429;-0,608413;-0,369417;0,931726;-0,143733;-0,135035;-0,0332611;-0,196464;0,00197612;0,0315689;0,0122981;-0,0158189;-0;0,038267;-0,283345;4,55358;-0,0381885;-0,00383277;0,011592;-0,0270147;-0,00344139;-0,401631;0,0699877;-0,0539307;0;-0,159323;-0,15865;-1080;1080;-600;1700;-10;10;-10;-0;0;-0;250;1,2;0,2;177;-1,2;-1;2555;0,07;2456;3477;7;56579;
21,8461;19,1702;-1,524;352;-271;2197;0;-0,137486;-0,279342;0,588977;-0,169906;-0,131138;0,402368;-0,155568;0,0249975;-0,476;-0,00624734;0,144307;-0,622238;0;0;0;0;0;0;-0,374219;-0,0446434;-1,03685;-0,656056;-0,262604;-0,384429;-0,608413;-0,369417;0,931726;-0,143733;-0,135035;-0,0332611;-0,196464;0,00197612;0,0315689;0,0122981;-0,0158189;-0;0,0383415;-0,283897;4,54334;-0,0381885;-0,00383277;0,011592;-0,0270147;-0,00344139;-0,401631;0,0699877;-0,0539307;0;-0,159323;-0,15865;-1080;1080;-600;1700;-10;10;-10;-0;0;-0;250;1,2;0,2;177;-1,2;-1;2555;0,07;2456;3477;7;56579;
21,8564;19,1821;-1,501;402;-221;2247;0;-0,293325;-0,20343;0,389936;-0,172917;-0,133227;0,406371;-0,122232;-0,00247319;-0,499;0,176809;0,044077;-0,422043;0;0;0;0;0;0;-0,173171;-0,116406;-0,71692;-0,286581;-0,338991;-0,218361;-0,564026;-0,55403;0,788384;-0,116515;-0,159353;-0,0321077;-0,198963;-0,000251844;-0,00402574;0,0124468;-0,0155721;0;0,0420733;-0,276917;4,53643;-0,0573701;-0,00703574;-0,0134817;-0,0172384;-0,0111766;-0,637636;0,0692896;-0,0525344;0;0,0202308;0,0202295;-1080;1080;-600;1700;-10;10;-10;-0;0;-0;250;1,2;0,2;177;-1,2;-1;2555;0,07;2468;3485;7;56579;
21,866;19,1821;-1,501;401;-271;2297;0;-0,206209;-0,353154;0,375026;-0,174892;-0,136608;0,409962;-0,122232;-0,00247319;-0,499;0,0902222;0,19342;-0,407153;0;0;0;0;0;0;-0,173171;-0,116406;-0,71692;-0,286581;-0,338991;-0,218361;-0,564026;-0,55403;0,788384;-0,115987;-0,159734;-0,0321268;-0,198963;-0,000251844;-0,00402574;0,0124468;-0,0155721;0;0,0453294;-0,293898;4,24994;-0,0573701;-0,00703574;-0,0134817;-0,0172384;-0,0111766;-0,637636;0,069115;-0,0528835;0;0,0202308;0,0202295;-1080;1080;-600;1700;-10;10;-10;-0;0;-0;250;1,2;0,2;177;-1,2;-1;2555;0,07;2468;3485;7;56579;
21,8761;19,1821;-1,501;351;-321;2327;0;-0,0332898;-0,363598;0,371514;-0,175229;-0,140293;0,413727;-0,122232;-0,00247319;-0,499;-0,082697;0,203864;-0,40364;0;0;0;0;0;0;-0,173171;-0,116406;-0,71692;-0,286581;-0,338991;-0,218361;-0,564026;-0,55403;0,788384;-0,115987;-0,159734;-0,0321268;-0,198963;-0,000251844;-0,00402574;0,0124468;-0,0155721;0;0,0455037;-0,295028;4,22856;-0,0573701;-0,00703574;-0,0134817;-0,0172384;-0,0111766;-0,637636;0,069115;-0,0528835;0;0,0202308;0,0202295;-1080;1080;-600;1700;-10;10;-10;-0;0;-0;250;1,2;0,2;177;-1,2;-1;2555;0,07;2468;3485;7;56579;
21,8861;19,1821;-1,501;301;-271;2321;0;0,0723597;-0,225882;0,382247;-0,174505;-0,142552;0,417551;-0,122232;-0,00247319;-0,499;-0,187874;0,065804;-0,414365;0;0;0;0;0;0;-0,173171;-0,116406;-0,71692;-0,286581;-0,338991;-0,218361;-0,564026;-0,55403;0,788384;-0,115514;-0,160078;-0,0321179;-0,198963;-0,000251844;-0,00402574;0,0124468;-0,0155721;0;0,053344;-0,301133;4,22359;-0,0573701;-0,00703574;-0,0134817;-0,0172384;-0,0111766;-0,637636;0,0677188;-0,0539307;0;0,0202308;0,0202295;-1080;1080;-600;1700;-10;10;-10;-0;0;-0;250;1,2;0,2;177;-1,2;-1;2555;0,07;2468;3485;7;56579;
21,8962;19,1821;-1,501;251;-221;2312;0;0,0145464;-0,0626325;0,397898;-0,174359;-0,143181;0,421546;-0,122232;-0,00247319;-0,499;-0,13006;-0,0974456;-0,430016;0;0;0;0;0;0;-0,173171;-0,116406;-0,71692;-0,286581;-0,338991;-0,218361;-0,564026;-0,55403;0,788384;-0,115514;-0,160078;-0,0321179;-0,198963;-0,000251844;-0,00402574;0,0124468;-0,0155721;0;0,0531955;-0,300295;4,23914;-0,0573701;-0,00703574;-0,0134817;-0,0172384;-0,0111766;-0,637636;0,0677188;-0,0539307;0;0,0202308;0,0202295;-1080;1080;-600;1700;-10;10;-10;-0;0;-0;250;1,2;0,2;177;-1,2;-1;2555;0,07;2468;3485;7;56579;
21,9061;19,1821;-1,501;301;-171;2307;0;-0,153428;-0,0212872;0,404673;-0,175884;-0,143393;0,425569;-0,122232;-0,00247319;-0,499;0,0382639;-0,139105;-0,436475;0;0;0;0;0;0;-0,173171;-0,116406;-0,71692;-0,286581;-0,338991;-0,218361;-0,564026;-0,55403;0,788384;-0,115164;-0,160393;-0,0318019;-0,198963;-0,000251844;-0,00402574;0,0124468;-0,0155721;0;0,0636307;-0,296174;4,26177;-0,0573701;-0,00703574;-0,0134817;-0,0172384;-0,0111766;-0,637636;0,0657989;-0,0534071;0;0,0202308;0,0202295;-1080;1080;-600;1700;-10;10;-10;-0;0;-0;250;1,2;0,2;177;-1,2;-1;2555;0,07;2468;3485;7;56579;
21,9161;19,1821;-1,501;351;-151;2312;0;-0,280453;-0,139129;0,396621;-0,178676;-0,144778;0,429517;-0,122232;-0,00247319;-0,499;0,165708;-0,0215975;-0,428251;0;0;0;0;0;0;-0,173171;-0,116406;-0,71692;-0,286581;-0,338991;-0,218361;-0,564026;-0,55403;0,788384;-0,114745;-0,160727;-0,03163;-0,198963;-0,000251844;-0,00402574;0,0124468;-0,0155721;0;0,0644843;-0,290822;4,27162;-0,0573701;-0,00703574;-0,0134817;-0,0172384;-0,0111766;-0,637636;0,0656244;-0,0525344;0;0,0202308;0,0202295;-1080;1080;-600;1700;-10;10;-10;-0;0;-0;250;1,2;0,2;177;-1,2;-1;2555;0,07;2468;3485;7;56579;
21,926;19,1821;-1,501;401;-201;2321;0;-0,251314;-0,309525;0,381326;-0,181188;-0,147872;0,433329;-0,122232;-0,00247319;-0,499;0,136569;0,148798;-0,412956;0;0;0;0;0;0;-0,173171;-0,116406;-0,71692;-0,286581;-0,338991;-0,218361;-0,564026;-0,55403;0,788384;-0,114745;-0,160727;-0,03163;-0,198963;-0,000251844;-0,00402574;0,0124468;-0,0155721;0;0,0646181;-0,291425;4,26012;-0,0573701;-0,00703574;-0,0134817;-0,0172384;-0,0111766;-0,637636;0,0656244;-0,0525344;0;0,0202308;0,0202295;-1080;1080;-600;1700;-10;10;-10;-0;0;-0;250;1,2;0,2;177;-1,2;-1;2555;0,07;2468;3485;7;56579;
21,9362;19,1821;-1,501;351;-251;2327;0;-0,0917982;-0,378313;0,372589;-0,182119;-0,151705;0,437104;-0,122232;-0,00247319;-0,499;-0,0225794;0,217367;-0,404434;0;0;0;0;0;0;-0,173171;-0,116406;-0,71692;-0,286581;-0,338991;-0,218361;-0,564026;-0,55403;0,788384;-0,114378;-0,160946;-0,0318443;-0,198963;-0,000251844;-0,00402574;0,0124468;-0,0155721;0;0,0580666;-0,29549;4,23819;-0,0573701;-0,00703574;-0,0134817;-0,0172384;-0,0111766;-0,637636;0,0668461;-0,053058;0;0,0202308;0,0202295;-1080;1080;-600;1700;-10;10;-10;-0;0;-0;250;1,2;0,2;177;-1,2;-1;2555;0,07;2468;3485;7;56579;
21,9461;19,1821;-1,501;301;-301;2323;0;0,0526302;-0,282851;0,378546;-0,181599;-0,154497;0,44084;-0,122232;-0,00247319;-0,499;-0,166632;0,121716;-0,410785;0;0;0;0;0;0;-0,173171;-0,116406;-0,71692;-0,286581;-0,338991;-0,218361;-0,564026;-0,55403;0,788384;-0,114001;-0,161135;-0,0322383;-0,198963;-0,000251844;-0,00402574;0,0124468;-0,0155721;0;0,0494254;-0,303939;4,2257;-0,0573701;-0,00703574;-0,0134817;-0,0172384;-0,0111766;-0,637636;0,0684169;-0,0544543;0;0,0202308;0,0202295;-1080;1080;-600;1700;-10;10;-10;-0;0;-0;250;1,2;0,2;177;-1,2;-1;2555;0,07;2468;3485;7;56579;
21,9561;19,1821;-1,501;251;-251;2314;0;0,0501963;-0,11054;0,394147;-0,181096;-0,155606;0,444794;-0,122232;-0,00247319;-0,499;-0,164198;-0,0505946;-0,426385;0;0;0;0;0;0;-0,173171;-0,116406;-0,71692;-0,286581;-0,338991;-0,218361;-0,564026;-0,55403;0,788384;-0,114001;-0,161135;-0,0322383;-0,198963;-0,000251844;-0,00402574;0,0124468;-0,0155721;0;0,0493487;-0,303467;4,23437;-0,0573701;-0,00703574;-0,0134817;-0,0172384;-0,0111766;-0,637636;0,0684169;-0,0544543;0;0,0202308;0,0202295;-1080;1080;-600;1700;-10;10;-10;-0;0;-0;250;1,2;0,2;177;-1,2;-1;2555;0,07;2468;3485;7;56579;
21,966;19,1821;-1,501;283;-201;2307;0;-0,0966405;-0,0201307;0,404638;-0,182056;-0,155806;0,448814;-0,122232;-0,00247319;-0,499;-0,0170693;-0,141153;-0,437161;0;0;0;0;0;0;-0,173171;-0,116406;-0,71692;-0,286581;-0,338991;-0,218361;-0,564026;-0,55403;0,788384;-0,11371;-0,161283;-0,0325229;-0,198963;-0,000251844;-0,00402574;0,0124468;-0,0155721;0;0,0472107;-0,310949;4,25693;-0,0573701;-0,00703574;-0,0134817;-0,0172384;-0,0111766;-0,637636;0,068766;-0,0560251;0;0,0202308;0,0202295;-1080;1080;-600;1700;-10;10;-10;-0;0;-0;250;1,2;0,2;177;-1,2;-1;2555;0,07;2468;3485;7;56579;
