time 	e1	e2	ctrlpitch	ctrlroll	ctrlthrust	ctrlyaw	edx	edy	edz	cumulx	cumuly	cumulz	x_pred	y_pred	z_pred	dxr_pred	dyr_pred	dzr_pred	dxrT	dyrT	dzrT	dxrUn	dyrUn	dzrUn	x	y	z	dx	dy	dz	ux	uy	uz	dxd	dyd	dzd	Perpx	Tangx	Perpy	Tangy	Perpz	Tanz	ax	ay	az	pitch	roll	yaw	yawd	eyaw	kpvx	kpvy	kpvz	kpyaw	kivx	kivy	kivz	kdvx	kdvy	kdvz	kdyaw	ktg	veld	pitchoff	ke1	ke2	gravity	thr_vel	gps_accuracy	height_accuracy	gps_sat_num	gps_status
10.064	1.19275	-1.92601	50	50	1450	0	-0.0710531	0.0922327	-0.207687	-0.000189285	0.000245708	-0.000553279	0.0394829	0.0669291	-0.0739942	-0.00808761	0.00794459	0.0537352	0	0	0	0	0	0	0.033336	0.0598517	-0.034	0	0.01	0.054	0.205665	0.0810057	2.82845	-0.0791407	0.100177	-0.153952	0.0472797	-0.0806327	0.0801458	0.047567	-0.150257	-0	0	-0	9.81	0.0638791	-0.0169297	0	-2.10377	-0.861299	-1080	1080	-600	1700	-10	10	-10	-0	0	-0	250	-1.2	0.2	177	-1.2	-1	2555	0.07	1798	2401	8	56579	
10.0715	1.19274	-1.92942	100	99	1500	0	-0.0711355	0.0920921	-0.205792	-0.000721735	0.000935017	-0.00209363	0.0394829	0.0670089	-0.0705792	-0.00795993	0.00796934	0.051741	0	0	0	0	0	0	0.033336	0.0598517	-0.031	0	0.01	0.052	0.129036	0.165884	2.70047	-0.0790955	0.100061	-0.154051	0.0471903	-0.080577	0.0800895	0.0474775	-0.150373	-0	0.0860911	-0.10998	3.3797	0.0638791	-0.0171042	0	-2.10325	-0.861564	-1080	1080	-600	1700	-10	10	-10	-0	0	-0	250	-1.2	0.2	177	-1.2	-1	2555	0.07	1798	2401	8	56579	
10.0813	1.19274	-1.92956	150	99	1550	0	-0.0711357	0.0920303	-0.206803	-0.00142143	0.00184023	-0.00412775	0.0394829	0.0670356	-0.0704407	-0.00797286	0.00801153	0.0527467	0	0	0	0	0	0	0.033336	0.0598517	-0.031	0	0.01	0.052	0.0467625	0.171413	2.57249	-0.0791085	0.100042	-0.154057	0.0471743	-0.080582	0.0800943	0.0474616	-0.150378	-0	0.0860551	-0.109934	3.3824	0.0638791	-0.0171042	0	-2.10308	-0.861652	-1080	1080	-600	1700	-10	10	-10	-0	0	-0	250	-1.2	0.2	177	-1.2	-1	2555	0.07	1798	2401	8	56579	
10.0917	1.19272	-1.93291	200	99	1600	0	-0.0710892	0.0917681	-0.207257	-0.00215926	0.00279269	-0.00627887	0.039483	0.0671104	-0.0670867	-0.00794533	0.0081632	0.0530903	0	0	0	0	0	0	0.033336	0.0598517	-0.028	0	0.01	0.05	-0.04112	0.176942	2.4445	-0.0790345	0.0999313	-0.154166	0.0470886	-0.0805261	0.0800379	0.0473759	-0.150491	-0	0.0849532	-0.111082	3.38089	0.0640536	-0.0172788	0	-2.10259	-0.861899	-1080	1080	-600	1700	-10	10	-10	-0	0	-0	250	-1.2	0.2	177	-1.2	-1	2555	0.07	1798	2401	8	56579	
10.1012	1.19271	-1.9383	250	98	1650	0	-0.07101	0.0912797	-0.207654	-0.00283506	0.0036614	-0.00825511	0.0394834	0.0672091	-0.0617005	-0.00793507	0.00844392	0.0533071	0	0	0	0	0	0	0.033336	0.0598517	-0.023	0	0.01	0.046	-0.134569	0.18063	2.31652	-0.0789451	0.0997236	-0.154347	0.046963	-0.0804296	0.0799409	0.0472501	-0.150673	-0	0.0849625	-0.111094	3.38019	0.0640536	-0.0172788	0	-2.10195	-0.862222	-1080	1080	-600	1700	-10	10	-10	-0	0	-0	250	-1.2	0.2	177	-1.2	-1	2555	0.07	1798	2401	8	56579	
10.1113	1.19269	-1.9388	253	98	1700	0	-0.0705797	0.0909424	-0.213589	-0.00354305	0.00457364	-0.0103976	0.0394845	0.0673138	-0.0612034	-0.00841641	0.00870706	0.0592211	0	0	0	0	0	0	0.033336	0.0598517	-0.023	0	0.01	0.046	-0.144343	0.186104	2.18853	-0.0789961	0.0996495	-0.154368	0.0469022	-0.0804497	0.0799597	0.0471896	-0.15069	-0	0.0849707	-0.111104	3.37957	0.0640536	-0.0172788	0	-2.10128	-0.86256	-1080	1080	-600	1700	-10	10	-10	-0	0	-0	250	-1.2	0.2	177	-1.2	-1	2555	0.07	1798	2401	8	56579	
10.1214	1.19268	-1.94318	252	97	1750	0	-0.0698777	0.0905174	-0.218737	-0.00425014	0.00548959	-0.012611	0.0394862	0.0674111	-0.0568195	-0.00905475	0.00898189	0.0642391	0	0	0	0	0	0	0.033336	0.0598517	-0.019	0	0.01	0.044	-0.146634	0.189623	2.06055	-0.0789324	0.0994993	-0.154498	0.0467927	-0.0803755	0.079885	0.0470801	-0.150838	-0	0.0850843	-0.112377	3.37097	0.0640536	-0.0174533	0	-2.10067	-0.862869	-1080	1080	-600	1700	-10	10	-10	-0	0	-0	250	-1.2	0.2	177	-1.2	-1	2555	0.07	1798	2401	8	56579	
10.1312	1.19266	-1.9437	251	97	1800	0	-0.0689084	0.090142	-0.227242	-0.00492806	0.0063764	-0.0148466	0.0394884	0.0675159	-0.0562984	-0.0100727	0.00928398	0.072722	0	0	0	0	0	0	0.033336	0.0598517	-0.019	0	0.01	0.044	-0.148813	0.195041	1.93256	-0.0789811	0.099426	-0.15452	0.0467329	-0.0803942	0.0799024	0.0470206	-0.150856	-0	0.0851829	-0.112507	3.3635	0.0640536	-0.0174533	0	-2.10002	-0.863199	-1080	1080	-600	1700	-10	10	-10	-0	0	-0	250	-1.2	0.2	177	-1.2	-1	2555	0.07	1798	2401	8	56579	
10.1413	1.19264	-1.94808	250	96	1850	0	-0.0678349	0.0895534	-0.234079	-0.00561	0.00727668	-0.0171998	0.0394908	0.0676251	-0.0519235	-0.0111163	0.00968994	0.0794261	0	0	0	0	0	0	0.033336	0.0598517	-0.015	0	0.01	0.041	-0.150881	0.198394	1.80458	-0.0789512	0.0992434	-0.154653	0.0466185	-0.0803234	0.0798308	0.0469062	-0.151002	-0	0.0864726	-0.112722	3.35121	0.0638791	-0.0174533	0	-2.09934	-0.863541	-1080	1080	-600	1700	-10	10	-10	-0	0	-0	250	-1.2	0.2	177	-1.2	-1	2555	0.07	1798	2401	8	56579	
10.1513	1.19262	-1.95345	248	96	1900	0	-0.0664461	0.0888847	-0.241839	-0.00627792	0.00817015	-0.0196308	0.0394927	0.0677361	-0.0465509	-0.0123943	0.0101478	0.0869944	0	0	0	0	0	0	0.033336	0.0598517	-0.01	0	0.01	0.038	-0.150714	0.203756	1.67659	-0.0788403	0.0990325	-0.154844	0.0464895	-0.0802299	0.0797367	0.046777	-0.151182	-0	0.0854763	-0.112894	3.3413	0.0640536	-0.0174533	0	-2.09865	-0.86389	-1080	1080	-600	1700	-10	10	-10	-0	0	-0	250	-1.2	0.2	177	-1.2	-1	2555	0.07	1798	2401	8	56579	
10.1616	1.1926	-1.95413	247	95	1950	0	-0.0648146	0.0883274	-0.253462	-0.00694642	0.00908116	-0.022245	0.0394933	0.067856	-0.045872	-0.0140802	0.0106176	0.0985894	0	0	0	0	0	0	0.033336	0.0598517	-0.01	0	0.01	0.038	-0.152503	0.206941	1.54861	-0.0788948	0.098945	-0.154872	0.0464189	-0.0802499	0.0797552	0.0467068	-0.151205	-0	0.0856247	-0.11309	3.33007	0.0640536	-0.0174533	0	-2.09789	-0.864274	-1080	1080	-600	1700	-10	10	-10	-0	0	-0	250	-1.2	0.2	177	-1.2	-1	2555	0.07	1798	2401	8	56579	
10.1713	1.19258	-1.95963	245	94	2000	0	-0.0630383	0.0875053	-0.263026	-0.00755827	0.00993049	-0.0247979	0.0394917	0.0679846	-0.0403725	-0.0157834	0.0112125	0.107971	0	0	0	0	0	0	0.033336	0.0598517	-0.005	0	0.01	0.035	-0.151945	0.210014	1.42063	-0.0788217	0.0987178	-0.155055	0.0462767	-0.0801604	0.0796649	0.0465646	-0.151387	-0	0.0858467	-0.113383	3.31328	0.0640536	-0.0174533	0	-2.09705	-0.864696	-1080	1080	-600	1700	-10	10	-10	-0	0	-0	250	-1.2	0.2	177	-1.2	-1	2555	0.07	1798	2401	8	56579	
10.1815	1.18917	-1.96511	282	64	2050	0	-0.0974903	0.0595579	-0.275371	-0.00854526	0.0105335	-0.0275858	0.0570949	0.0759299	-0.0348867	0.0306931	0.0485962	0.120966	0	0	0	0	0	0	0.044448	0.0665716	-0	0.06	0.02	0.031	-0.240438	0.146585	1.29264	-0.0667973	0.108154	-0.154405	0.0551562	-0.0740198	0.0733517	0.0556585	-0.151659	-0	0.0848932	-0.113625	3.29944	0.0642281	-0.0174533	0	-2.21554	-0.799255	-1080	1080	-600	1700	-10	10	-10	-0	0	-0	250	-1.2	0.2	177	-1.2	-1	2555	0.07	1803	2403	8	56579	
10.1914	1.18905	-1.96611	279	63	2100	0	-0.0948675	0.0590895	-0.288651	-0.00948426	0.0111183	-0.0304428	0.0576673	0.0761759	-0.0338855	0.0284331	0.0492747	0.134237	0	0	0	0	0	0	0.044448	0.0665716	-0	0.06	0.02	0.031	-0.23927	0.147815	1.16466	-0.0664344	0.108364	-0.154414	0.0553729	-0.073819	0.0731451	0.055883	-0.151695	-0	0.0851259	-0.113936	3.2816	0.0642281	-0.0174533	0	-2.21878	-0.797303	-1080	1080	-600	1700	-10	10	-10	-0	0	-0	250	-1.2	0.2	177	-1.2	-1	2555	0.07	1803	2403	8	56579	
10.2012	1.18891	-1.97382	276	63	2150	0	-0.0918574	0.0587256	-0.298875	-0.0103906	0.0116978	-0.0333918	0.0582583	0.0764479	-0.0261804	0.0259713	0.049667	0.144247	0	0	0	0	0	0	0.044448	0.0665716	0.007	0.06	0.02	0.027	-0.237766	0.151334	1.03667	-0.0658862	0.108393	-0.154629	0.0554762	-0.073476	0.0727972	0.0559935	-0.151951	-0	0.0842334	-0.115414	3.26241	0.0644026	-0.0176278	0	-2.22197	-0.79537	-1080	1080	-600	1700	-10	10	-10	-0	0	-0	250	-1.2	0.2	177	-1.2	-1	2555	0.07	1803	2403	8	56579	
10.2113	1.18878	-1.97878	272	63	2200	0	-0.0887597	0.0584343	-0.310057	-0.0112803	0.0122835	-0.0364995	0.0588257	0.0767328	-0.0212219	0.0232939	0.0500449	0.15531	0	0	0	0	0	0	0.044448	0.0665716	0.011	0.06	0.02	0.024	-0.233472	0.154853	0.908689	-0.0654658	0.108479	-0.154747	0.0556002	-0.0732098	0.0725254	0.0561249	-0.152115	-0	0.0844237	-0.11682	3.24762	0.0644026	-0.0178024	0	-2.22486	-0.79362	-1080	1080	-600	1700	-10	10	-10	-0	0	-0	250	-1.2	0.2	177	-1.2	-1	2555	0.07	1803	2403	8	56579	
10.2213	1.18865	-1.98035	269	62	2250	0	-0.0853896	0.058196	-0.324233	-0.0121356	0.0128664	-0.0397474	0.0593784	0.0770379	-0.0196454	0.020233	0.0504231	0.169454	0	0	0	0	0	0	0.044448	0.0665716	0.011	0.06	0.02	0.024	-0.231241	0.15586	0.780705	-0.0651566	0.108619	-0.154779	0.055758	-0.0730316	0.0723407	0.0562905	-0.15217	-0	0.0846318	-0.117108	3.23145	0.0644026	-0.0178024	0	-2.22746	-0.792035	-1080	1080	-600	1700	-10	10	-10	-0	0	-0	250	-1.2	0.2	177	-1.2	-1	2555	0.07	1803	2403	8	56579	
10.2314	1.18851	-1.98758	265	62	2300	0	-0.0819126	0.0576465	-0.334765	-0.0129619	0.0134479	-0.0431242	0.0599242	0.0773711	-0.0124205	0.0171998	0.0509203	0.179763	0	0	0	0	0	0	0.044448	0.0665716	0.017	0.06	0.02	0.02	-0.226108	0.159323	0.65272	-0.0647129	0.108567	-0.155002	0.0558038	-0.0727478	0.0720511	0.0563434	-0.152407	-0	0.0837437	-0.117472	3.21096	0.0645772	-0.0178024	0	-2.2298	-0.790605	-1080	1080	-600	1700	-10	10	-10	-0	0	-0	250	-1.2	0.2	177	-1.2	-1	2555	0.07	1803	2403	8	56579	
10.2414	1.18836	-1.99335	261	61	2350	0	-0.0782069	0.0570568	-0.347131	-0.0137453	0.0140195	-0.0466017	0.0604503	0.077732	-0.00664859	0.0138642	0.0514472	0.191932	0	0	0	0	0	0	0.044448	0.0665716	0.021	0.06	0.02	0.018	-0.220527	0.160162	0.524736	-0.0643427	0.108504	-0.1552	0.0558468	-0.0725156	0.0718124	0.0563936	-0.152595	-0	0.0827829	-0.116589	3.19571	0.0647517	-0.0176278	0	-2.23178	-0.789391	-1080	1080	-600	1700	-10	10	-10	-0	0	-0	250	-1.2	0.2	177	-1.2	-1	2555	0.07	1803	2403	8	56579	
10.2513	1.18822	-1.99577	257	61	2400	0	-0.0743864	0.0565733	-0.361193	-0.0144794	0.0145778	-0.0501663	0.0609573	0.0781264	-0.00423327	0.0102658	0.0519674	0.205927	0	0	0	0	0	0	0.044448	0.0665716	0.021	0.06	0.02	0.018	-0.214499	0.163569	0.396751	-0.0641206	0.108541	-0.155266	0.0559163	-0.0723763	0.0716656	0.0564708	-0.152677	-0	0.0830068	-0.116905	3.17782	0.0647517	-0.0176278	0	-2.23337	-0.788411	-1080	1080	-600	1700	-10	10	-10	-0	0	-0	250	-1.2	0.2	177	-1.2	-1	2555	0.07	1803	2403	8	56579	
10.2612	1.18807	-2.00295	253	60	2450	0	-0.0706435	0.0558082	-0.371955	-0.0151827	0.0151334	-0.0538692	0.0614333	0.0785539	0.0029511	0.00678023	0.0525892	0.216484	0	0	0	0	0	0	0.044448	0.0665716	0.026	0.06	0.02	0.015	-0.208023	0.16424	0.268767	-0.0638633	0.108397	-0.155472	0.0558741	-0.072163	0.0714454	0.0564353	-0.152909	-0	0.0844222	-0.117263	3.15749	0.0645772	-0.0176278	0	-2.2345	-0.787717	-1080	1080	-600	1700	-10	10	-10	-0	0	-0	250	-1.2	0.2	177	-1.2	-1	2555	0.07	1803	2403	8	56579	
10.2712	1.18791	-2.00941	249	59	2500	0	-0.066818	0.0548919	-0.38206	-0.0158534	0.0156843	-0.0577039	0.0618704	0.0790157	0.00941325	0.00316574	0.0533181	0.226372	0	0	0	0	0	0	0.044448	0.0665716	0.03	0.06	0.02	0.012	-0.201101	0.1648	0.140783	-0.0636522	0.10821	-0.155689	0.0558057	-0.0719954	0.0712703	0.0563734	-0.153118	-0	0.08462	-0.116374	3.14191	0.0645772	-0.0174533	0	-2.23509	-0.78735	-1080	1080	-600	1700	-10	10	-10	-0	0	-0	250	-1.2	0.2	177	-1.2	-1	2555	0.07	1803	2403	8	56579	
10.2813	1.18776	-2.01284	245	58	2550	0	-0.0628109	0.0540768	-0.39452	-0.0164877	0.0162304	-0.0616882	0.0622773	0.0795236	0.0128375	-0.000757249	0.0540262	0.238723	0	0	0	0	0	0	0.044448	0.0665716	0.03	0.06	0.02	0.012	-0.19373	0.165247	0.0127984	-0.0635682	0.108103	-0.155797	0.0557492	-0.0719214	0.0711876	0.0563239	-0.153229	-0	0.0848058	-0.11663	3.12727	0.0645772	-0.0174533	0	-2.23517	-0.787305	-1080	1080	-600	1700	-10	10	-10	-0	0	-0	250	-1.2	0.2	177	-1.2	-1	2555	0.07	1803	2403	8	56579	
10.2914	1.18759	-2.02103	240	57	2600	0	-0.0587771	0.052947	-0.403478	-0.0170769	0.0167612	-0.065733	0.0626492	0.0800825	0.0210314	-0.0046292	0.0548626	0.247411	0	0	0	0	0	0	0.044448	0.0665716	0.035	0.06	0.02	0.009	-0.183009	0.165583	-0.115186	-0.0634063	0.10781	-0.156066	0.0555739	-0.0717805	0.0710384	0.0561544	-0.15349	-0	0.0838653	-0.116945	3.10923	0.0647517	-0.0174533	0	-2.23466	-0.78762	-1080	1080	-600	1700	-10	10	-10	-0	0	-0	250	-1.2	0.2	177	-1.2	-1	2555	0.07	1803	2403	8	56579	
10.3014	1.18743	-2.02529	236	56	2650	0	-0.0546984	0.0518583	-0.414487	-0.017623	0.0172789	-0.0698708	0.06298	0.080697	0.0252909	-0.00873322	0.055729	0.258278	0	0	0	0	0	0	0.044448	0.0665716	0.035	0.06	0.02	0.009	-0.174688	0.165807	-0.24317	-0.0634316	0.107587	-0.156209	0.0554168	-0.0717582	0.0710063	0.0560036	-0.153628	-0	0.0840279	-0.117171	3.09624	0.0647517	-0.0174533	0	-2.2335	-0.78833	-1080	1080	-600	1700	-10	10	-10	-0	0	-0	250	-1.2	0.2	177	-1.2	-1	2555	0.07	1803	2403	8	56579	
10.3113	1.18725	-2.0345	231	54	2700	0	-0.0506973	0.0505143	-0.422557	-0.0181286	0.0177828	-0.0740854	0.0632584	0.0813666	0.0344993	-0.0127182	0.0566778	0.266069	0	0	0	0	0	0	0.044448	0.0665716	0.04	0.06	0.02	0.007	-0.162903	0.162903	-0.371155	-0.0634155	0.107192	-0.156487	0.0551297	-0.0716723	0.070911	0.0557215	-0.153917	-0	0.0842275	-0.118624	3.08028	0.0647517	-0.0176278	0	-2.23163	-0.789478	-1080	1080	-600	1700	-10	10	-10	-0	0	-0	250	-1.2	0.2	177	-1.2	-1	2555	0.07	1803	2403	8	56579	
10.3212	1.18708	-2.04311	227	53	2750	0	-0.0466971	0.0489689	-0.429448	-0.0185903	0.0182669	-0.0783314	0.0634819	0.0820974	0.0431096	-0.0167664	0.0577644	0.272666	0	0	0	0	0	0	0.044448	0.0665716	0.044	0.06	0.02	0.005	-0.153632	0.162848	-0.499139	-0.0634636	0.106733	-0.156781	0.0547995	-0.0716405	0.070869	0.0553962	-0.154187	-0	0.0831977	-0.118831	3.06856	0.0649262	-0.0176278	0	-2.22901	-0.791084	-1080	1080	-600	1700	-10	10	-10	-0	0	-0	250	-1.2	0.2	177	-1.2	-1	2555	0.07	1803	2403	8	56579	
10.3313	1.18689	-2.04866	223	51	2800	0	-0.0428255	0.0474005	-0.436968	-0.0190208	0.0187434	-0.0827238	0.0636475	0.082896	0.0486558	-0.0208668	0.0589062	0.27999	0	0	0	0	0	0	0.044448	0.0665716	0.044	0.06	0.02	0.005	-0.143913	0.159553	-0.627123	-0.0636923	0.106307	-0.156978	0.0544622	-0.0717161	0.0709327	0.0550636	-0.154361	-0	0.0833214	-0.119007	3.05854	0.0649262	-0.0176278	0	-2.22559	-0.793172	-1080	1080	-600	1700	-10	10	-10	-0	0	-0	250	-1.2	0.2	177	-1.2	-1	2555	0.07	1803	2403	8	56579	
10.3414	1.1867	-2.06057	219	49	2819	0	-0.0391119	0.0454854	-0.439208	-0.0194154	0.0192022	-0.0871545	0.0637479	0.0837633	0.0605677	-0.0247169	0.0601726	0.281848	0	0	0	0	0	0	0.044448	0.0665716	0.051	0.06	0.02	0.001	-0.132292	0.154337	-0.675757	-0.0638288	0.105658	-0.15736	0.0539653	-0.0717037	0.0709092	0.05457	-0.154727	-0	0.0822762	-0.12038	3.04761	0.0651008	-0.0178024	0	-2.22133	-0.79576	-1080	1080	-600	1700	-10	10	-10	-0	0	-0	250	-1.2	0.2	177	-1.2	-1	2555	0.07	1803	2403	8	56579	
10.3513	1.17624	-2.0731	236	48	2822	0	-0.0552638	0.0444903	-0.443653	-0.0199654	0.019645	-0.0915697	0.111196	0.0862413	0.0730963	0.0201734	0.075839	0.287802	0	0	0	0	0	0	0.077784	0.0708545	0.057	0.11	0.01	-0.001	-0.186026	0.151349	-0.683436	-0.0350904	0.120329	-0.155851	0.0696594	-0.0551178	0.0540264	0.0710667	-0.155371	-0	0.0823167	-0.12162	3.04428	0.0651008	-0.0179769	0	-2.48192	-0.612857	-1080	1080	-600	1700	-10	10	-10	-0	0	-0	250	-1.2	0.2	177	-1.2	-1	2555	0.07	1810	2407	8	56579	
10.3613	1.17567	-2.08088	234	44	2825	0	-0.0526401	0.041132	-0.448452	-0.0204925	0.0200569	-0.0960605	0.112404	0.0874191	0.0808768	0.0174894	0.0788476	0.292346	0	0	0	0	0	0	0.077784	0.0708545	0.057	0.11	0.01	-0.001	-0.179912	0.138885	-0.691115	-0.0351506	0.11998	-0.156107	0.0694025	-0.0550932	0.0539761	0.0708389	-0.155616	-0	0.0823959	-0.121737	3.03777	0.0651008	-0.0179769	0	-2.48058	-0.613915	-1080	1080	-600	1700	-10	10	-10	-0	0	-0	250	-1.2	0.2	177	-1.2	-1	2555	0.07	1810	2407	8	56579	
10.3713	1.17576	-2.08189	231	44	2804	0	-0.0504821	0.0408586	-0.414138	-0.0209976	0.0204657	-0.100204	0.111596	0.088013	0.081893	0.0145856	0.0788092	0.257961	0	0	0	0	0	0	0.077784	0.0708545	0.062	0.11	0.01	-0.004	-0.169178	0.137853	-0.637362	-0.0358965	0.119668	-0.156176	0.0690186	-0.0555554	0.0544332	0.0704415	-0.155644	-0	0.0812981	-0.123046	3.03075	0.0652753	-0.0181514	0	-2.4738	-0.619258	-1080	1080	-600	1700	-10	10	-10	-0	0	-0	250	-1.2	0.2	177	-1.2	-1	2555	0.07	1810	2407	8	56579	
10.3814	1.17574	-2.08733	228	44	2785	0	-0.0479394	0.0412528	-0.383082	-0.02148	0.0208809	-0.104059	0.111293	0.0884995	0.0873326	0.0116871	0.07802	0.226686	0	0	0	0	0	0	0.077784	0.0708545	0.07	0.11	0.01	-0.008	-0.158698	0.136919	-0.588728	-0.0362523	0.119273	-0.156396	0.0686901	-0.0557492	0.0546221	0.0701076	-0.155805	-0	0.0795323	-0.120977	3.08006	0.0654498	-0.0179769	0	-2.46979	-0.622399	-1080	1080	-600	1700	-10	10	-10	-0	0	-0	250	-1.2	0.2	177	-1.2	-1	2555	0.07	1810	2407	8	56579	
10.3914	1.17584	-2.08383	228	45	2767	0	-0.0472229	0.0421515	-0.352787	-0.0219509	0.0213012	-0.107577	0.110775	0.0886813	0.0838297	0.0105394	0.0770903	0.196467	0	0	0	0	0	0	0.077784	0.0708545	0.07	0.11	0.01	-0.008	-0.157672	0.139125	-0.542654	-0.0366835	0.119242	-0.156319	0.0685854	-0.0560346	0.0549063	0.0699948	-0.155699	-0	0.079005	-0.120175	3.12468	0.0654498	-0.0179769	0	-2.46651	-0.624959	-1080	1080	-600	1700	-10	10	-10	-0	0	-0	250	-1.2	0.2	177	-1.2	-1	2555	0.07	1810	2407	8	56579	
10.4013	1.17596	-2.08462	228	46	2747	0	-0.0478732	0.0426659	-0.319624	-0.0224259	0.0217245	-0.110749	0.110313	0.0886985	0.0846176	0.0109587	0.0764281	0.163246	0	0	0	0	0	0	0.077784	0.0708545	0.076	0.11	0.01	-0.011	-0.156533	0.141189	-0.49146	-0.0369145	0.119094	-0.156378	0.0684581	-0.0561698	0.0550443	0.0698578	-0.155719	-0	0.0784905	-0.118233	3.16822	0.0654498	-0.0178024	0	-2.46438	-0.626622	-1080	1080	-600	1700	-10	10	-10	-0	0	-0	250	-1.2	0.2	177	-1.2	-1	2555	0.07	1810	2407	8	56579	
10.4113	1.17596	-2.086	231	46	2728	0	-0.0498939	0.0425449	-0.287	-0.0229252	0.0221502	-0.11362	0.110316	0.088667	0.0860012	0.0130504	0.0765122	0.130577	0	0	0	0	0	0	0.077784	0.0708545	0.083	0.11	0.01	-0.015	-0.164593	0.140212	-0.442826	-0.0368435	0.119057	-0.156422	0.068441	-0.0561342	0.0550097	0.06984	-0.15576	-0	0.0767763	-0.117384	3.21589	0.0656244	-0.0178024	0	-2.46457	-0.626478	-1080	1080	-600	1700	-10	10	-10	-0	0	-0	250	-1.2	0.2	177	-1.2	-1	2555	0.07	1810	2407	8	56579	
10.4213	1.17594	-2.08188	232	46	2712	0	-0.0516147	0.0426395	-0.260353	-0.0234403	0.0225758	-0.116219	0.110413	0.0886587	0.0818835	0.0147612	0.0765759	0.104054	0	0	0	0	0	0	0.077784	0.0708545	0.083	0.11	0.01	-0.015	-0.166657	0.13939	-0.401871	-0.0368534	0.119215	-0.156299	0.0685481	-0.0561684	0.0550421	0.0699507	-0.155639	-0	0.0762302	-0.11655	3.26279	0.0656244	-0.0178024	0	-2.46504	-0.626107	-1080	1080	-600	1700	-10	10	-10	-0	0	-0	250	-1.2	0.2	177	-1.2	-1	2555	0.07	1810	2407	8	56579	
10.4312	1.17593	-2.08186	234	46	2695	0	-0.0534146	0.0426143	-0.232423	-0.0239734	0.0230011	-0.118539	0.110492	0.0886145	0.0818623	0.016629	0.0766018	0.0761078	0	0	0	0	0	0	0.077784	0.0708545	0.088	0.11	0.01	-0.018	-0.171633	0.138516	-0.358356	-0.0367857	0.119216	-0.156315	0.0685804	-0.0561276	0.0550016	0.0699844	-0.155639	-0	0.0757842	-0.114732	3.3011	0.0656244	-0.0176278	0	-2.46563	-0.625647	-1080	1080	-600	1700	-10	10	-10	-0	0	-0	250	-1.2	0.2	177	-1.2	-1	2555	0.07	1810	2407	8	56579	
10.4414	1.17592	-2.07781	236	46	2681	0	-0.0550187	0.0429386	-0.209005	-0.0245295	0.0234351	-0.120651	0.110569	0.0885364	0.077811	0.0182592	0.0764487	0.0528145	0	0	0	0	0	0	0.077784	0.0708545	0.088	0.11	0.01	-0.018	-0.176731	0.137796	-0.322521	-0.0367595	0.119387	-0.15619	0.0687035	-0.0561399	0.0550135	0.0701102	-0.155519	-0	0.0753166	-0.114024	3.34126	0.0656244	-0.0176278	0	-2.4664	-0.625046	-1080	1080	-600	1700	-10	10	-10	-0	0	-0	250	-1.2	0.2	177	-1.2	-1	2555	0.07	1810	2407	8	56579	
10.4514	1.17591	-2.07978	238	46	2666	0	-0.0565702	0.0430328	-0.183572	-0.0250957	0.0238658	-0.122488	0.110672	0.088465	0.0797833	0.0199674	0.0763278	0.0273242	0	0	0	0	0	0	0.077784	0.0708545	0.095	0.11	0.01	-0.022	-0.181698	0.137025	-0.284125	-0.0366028	0.119361	-0.156247	0.0687101	-0.0560483	0.0549231	0.0701177	-0.155578	-0	0.0738016	-0.113431	3.37492	0.0657989	-0.0176278	0	-2.46725	-0.624383	-1080	1080	-600	1700	-10	10	-10	-0	0	-0	250	-1.2	0.2	177	-1.2	-1	2555	0.07	1810	2407	8	56579	
10.4614	1.17591	-2.08018	239	47	2652	0	-0.0579926	0.0433154	-0.16067	-0.025675	0.0242985	-0.124093	0.110762	0.0883597	0.080183	0.0215096	0.0760502	0.00439819	0	0	0	0	0	0	0.077784	0.0708545	0.1	0.11	0.01	-0.025	-0.183706	0.139269	-0.24829	-0.036483	0.119366	-0.156272	0.0687557	-0.0559732	0.0548495	0.0701643	-0.15559	-0	0.0733821	-0.111669	3.4115	0.0657989	-0.0174533	0	-2.46823	-0.62362	-1080	1080	-600	1700	-10	10	-10	-0	0	-0	250	-1.2	0.2	177	-1.2	-1	2555	0.07	1810	2407	8	56579	
10.4713	1.17594	-2.07662	241	47	2641	0	-0.0592071	0.0438891	-0.142288	-0.0262661	0.0247367	-0.125514	0.110768	0.0881929	0.0766157	0.0227804	0.0756417	-0.0138703	0	0	0	0	0	0	0.077784	0.0708545	0.1	0.11	0.01	-0.025	-0.188844	0.138691	-0.220133	-0.0364268	0.119531	-0.156159	0.0688807	-0.0559645	0.0548425	0.0702898	-0.155483	-0	0.0730044	-0.111094	3.44444	0.0657989	-0.0174533	0	-2.46918	-0.622878	-1080	1080	-600	1700	-10	10	-10	-0	0	-0	250	-1.2	0.2	177	-1.2	-1	2555	0.07	1810	2407	8	56579	
10.4814	1.1761	-2.07886	242	49	2628	0	-0.0600719	0.0452356	-0.121039	-0.0268679	0.0251898	-0.126726	0.110494	0.0878007	0.0788623	0.0238257	0.0742453	-0.0352001	0	0	0	0	0	0	0.077784	0.0708545	0.107	0.11	0.01	-0.029	-0.19085	0.14388	-0.186857	-0.0362462	0.119481	-0.156239	0.0688959	-0.0558586	0.054746	0.0702961	-0.155546	-0	0.0715949	-0.109527	3.47087	0.0659734	-0.0172788	0	-2.47014	-0.622123	-1080	1080	-600	1700	-10	10	-10	-0	0	-0	250	-1.2	0.2	177	-1.2	-1	2555	0.07	1810	2407	8	56579	
10.4914	1.17603	-2.08082	243	48	2618	0	-0.0615173	0.0446914	-0.103057	-0.0274865	0.0256392	-0.127763	0.110761	0.0878047	0.0808216	0.0254609	0.0747468	-0.0532578	0	0	0	0	0	0	0.077784	0.0708545	0.113	0.11	0.01	-0.032	-0.193048	0.140408	-0.16126	-0.0360564	0.119438	-0.156315	0.0689164	-0.0557463	0.0546326	0.0703213	-0.155606	-0	0.0701487	-0.107898	3.50143	0.066148	-0.0171042	0	-2.4713	-0.621218	-1080	1080	-600	1700	-10	10	-10	-0	0	-0	250	-1.2	0.2	177	-1.2	-1	2555	0.07	1810	2407	8	56579	
10.5012	1.17596	-2.07787	245	48	2610	0	-0.0627858	0.0443889	-0.0895632	-0.0281032	0.0260753	-0.128642	0.111009	0.0877884	0.0778705	0.0268188	0.0751996	-0.0666577	0	0	0	0	0	0	0.077784	0.0708545	0.113	0.11	0.01	-0.032	-0.198289	0.139979	-0.140783	-0.035967	0.119588	-0.156221	0.0690369	-0.0557119	0.054596	0.070448	-0.15552	-0	0.0698611	-0.107455	3.5273	0.066148	-0.0171042	0	-2.47247	-0.620296	-1080	1080	-600	1700	-10	10	-10	-0	0	-0	250	-1.2	0.2	177	-1.2	-1	2555	0.07	1810	2407	8	56579	
10.5113	1.1759	-2.08198	246	47	2600	0	-0.0640655	0.0438636	-0.0737778	-0.0287468	0.0265159	-0.129384	0.111276	0.0877746	0.0819846	0.0283047	0.0756412	-0.0825544	0	0	0	0	0	0	0.077784	0.0708545	0.121	0.11	0.01	-0.036	-0.200433	0.136538	-0.115186	-0.0357608	0.119505	-0.156332	0.0690191	-0.0555581	0.0544421	0.0704338	-0.155643	-0	0.0696453	-0.107124	3.54671	0.066148	-0.0171042	0	-2.47372	-0.619317	-1080	1080	-600	1700	-10	10	-10	-0	0	-0	250	-1.2	0.2	177	-1.2	-1	2555	0.07	1810	2407	8	56579	
10.5213	1.17584	-2.08364	247	47	2592	0	-0.0651762	0.0435762	-0.0604172	-0.0293985	0.0269516	-0.129988	0.111516	0.0877294	0.0836353	0.0296176	0.075903	-0.0959806	0	0	0	0	0	0	0.077784	0.0708545	0.126	0.11	0.01	-0.039	-0.202711	0.136118	-0.0947084	-0.0355586	0.119479	-0.156398	0.0690539	-0.0554405	0.0543244	0.0704727	-0.155693	-0	0.0683036	-0.105646	3.56942	0.0663225	-0.0169297	0	-2.47502	-0.618298	-1080	1080	-600	1700	-10	10	-10	-0	0	-0	250	-1.2	0.2	177	-1.2	-1	2555	0.07	1810	2407	8	56579	
10.5313	1.17578	-2.08143	248	47	2587	0	-0.0660383	0.0435286	-0.0514612	-0.0300609	0.0273883	-0.130504	0.111763	0.0876888	0.0814273	0.0305952	0.0760813	-0.104863	0	0	0	0	0	0	0.077784	0.0708545	0.126	0.11	0.01	-0.039	-0.205209	0.135855	-0.08191	-0.0354431	0.11961	-0.156324	0.069166	-0.0553851	0.0542674	0.0705905	-0.15563	-0	0.0680933	-0.105321	3.58864	0.0663225	-0.0169297	0	-2.47631	-0.617278	-1080	1080	-600	1700	-10	10	-10	-0	0	-0	250	-1.2	0.2	177	-1.2	-1	2555	0.07	1810	2407	8	56579	
10.5413	1.17574	-2.08703	249	46	2579	0	-0.0669862	0.0432478	-0.0392121	-0.0307326	0.0278219	-0.130897	0.111994	0.0876243	0.0870293	0.0317852	0.0762067	-0.117286	0	0	0	0	0	0	0.077784	0.0708545	0.135	0.11	0.01	-0.044	-0.207455	0.132554	-0.0614325	-0.035201	0.119455	-0.156498	0.0691247	-0.0551995	0.0540833	0.0705513	-0.155796	-0	0.0679523	-0.104019	3.60152	0.0663225	-0.0167552	0	-2.47767	-0.616208	-1080	1080	-600	1700	-10	10	-10	-0	0	-0	250	-1.2	0.2	177	-1.2	-1	2555	0.07	1810	2407	8	56579	
10.5514	1.17569	-2.09154	250	46	2574	0	-0.0676702	0.0430911	-0.0303431	-0.0314106	0.0282536	-0.131201	0.112208	0.0875584	0.0915392	0.0326586	0.0762689	-0.126269	0	0	0	0	0	0	0.077784	0.0708545	0.142	0.11	0.01	-0.047	-0.209928	0.132297	-0.0486341	-0.0350116	0.11936	-0.156612	0.0691017	-0.0550366	0.0539217	0.0705305	-0.155929	-0	0.0688398	-0.103724	3.61915	0.066148	-0.0167552	0	-2.47897	-0.61519	-1080	1080	-600	1700	-10	10	-10	-0	0	-0	250	-1.2	0.2	177	-1.2	-1	2555	0.07	1810	2407	8	56579	
10.5613	1.17566	-2.09021	250	47	2571	0	-0.0680963	0.0433233	-0.0257419	-0.0320849	0.0286826	-0.131456	0.112409	0.0874735	0.0902123	0.0332192	0.0761398	-0.130822	0	0	0	0	0	0	0.077784	0.0708545	0.142	0.11	0.01	-0.047	-0.209683	0.135015	-0.040955	-0.0348771	0.119463	-0.156564	0.0691987	-0.0549637	0.0538486	0.0706317	-0.155891	-0	0.0686979	-0.10351	3.63191	0.066148	-0.0167552	0	-2.4803	-0.614135	-1080	1080	-600	1700	-10	10	-10	-0	0	-0	250	-1.2	0.2	177	-1.2	-1	2555	0.07	1810	2407	8	56579	
10.5714	1.17562	-2.0933	251	47	2568	0	-0.0684671	0.043424	-0.019621	-0.0327772	0.0291217	-0.131654	0.112599	0.0873883	0.093298	0.0337858	0.0760198	-0.137001	0	0	0	0	0	0	0.077784	0.0708545	0.147	0.11	0.01	-0.05	-0.212307	0.134857	-0.0332759	-0.0346813	0.119444	-0.156622	0.0692046	-0.0548235	0.0537097	0.0706397	-0.155982	-0	0.0686243	-0.104476	3.63853	0.066148	-0.0169297	0	-2.4816	-0.613115	-1080	1080	-600	1700	-10	10	-10	-0	0	-0	250	-1.2	0.2	177	-1.2	-1	2555	0.07	1810	2407	8	56579	
10.5814	1.18857	-2.09844	201	97	2560	0	0.0183258	0.122442	-0.00654167	-0.0325937	0.0303474	-0.13172	0.0565818	0.0795072	0.0984449	-0.0842806	-0.0203122	-0.152265	0	0	0	0	0	0	0.066672	0.072073	0.154	-0.04	-0.02	-0.054	-0.0686524	0.277392	-0.0127984	-0.0659547	0.102129	-0.158807	0.0511674	-0.0725904	0.0718992	0.0516594	-0.155802	-0	0.0685263	-0.104327	3.64734	0.066148	-0.0169297	0	-2.1893	-0.814746	-1080	1080	-600	1700	-10	10	-10	-0	0	-0	250	-1.2	0.2	177	-1.2	-1	2555	0.07	1816	2409	8	56579	
10.5914	1.18858	-2.0981	157	132	2559	0	0.0183624	0.122843	-0.00604089	-0.0324089	0.0315837	-0.131781	0.0566662	0.0794061	0.0981037	-0.0841955	-0.0206036	-0.152746	0	0	0	0	0	0	0.066672	0.072073	0.154	-0.04	-0.02	-0.054	0.0571883	0.377238	-0.0102387	-0.0658331	0.102239	-0.158787	0.0512666	-0.07253	0.0718397	0.0517592	-0.155792	-0	0.0683169	-0.104008	3.66617	0.066148	-0.0169297	0	-2.19061	-0.813988	-1080	1080	-600	1700	-10	10	-10	-0	0	-0	250	-1.2	0.2	177	-1.2	-1	2555	0.07	1816	2409	8	56579	
10.6014	1.18859	-2.10424	157	131	2558	0	0.0179113	0.121166	-0.004348	-0.0322307	0.0327895	-0.131824	0.0567238	0.0792935	0.104244	-0.083483	-0.0190399	-0.154619	0	0	0	0	0	0	0.066672	0.072073	0.161	-0.04	-0.02	-0.057	0.0571659	0.374237	-0.00767906	-0.0655717	0.102126	-0.158967	0.0512588	-0.0723416	0.071654	0.0517506	-0.155971	-0	0.0683089	-0.102924	3.66689	0.066148	-0.0167552	0	-2.19176	-0.813318	-1080	1080	-600	1700	-10	10	-10	-0	0	-0	250	-1.2	0.2	177	-1.2	-1	2555	0.07	1816	2409	8	56579	
10.6113	1.18861	-2.10459	158	128	2560	0	0.0169962	0.118293	-0.00676083	-0.0320628	0.033958	-0.131891	0.0567662	0.0791816	0.104593	-0.0824578	-0.0160981	-0.152208	0	0	0	0	0	0	0.066672	0.072073	0.161	-0.04	-0.02	-0.057	0.0543502	0.365962	-0.0127984	-0.0654616	0.102195	-0.158969	0.0513274	-0.0722812	0.0715951	0.0518192	-0.15598	-0	0.0682818	-0.102883	3.66933	0.066148	-0.0167552	0	-2.19278	-0.812723	-1080	1080	-600	1700	-10	10	-10	-0	0	-0	250	-1.2	0.2	177	-1.2	-1	2555	0.07	1816	2409	8	56579	
10.6213	1.18862	-2.11187	159	124	2559	0	0.0161001	0.115186	-0.0057214	-0.0319016	0.035111	-0.131948	0.0567959	0.079102	0.111869	-0.0812886	-0.0131414	-0.153456	0	0	0	0	0	0	0.066672	0.072073	0.169	-0.04	-0.02	-0.062	0.0514696	0.354399	-0.0102387	-0.0651884	0.102045	-0.159177	0.0512717	-0.0720918	0.0714082	0.0517626	-0.156191	-0	0.0672482	-0.102941	3.66585	0.0663225	-0.0167552	0	-2.19351	-0.812301	-1080	1080	-600	1700	-10	10	-10	-0	0	-0	250	-1.2	0.2	177	-1.2	-1	2555	0.07	1816	2409	8	56579	
10.6313	1.18863	-2.11984	160	121	2560	0	0.0154001	0.112258	-0.00688311	-0.0317468	0.0362398	-0.132017	0.0568272	0.0790285	0.119835	-0.0803022	-0.0103561	-0.152503	0	0	0	0	0	0	0.066672	0.072073	0.177	-0.04	-0.02	-0.066	0.0486292	0.345968	-0.0127984	-0.0649021	0.101901	-0.159386	0.0512042	-0.0718899	0.0712087	0.051694	-0.156419	-0	0.0661598	-0.103988	3.66735	0.066497	-0.0169297	0	-2.19421	-0.811891	-1080	1080	-600	1700	-10	10	-10	-0	0	-0	250	-1.2	0.2	177	-1.2	-1	2555	0.07	1816	2409	8	56579	
10.6414	1.18867	-2.12131	161	118	2564	0	0.0147634	0.109553	-0.0131121	-0.0315985	0.03734	-0.132149	0.0565998	0.0789718	0.121314	-0.0797838	-0.00780874	-0.146326	0	0	0	0	0	0	0.066672	0.072073	0.177	-0.04	-0.02	-0.066	0.0458402	0.337925	-0.0230372	-0.0650204	0.101745	-0.159438	0.0510728	-0.0719392	0.0712601	0.0515595	-0.156461	-0	0.0661778	-0.104017	3.66567	0.066497	-0.0169297	0	-2.19265	-0.812801	-1080	1080	-600	1700	-10	10	-10	-0	0	-0	250	-1.2	0.2	177	-1.2	-1	2555	0.07	1816	2409	8	56579	
10.6514	1.18873	-2.12812	161	115	2566	0	0.0145975	0.106903	-0.0169698	-0.0314529	0.038406	-0.132318	0.0561732	0.0789476	0.128115	-0.079777	-0.00559222	-0.142679	0	0	0	0	0	0	0.066672	0.072073	0.183	-0.04	-0.02	-0.069	0.045876	0.329598	-0.0281566	-0.0651795	0.101311	-0.159649	0.0507304	-0.0719738	0.0712981	0.0512111	-0.156653	-0	0.0662745	-0.104169	3.6567	0.066497	-0.0169297	0	-2.18922	-0.814796	-1080	1080	-600	1700	-10	10	-10	-0	0	-0	250	-1.2	0.2	177	-1.2	-1	2555	0.07	1816	2409	8	56579	
10.6613	1.18875	-2.13742	162	112	2567	0	0.0136102	0.103995	-0.0188225	-0.0313176	0.0394399	-0.132505	0.0561028	0.0789197	0.137425	-0.0785487	-0.00292003	-0.141074	0	0	0	0	0	0	0.066672	0.072073	0.192	-0.04	-0.02	-0.074	0.0430255	0.321132	-0.0307162	-0.0649384	0.101075	-0.159897	0.0505647	-0.0718025	0.0711293	0.0510433	-0.156917	-0	0.0652595	-0.105337	3.65114	0.0666716	-0.0171042	0	-2.18879	-0.815043	-1080	1080	-600	1700	-10	10	-10	-0	0	-0	250	-1.2	0.2	177	-1.2	-1	2555	0.07	1816	2409	8	56579	
10.6713	1.18875	-2.13932	163	109	2571	0	0.0128079	0.101213	-0.0256092	-0.0311894	0.040453	-0.132762	0.0560468	0.0789789	0.139318	-0.0777826	-0.00025377	-0.134345	0	0	0	0	0	0	0.066672	0.072073	0.192	-0.04	-0.02	-0.074	0.0402198	0.313023	-0.040955	-0.0649747	0.100959	-0.159955	0.0504784	-0.0718055	0.071132	0.0509563	-0.15697	-0	0.0652878	-0.105383	3.64847	0.0666716	-0.0171042	0	-2.18797	-0.81552	-1080	1080	-600	1700	-10	10	-10	-0	0	-0	250	-1.2	0.2	177	-1.2	-1	2555	0.07	1816	2409	8	56579	
10.6814	1.18874	-2.149	164	106	2573	0	0.0119802	0.0982667	-0.028062	-0.0310686	0.041444	-0.133045	0.0559923	0.0790572	0.148999	-0.0767837	0.00237993	-0.132159	0	0	0	0	0	0	0.066672	0.072073	0.201	-0.04	-0.02	-0.078	0.037376	0.304651	-0.0460744	-0.0648034	0.100647	-0.160221	0.0502719	-0.0716529	0.0709804	0.0507481	-0.157242	-0	0.0653914	-0.10555	3.63869	0.0666716	-0.0171042	0	-2.18704	-0.816057	-1080	1080	-600	1700	-10	10	-10	-0	0	-0	250	-1.2	0.2	177	-1.2	-1	2555	0.07	1816	2409	8	56579	
10.6915	1.18873	-2.15693	165	103	2574	0	0.0112723	0.095477	-0.0308651	-0.0309552	0.0424047	-0.133355	0.0558967	0.0791675	0.156927	-0.0759868	0.00488126	-0.129573	0	0	0	0	0	0	0.066672	0.072073	0.208	-0.04	-0.02	-0.081	0.0345144	0.29615	-0.0486341	-0.0647146	0.100358	-0.160438	0.0500535	-0.0715638	0.0708917	0.0505281	-0.157463	-0	0.0643512	-0.106688	3.63515	0.0668461	-0.0172788	0	-2.18558	-0.816901	-1080	1080	-600	1700	-10	10	-10	-0	0	-0	250	-1.2	0.2	177	-1.2	-1	2555	0.07	1816	2409	8	56579	
10.7014	1.18872	-2.15867	165	100	2577	0	0.0105561	0.0930129	-0.0359996	-0.0308506	0.043326	-0.133712	0.055817	0.0792891	0.158667	-0.0753658	0.00719157	-0.124496	0	0	0	0	0	0	0.066672	0.072073	0.208	-0.04	-0.02	-0.081	0.0345546	0.287865	-0.0563131	-0.0648097	0.100204	-0.160495	0.0499292	-0.0715986	0.0709254	0.0504031	-0.157511	-0	0.0643934	-0.106758	3.63111	0.0668461	-0.0172788	0	-2.18418	-0.817705	-1080	1080	-600	1700	-10	10	-10	-0	0	-0	250	-1.2	0.2	177	-1.2	-1	2555	0.07	1816	2409	8	56579	
10.7113	1.18871	-2.16786	166	98	2577	0	0.00972471	0.090411	-0.035746	-0.030754	0.0442239	-0.134067	0.0557204	0.0794146	0.167856	-0.0744364	0.00947732	-0.124986	0	0	0	0	0	0	0.066672	0.072073	0.217	-0.04	-0.02	-0.086	0.0316751	0.282111	-0.0563131	-0.0647117	0.0998883	-0.160732	0.0496869	-0.0714883	0.0708154	0.0501589	-0.157765	-0	0.0644705	-0.107966	3.62371	0.0668461	-0.0174533	0	-2.18262	-0.818601	-1080	1080	-600	1700	-10	10	-10	-0	0	-0	250	-1.2	0.2	177	-1.2	-1	2555	0.07	1816	2409	8	56579	
10.7214	1.18868	-2.17731	167	95	2577	0	0.00878792	0.0878619	-0.0359563	-0.0306654	0.0451104	-0.134429	0.0556924	0.0795561	0.177309	-0.0733373	0.0117274	-0.125026	0	0	0	0	0	0	0.066672	0.072073	0.226	-0.04	-0.02	-0.09	0.0287955	0.27348	-0.0563131	-0.0645494	0.0995893	-0.160982	0.0494757	-0.0713485	0.0706757	0.0499468	-0.158025	-0	0.0633872	-0.109039	3.62406	0.0670206	-0.0176278	0	-2.18155	-0.819217	-1080	1080	-600	1700	-10	10	-10	-0	0	-0	250	-1.2	0.2	177	-1.2	-1	2555	0.07	1816	2409	8	56579	
10.7314	1.18865	-2.17891	168	92	2580	0	0.00789484	0.0856635	-0.039562	-0.0305865	0.0459662	-0.134825	0.0556862	0.0797132	0.178908	-0.0725018	0.013807	-0.121471	0	0	0	0	0	0	0.066672	0.072073	0.226	-0.04	-0.02	-0.09	0.0259462	0.265157	-0.0639922	-0.0646069	0.0994704	-0.161033	0.0493829	-0.071365	0.0706902	0.0498543	-0.158069	-0	0.0633904	-0.109044	3.62375	0.0670206	-0.0176278	0	-2.18057	-0.819778	-1080	1080	-600	1700	-10	10	-10	-0	0	-0	250	-1.2	0.2	177	-1.2	-1	2555	0.07	1816	2409	8	56579	
10.7413	1.18862	-2.18893	169	90	2579	0	0.00684431	0.0831689	-0.0379498	-0.0305188	0.0467891	-0.1352	0.0556985	0.0798937	0.188933	-0.0712766	0.0159812	-0.12335	0	0	0	0	0	0	0.066672	0.072073	0.236	-0.04	-0.02	-0.095	0.0230543	0.259295	-0.0614325	-0.0644323	0.0991501	-0.1613	0.0491725	-0.0712083	0.0705328	0.0496434	-0.158342	-0	0.0634437	-0.109136	3.61855	0.0670206	-0.0176278	0	-2.17961	-0.820326	-1080	1080	-600	1700	-10	10	-10	-0	0	-0	250	-1.2	0.2	177	-1.2	-1	2555	0.07	1816	2409	8	56579	
10.7512	1.17182	-2.19754	219	40	2582	0	-0.0421748	0.000991022	-0.0429176	-0.0309398	0.046799	-0.135629	0.108101	0.1086	0.197535	-0.00475732	0.108555	-0.117697	0	0	0	0	0	0	0.088896	0.0855128	0.244	0.06	0.03	-0.098	-0.12117	0.1154	-0.0691115	-0.0469321	0.109546	-0.160614	0.0598083	-0.0615293	0.0600846	0.0612463	-0.158984	-0	0.0623398	-0.108015	3.62086	0.0671952	-0.0174533	0	-2.35389	-0.708735	-1080	1080	-600	1700	-10	10	-10	-0	0	-0	250	-1.2	0.2	177	-1.2	-1	2555	0.07	1823	2412	8	56579	
10.7613	1.1717	-2.19901	224	0	2583	0	-0.0432822	-0.0010396	-0.0453388	-0.0313772	0.0467885	-0.136087	0.108306	0.108866	0.199005	-0.00365572	0.110519	-0.115319	0	0	0	0	0	0	0.088896	0.0855128	0.244	0.06	0.03	-0.098	-0.135645	0	-0.0716712	-0.0469379	0.10948	-0.160658	0.0597613	-0.0615213	0.0600705	0.0612047	-0.159026	-0	0.062412	-0.10814	3.6137	0.0671952	-0.0174533	0	-2.35361	-0.708929	-1080	1080	-600	1700	-10	10	-10	-0	0	-0	250	-1.2	0.2	177	-1.2	-1	2555	0.07	1823	2412	8	56579	
10.7714	1.17157	-2.2079	224	-1	2581	0	-0.0439893	-0.00143555	-0.0424115	-0.0318184	0.0467741	-0.136512	0.108534	0.109148	0.207896	-0.00281514	0.110598	-0.118501	0	0	0	0	0	0	0.088896	0.0855128	0.253	0.06	0.03	-0.103	-0.13554	-0.00288403	-0.0665519	-0.0468044	0.109163	-0.160913	0.0595889	-0.0613802	0.059926	0.061035	-0.159265	-0	0.0624472	-0.107119	3.6102	0.0671952	-0.0172788	0	-2.35337	-0.709098	-1080	1080	-600	1700	-10	10	-10	-0	0	-0	250	-1.2	0.2	177	-1.2	-1	2555	0.07	1823	2412	8	56579	
10.7813	1.17142	-2.20921	225	0	2582	0	-0.0449404	-0.000543484	-0.0440321	-0.0322663	0.0467687	-0.136951	0.108794	0.109458	0.209213	-0.00186764	0.109646	-0.11692	0	0	0	0	0	0	0.088896	0.0855128	0.253	0.06	0.03	-0.103	-0.138477	0	-0.0691115	-0.0468081	0.109102	-0.160952	0.0595468	-0.0613719	0.0599102	0.0609997	-0.159303	-0	0.0624048	-0.107047	3.61441	0.0671952	-0.0172788	0	-2.35315	-0.709254	-1080	1080	-600	1700	-10	10	-10	-0	0	-0	250	-1.2	0.2	177	-1.2	-1	2555	0.07	1823	2412	8	56579	
10.7913	1.17128	-2.21658	227	0	2581	0	-0.0460802	0.000287448	-0.0424537	-0.0327242	0.0467715	-0.137373	0.109063	0.109709	0.216582	-0.000587772	0.10862	-0.118672	0	0	0	0	0	0	0.088896	0.0855128	0.26	0.06	0.03	-0.106	-0.14419	0	-0.0665519	-0.046668	0.108907	-0.161125	0.0594207	-0.0612381	0.0597726	0.0608775	-0.1595	-0	0.0624285	-0.108169	3.61207	0.0671952	-0.0174533	0	-2.35324	-0.709192	-1080	1080	-600	1700	-10	10	-10	-0	0	-0	250	-1.2	0.2	177	-1.2	-1	2555	0.07	1823	2412	8	56579	
10.8012	1.17115	-2.22392	228	1	2580	0	-0.0471815	0.00106677	-0.0406154	-0.0331934	0.0467821	-0.137777	0.10933	0.109954	0.223923	0.000625829	0.107648	-0.120672	0	0	0	0	0	0	0.088896	0.0855128	0.267	0.06	0.03	-0.109	-0.147017	0.00288292	-0.0639922	-0.0465557	0.108714	-0.161288	0.0592963	-0.0611042	0.0596351	0.0607571	-0.159695	-0	0.063487	-0.109211	3.61433	0.0670206	-0.0176278	0	-2.35335	-0.709118	-1080	1080	-600	1700	-10	10	-10	-0	0	-0	250	-1.2	0.2	177	-1.2	-1	2555	0.07	1823	2412	8	56579	
10.8113	1.17101	-2.2251	229	2	2581	0	-0.0482197	0.00210825	-0.0414154	-0.0336771	0.0468033	-0.138192	0.109623	0.110172	0.225104	0.00171851	0.106584	-0.119903	0	0	0	0	0	0	0.088896	0.0855128	0.267	0.06	0.03	-0.109	-0.149957	0.00576806	-0.0665519	-0.0465012	0.108692	-0.161319	0.0592914	-0.0610635	0.0595885	0.0607591	-0.159729	-0	0.0634599	-0.109164	3.61696	0.0670206	-0.0176278	0	-2.3537	-0.708872	-1080	1080	-600	1700	-10	10	-10	-0	0	-0	250	-1.2	0.2	177	-1.2	-1	2555	0.07	1823	2412	8	56579	
10.8213	1.17087	-2.23064	230	3	2580	0	-0.0492451	0.00286525	-0.0401168	-0.0341734	0.0468322	-0.138597	0.109934	0.110418	0.230636	0.002872	0.105699	-0.121324	0	0	0	0	0	0	0.088896	0.0855128	0.272	0.06	0.03	-0.111	-0.152781	0.00864874	-0.0639922	-0.0463731	0.108565	-0.161441	0.0592095	-0.0609497	0.05947	0.0606827	-0.159876	-0	0.0634718	-0.110265	3.6158	0.0670206	-0.0178024	0	-2.354	-0.708657	-1080	1080	-600	1700	-10	10	-10	-0	0	-0	250	-1.2	0.2	177	-1.2	-1	2555	0.07	1823	2412	8	56579	
10.8314	1.17072	-2.23512	231	4	2579	0	-0.0502808	0.00364685	-0.0385765	-0.0346773	0.0468687	-0.138983	0.110251	0.110639	0.235122	0.0040593	0.104802	-0.122986	0	0	0	0	0	0	0.088896	0.0855128	0.276	0.06	0.03	-0.113	-0.155603	0.0115272	-0.0614325	-0.0462214	0.108449	-0.161563	0.0591535	-0.0608462	0.0593618	0.0606327	-0.159995	-0	0.0623721	-0.110232	3.61766	0.0671952	-0.0178024	0	-2.35444	-0.708348	-1080	1080	-600	1700	-10	10	-10	-0	0	-0	250	-1.2	0.2	177	-1.2	-1	2555	0.07	1823	2412	8	56579	
10.8414	1.17058	-2.23613	232	5	2579	0	-0.0512337	0.00455619	-0.0387974	-0.03519	0.0469143	-0.139371	0.110584	0.110849	0.236131	0.0050853	0.103887	-0.12279	0	0	0	0	0	0	0.088896	0.0855128	0.276	0.06	0.03	-0.113	-0.158484	0.014409	-0.0614325	-0.0461484	0.108443	-0.161587	0.0591636	-0.0607961	0.0593056	0.0606506	-0.160025	-0	0.0623498	-0.110193	3.61987	0.0671952	-0.0178024	0	-2.355	-0.707953	-1080	1080	-600	1700	-10	10	-10	-0	0	-0	250	-1.2	0.2	177	-1.2	-1	2555	0.07	1823	2412	8	56579	
10.853	1.17044	-2.24083	233	6	2579	0	-0.0521565	0.00528068	-0.0379657	-0.0357993	0.046976	-0.139815	0.110923	0.111056	0.240828	0.00615156	0.103077	-0.12372	0	0	0	0	0	0	0.088896	0.0855128	0.28	0.06	0.03	-0.114	-0.161365	0.0172908	-0.0614325	-0.046005	0.108358	-0.161685	0.0591135	-0.0606794	0.0591844	0.0606067	-0.160149	-0	0.0623531	-0.111279	3.61954	0.0671952	-0.0179769	0	-2.35559	-0.707531	-1080	1080	-600	1700	-10	10	-10	-0	0	-0	250	-1.2	0.2	177	-1.2	-1	2555	0.07	1823	2412	8	56579	
10.8612	1.17029	-2.2445	234	6	2578	0	-0.0530945	0.0059623	-0.0370029	-0.036233	0.0470247	-0.140117	0.111281	0.11126	0.244498	0.00719559	0.10229	-0.124783	0	0	0	0	0	0	0.088896	0.0855128	0.283	0.06	0.03	-0.115	-0.164182	0.0172841	-0.0588728	-0.0458989	0.108252	-0.161786	0.0590863	-0.060575	0.0590751	0.0605866	-0.160246	-0	0.0634213	-0.110178	3.62073	0.0670206	-0.0178024	0	-2.35629	-0.70704	-1080	1080	-600	1700	-10	10	-10	-0	0	-0	250	-1.2	0.2	177	-1.2	-1	2555	0.07	1823	2412	8	56579	
10.873	1.16999	-2.24521	235	7	2578	0	-0.0536818	0.00659006	-0.0367831	-0.0368642	0.0471022	-0.14055	0.112008	0.111653	0.245211	0.00794367	0.101709	-0.125017	0	0	0	0	0	0	0.088896	0.0855128	0.283	0.06	0.03	-0.115	-0.167062	0.0201647	-0.0588728	-0.0457381	0.108299	-0.1618	0.0591496	-0.0604752	0.0589626	0.060667	-0.160272	-0	0.0634072	-0.110153	3.62211	0.0670206	-0.0178024	0	-2.35778	-0.705986	-1080	1080	-600	1700	-10	10	-10	-0	0	-0	250	-1.2	0.2	177	-1.2	-1	2555	0.07	1823	2412	8	56579	
10.8812	1.1696	-2.24944	236	6	2578	0	-0.0551521	0.0057358	-0.0372633	-0.0373183	0.0471494	-0.140856	0.112984	0.11209	0.249438	0.0097585	0.102553	-0.124641	0	0	0	0	0	0	0.088896	0.0855128	0.286	0.06	0.03	-0.116	-0.169941	0.0172841	-0.0588728	-0.0453936	0.108289	-0.161904	0.0592029	-0.0602605	0.0587341	0.0607414	-0.160389	-0	0.0623242	-0.110148	3.62242	0.0671952	-0.0178024	0	-2.36017	-0.704291	-1080	1080	-600	1700	-10	10	-10	-0	0	-0	250	-1.2	0.2	177	-1.2	-1	2555	0.07	1823	2412	8	56579	
10.8926	1.16934	-2.25376	237	7	2577	0	-0.0557333	0.00669635	-0.0358904	-0.0379511	0.0472254	-0.141264	0.113697	0.112343	0.253763	0.0106495	0.101535	-0.126138	0	0	0	0	0	0	0.088896	0.0855128	0.29	0.06	0.03	-0.118	-0.172754	0.0201569	-0.0563131	-0.0450838	0.108232	-0.162029	0.0592369	-0.060066	0.0585314	0.0607899	-0.160505	-0	0.0612512	-0.10908	3.62172	0.0673697	-0.0176278	0	-2.36218	-0.702859	-1080	1080	-600	1700	-10	10	-10	-0	0	-0	250	-1.2	0.2	177	-1.2	-1	2555	0.07	1823	2412	8	56579	
10.9013	1.16961	-2.25478	237	12	2577	0	-0.0553948	0.0113254	-0.0353494	-0.0384365	0.0473247	-0.141574	0.113452	0.111607	0.254785	0.0105688	0.0970129	-0.12668	0	0	0	0	0	0	0.088896	0.0855128	0.29	0.06	0.03	-0.118	-0.172754	0.0345546	-0.0563131	-0.044826	0.108338	-0.162029	0.0593597	-0.0599117	0.0583943	0.0609023	-0.160524	-0	0.0612318	-0.109046	3.62368	0.0673697	-0.0176278	0	-2.36439	-0.701286	-1080	1080	-600	1700	-10	10	-10	-0	0	-0	250	-1.2	0.2	177	-1.2	-1	2555	0.07	1823	2412	8	56579	
10.9112	1.16975	-2.25809	236	17	2576	0	-0.0547238	0.0154339	-0.0336878	-0.0389781	0.0474774	-0.141907	0.113366	0.111156	0.258088	0.010133	0.0929333	-0.128387	0	0	0	0	0	0	0.088896	0.0855128	0.293	0.06	0.03	-0.119	-0.16981	0.0489331	-0.0537534	-0.0445908	0.108367	-0.162075	0.0594057	-0.0597538	0.0582475	0.0609419	-0.160604	-0	0.0612241	-0.110111	3.62446	0.0673697	-0.0178024	0	-2.36604	-0.700112	-1080	1080	-600	1700	-10	10	-10	-0	0	-0	250	-1.2	0.2	177	-1.2	-1	2555	0.07	1823	2412	8	56579	
10.9213	1.17001	-2.25895	235	21	2576	0	-0.0542077	0.0197785	-0.0330844	-0.0395237	0.0476765	-0.14224	0.113118	0.110431	0.258954	0.00986816	0.0886964	-0.128987	0	0	0	0	0	0	0.088896	0.0855128	0.293	0.06	0.03	-0.119	-0.166932	0.0604465	-0.0537534	-0.0443395	0.108475	-0.162072	0.0595283	-0.0596042	0.0581147	0.0610541	-0.16062	-0	0.0612005	-0.110069	3.62684	0.0673697	-0.0178024	0	-2.36821	-0.698559	-1080	1080	-600	1700	-10	10	-10	-0	0	-0	250	-1.2	0.2	177	-1.2	-1	2555	0.07	1823	2412	8	56579	
10.9313	1.17022	-2.26238	235	25	2575	0	-0.0535076	0.0235936	-0.0315327	-0.0400587	0.0479124	-0.142555	0.112927	0.109839	0.262375	0.00947492	0.0849299	-0.13059	0	0	0	0	0	0	0.088896	0.0855128	0.296	0.06	0.03	-0.12	-0.166867	0.0719318	-0.0511937	-0.0440327	0.108524	-0.162123	0.059586	-0.0594316	0.0579566	0.0611024	-0.160701	-0	0.060113	-0.111133	3.6277	0.0675442	-0.0179769	0	-2.37006	-0.697238	-1080	1080	-600	1700	-10	10	-10	-0	0	-0	250	-1.2	0.2	177	-1.2	-1	2555	0.07	1823	2412	8	56579	
10.9414	1.17043	-2.26407	234	29	2575	0	-0.0527321	0.0272519	-0.0309587	-0.0405941	0.0481891	-0.14287	0.112727	0.109245	0.264068	0.0089269	0.0813319	-0.131185	0	0	0	0	0	0	0.088896	0.0855128	0.297	0.06	0.03	-0.12	-0.163991	0.0834403	-0.0511937	-0.0438052	0.108584	-0.162144	0.0596716	-0.0592896	0.0578286	0.0611792	-0.160739	-0	0.0600914	-0.111093	3.62993	0.0675442	-0.0179769	0	-2.37188	-0.69593	-1080	1080	-600	1700	-10	10	-10	-0	0	-0	250	-1.2	0.2	177	-1.2	-1	2555	0.07	1823	2412	8	56579	
10.9513	1.17065	-2.26475	233	33	2574	0	-0.0519368	0.0307567	-0.0304908	-0.0411082	0.0484935	-0.143172	0.112516	0.108635	0.264752	0.00834593	0.0779194	-0.131649	0	0	0	0	0	0	0.088896	0.0855128	0.297	0.06	0.03	-0.12	-0.161052	0.0949117	-0.0486341	-0.0435909	0.108676	-0.16214	0.0597766	-0.0591622	0.057715	0.0612755	-0.160751	-0	0.0600834	-0.111078	3.63075	0.0675442	-0.0179769	0	-2.37374	-0.694592	-1080	1080	-600	1700	-10	10	-10	-0	0	-0	250	-1.2	0.2	177	-1.2	-1	2555	0.07	1823	2412	8	56579	
10.9614	1.17086	-2.26672	232	37	2575	0	-0.0509489	0.0340433	-0.0310967	-0.0416222	0.048837	-0.143485	0.112284	0.108036	0.266723	0.00758075	0.0746511	-0.131091	0	0	0	0	0	0	0.088896	0.0855128	0.298	0.06	0.03	-0.119	-0.158238	0.106457	-0.0511937	-0.0433682	0.108694	-0.162187	0.0598519	-0.059021	0.057588	0.0613413	-0.160795	-0	0.0600769	-0.109988	3.63141	0.0675442	-0.0178024	0	-2.37547	-0.693347	-1080	1080	-600	1700	-10	10	-10	-0	0	-0	250	-1.2	0.2	177	-1.2	-1	2555	0.07	1823	2412	8	56579	
10.9713	1.17109	-2.26566	231	40	2575	0	-0.0499924	0.0372303	-0.0316881	-0.0421157	0.0492045	-0.143798	0.11203	0.107423	0.265665	0.00679391	0.0716001	-0.130453	0	0	0	0	0	0	0.088896	0.0855128	0.296	0.06	0.03	-0.118	-0.155361	0.115087	-0.0511937	-0.0431985	0.10883	-0.162141	0.0599784	-0.0589315	0.0575118	0.061459	-0.160763	-0	0.0600855	-0.110003	3.63053	0.0675442	-0.0178024	0	-2.37719	-0.692109	-1080	1080	-600	1700	-10	10	-10	-0	0	-0	250	-1.2	0.2	177	-1.2	-1	2555	0.07	1823	2412	8	56579	
10.9813	1.17131	-2.26627	230	43	2575	0	-0.0490075	0.0401388	-0.0313861	-0.0426079	0.0496076	-0.144113	0.111775	0.106826	0.266266	0.00599952	0.0687737	-0.130751	0	0	0	0	0	0	0.088896	0.0855128	0.296	0.06	0.03	-0.118	-0.152485	0.123718	-0.0511937	-0.043008	0.108913	-0.162137	0.060072	-0.0588184	0.0574123	0.0615432	-0.160773	-0	0.0600939	-0.110019	3.62967	0.0675442	-0.0178024	0	-2.37883	-0.690922	-1080	1080	-600	1700	-10	10	-10	-0	0	-0	250	-1.2	0.2	177	-1.2	-1	2555	0.07	1823	2412	8	56579	
10.9914	1.17164	-2.2655	197	50	2575	0	-0.0188021	0.0463255	-0.0310721	-0.0427967	0.0500727	-0.144425	0.0994961	0.117189	0.265498	-0.0349131	0.0564849	-0.131853	0	0	0	0	0	0	0.088896	0.0934512	0.294	0.02	0.04	-0.116	-0.0575458	0.143855	-0.0511937	-0.0537152	0.10281	-0.162925	0.0538048	-0.0649064	0.0633725	0.0551071	-0.160746	-0	0.0600897	-0.111089	3.6301	0.0675442	-0.0179769	0	-2.27472	-0.762306	-1080	1080	-600	1700	-10	10	-10	-0	0	-0	250	-1.2	0.2	177	-1.2	-1	2555	0.07	1829	2415	8	56579	
11.0014	1.17186	-2.26195	196	53	2576	0	-0.0177539	0.0490272	-0.0337536	-0.0429744	0.0505635	-0.144763	0.0992211	0.116626	0.261955	-0.0358977	0.0539886	-0.129063	0	0	0	0	0	0	0.088896	0.0934512	0.289	0.02	0.04	-0.113	-0.0546898	0.152544	-0.0537534	-0.0536516	0.103016	-0.162817	0.0539318	-0.0649141	0.0633921	0.0552267	-0.160652	-0	0.0590069	-0.11216	3.63055	0.0677188	-0.0181514	0	-2.27573	-0.761651	-1080	1080	-600	1700	-10	10	-10	-0	0	-0	250	-1.2	0.2	177	-1.2	-1	2555	0.07	1829	2415	8	56579	
11.0112	1.17209	-2.26249	196	55	2576	0	-0.0175119	0.0508439	-0.0337071	-0.0431468	0.0510641	-0.145095	0.0989191	0.116078	0.262491	-0.0360418	0.0522218	-0.12911	0	0	0	0	0	0	0.088896	0.0934512	0.289	0.02	0.04	-0.113	-0.0546898	0.158299	-0.0537534	-0.0535537	0.103066	-0.162817	0.0539841	-0.0648567	0.0633482	0.0552696	-0.16066	-0	0.0590439	-0.11223	3.62668	0.0677188	-0.0181514	0	-2.27655	-0.76112	-1080	1080	-600	1700	-10	10	-10	-0	0	-0	250	-1.2	0.2	177	-1.2	-1	2555	0.07	1829	2415	8	56579	
11.023	1.17231	-2.25887	195	57	2578	0	-0.0171339	0.0526991	-0.0364924	-0.0433485	0.0516844	-0.145525	0.0986151	0.115532	0.25887	-0.0364064	0.0505326	-0.126224	0	0	0	0	0	0	0.088896	0.0934512	0.284	0.02	0.04	-0.11	-0.0518517	0.164182	-0.0588728	-0.0535403	0.103232	-0.162716	0.0540996	-0.0648769	0.06338	0.0553773	-0.160563	-0	0.0590433	-0.112229	3.62674	0.0677188	-0.0181514	0	-2.27736	-0.760595	-1080	1080	-600	1700	-10	10	-10	-0	0	-0	250	-1.2	0.2	177	-1.2	-1	2555	0.07	1829	2415	8	56579	
11.0314	1.17254	-2.2552	195	59	2580	0	-0.0167472	0.0544228	-0.0392774	-0.0434887	0.0521401	-0.145853	0.0983128	0.114985	0.255199	-0.0368076	0.049006	-0.123309	0	0	0	0	0	0	0.088896	0.0934512	0.279	0.02	0.04	-0.107	-0.0518919	0.170073	-0.0639922	-0.0535548	0.103429	-0.162587	0.0542173	-0.0648969	0.0634116	0.0554872	-0.160465	-0	0.0601615	-0.113382	3.62272	0.0675442	-0.018326	0	-2.27819	-0.760059	-1080	1080	-600	1700	-10	10	-10	-0	0	-0	250	-1.2	0.2	177	-1.2	-1	2555	0.07	1829	2415	8	56579	
11.0412	1.17283	-2.25541	195	60	2579	0	-0.0163281	0.0557116	-0.0391351	-0.0436492	0.0526878	-0.146238	0.0977181	0.114416	0.255406	-0.0372704	0.047692	-0.123453	0	0	0	0	0	0	0.088896	0.0934512	0.279	0.02	0.04	-0.107	-0.0518718	0.172888	-0.0614325	-0.0535985	0.103404	-0.162588	0.0541906	-0.0649206	0.0634508	0.0554459	-0.160463	-0	0.0602006	-0.113455	3.6187	0.0675442	-0.018326	0	-2.27764	-0.760415	-1080	1080	-600	1700	-10	10	-10	-0	0	-0	250	-1.2	0.2	177	-1.2	-1	2555	0.07	1829	2415	8	56579	
11.0512	1.17337	-2.25146	194	64	2580	0	-0.0156488	0.058981	-0.0405263	-0.0438062	0.0532795	-0.146645	0.0967697	0.113264	0.251464	-0.0379864	0.044592	-0.121942	0	0	0	0	0	0	0.088896	0.0934512	0.274	0.02	0.04	-0.104	-0.0490091	0.184483	-0.0639922	-0.0536352	0.103573	-0.162468	0.0542839	-0.0649782	0.0635362	0.0555159	-0.16035	-0	0.0591182	-0.114532	3.61889	0.0677188	-0.0185005	0	-2.27783	-0.760295	-1080	1080	-600	1700	-10	10	-10	-0	0	-0	250	-1.2	0.2	177	-1.2	-1	2555	0.07	1829	2415	8	56579	
11.0613	1.17357	-2.24737	194	64	2581	0	-0.0162027	0.0595021	-0.0423759	-0.0439688	0.0538766	-0.14707	0.0965812	0.11269	0.247372	-0.0373551	0.0442969	-0.119973	0	0	0	0	0	0	0.088896	0.0934512	0.269	0.02	0.04	-0.101	-0.0490281	0.184554	-0.0665519	-0.0535579	0.103799	-0.162349	0.054453	-0.0649665	0.0635355	0.0556795	-0.160241	-0	0.0591374	-0.114569	3.61688	0.0677188	-0.0185005	0	-2.27937	-0.759292	-1080	1080	-600	1700	-10	10	-10	-0	0	-0	250	-1.2	0.2	177	-1.2	-1	2555	0.07	1829	2415	8	56579	
11.0714	1.17356	-2.2477	194	62	2581	0	-0.0162083	0.0574222	-0.0424683	-0.0441321	0.0544551	-0.147498	0.0964799	0.112788	0.247695	-0.0374381	0.0463066	-0.119897	0	0	0	0	0	0	0.088896	0.0934512	0.269	0.02	0.04	-0.101	-0.0490281	0.178788	-0.0665519	-0.0536464	0.103729	-0.162365	0.0543878	-0.0650131	0.0635809	0.0556129	-0.16025	-0	0.0591629	-0.114619	3.61421	0.0677188	-0.0185005	0	-2.27842	-0.759906	-1080	1080	-600	1700	-10	10	-10	-0	0	-0	250	-1.2	0.2	177	-1.2	-1	2555	0.07	1829	2415	8	56579	
11.0814	1.17355	-2.24458	194	60	2583	0	-0.0161064	0.0553954	-0.0444702	-0.0442933	0.0550095	-0.147943	0.0963797	0.112921	0.244578	-0.037685	0.0483219	-0.117854	0	0	0	0	0	0	0.088896	0.0934512	0.265	0.02	0.04	-0.099	-0.0490661	0.173156	-0.0716712	-0.0537913	0.103717	-0.162324	0.0543659	-0.0651322	0.0636967	0.0555911	-0.16017	-0	0.0580829	-0.11354	3.61406	0.0678933	-0.018326	0	-2.27733	-0.76062	-1080	1080	-600	1700	-10	10	-10	-0	0	-0	250	-1.2	0.2	177	-1.2	-1	2555	0.07	1829	2415	8	56579	
11.0914	1.17354	-2.24481	194	58	2583	0	-0.0161183	0.0533449	-0.044538	-0.0444555	0.0555463	-0.148391	0.0962845	0.113062	0.24481	-0.0377793	0.0502937	-0.117801	0	0	0	0	0	0	0.088896	0.0934512	0.265	0.02	0.04	-0.099	-0.0490661	0.167386	-0.0716712	-0.0538976	0.103639	-0.162339	0.0542915	-0.0651892	0.0637516	0.0555158	-0.160177	-0	0.0581101	-0.113593	3.61117	0.0678933	-0.018326	0	-2.27622	-0.761334	-1080	1080	-600	1700	-10	10	-10	-0	0	-0	250	-1.2	0.2	177	-1.2	-1	2555	0.07	1829	2415	8	56579	
11.1012	1.17351	-2.24292	194	56	2584	0	-0.0160479	0.0513956	-0.0475073	-0.0446132	0.0560513	-0.148858	0.0962218	0.113227	0.242922	-0.0379647	0.0522273	-0.114804	0	0	0	0	0	0	0.088896	0.0934512	0.262	0.02	0.04	-0.096	-0.0490851	0.161677	-0.0742309	-0.0540126	0.103623	-0.162311	0.0542531	-0.0652826	0.0638412	0.055478	-0.160129	-0	0.0570292	-0.113595	3.61106	0.0680678	-0.018326	0	-2.27518	-0.76201	-1080	1080	-600	1700	-10	10	-10	-0	0	-0	250	-1.2	0.2	177	-1.2	-1	2555	0.07	1829	2415	8	56579	
11.1113	1.17347	-2.23967	194	54	2586	0	-0.0161329	0.0495283	-0.0494143	-0.0447745	0.0565466	-0.149352	0.096173	0.113405	0.23967	-0.0380496	0.0541181	-0.112825	0	0	0	0	0	0	0.088896	0.0934512	0.258	0.02	0.04	-0.094	-0.0491231	0.156025	-0.0793503	-0.0541825	0.103646	-0.16224	0.0542366	-0.0654006	0.0639546	0.0554629	-0.160046	-0	0.0570686	-0.113674	3.60678	0.0680678	-0.018326	0	-2.27416	-0.762673	-1080	1080	-600	1700	-10	10	-10	-0	0	-0	250	-1.2	0.2	177	-1.2	-1	2555	0.07	1829	2415	8	56579	
11.1213	1.17343	-2.23983	195	51	2586	0	-0.0163725	0.0476054	-0.0494296	-0.0449398	0.0570271	-0.149851	0.0961469	0.113576	0.239829	-0.037896	0.055977	-0.112822	0	0	0	0	0	0	0.088896	0.0934512	0.258	0.02	0.04	-0.094	-0.0520126	0.147358	-0.0793503	-0.0542685	0.103582	-0.162252	0.0541764	-0.0654467	0.0639974	0.0554032	-0.160051	-0	0.057094	-0.113724	3.60402	0.0680678	-0.018326	0	-2.27328	-0.763241	-1080	1080	-600	1700	-10	10	-10	-0	0	-0	250	-1.2	0.2	177	-1.2	-1	2555	0.07	1829	2415	8	56579	
11.1319	1.17338	-2.23855	195	50	2587	0	-0.0165496	0.0458207	-0.0513278	-0.0451145	0.0575108	-0.150393	0.0961354	0.113759	0.238555	-0.0378026	0.05774	-0.11091	0	0	0	0	0	0	0.088896	0.0934512	0.256	0.02	0.04	-0.092	-0.0520327	0.144525	-0.08191	-0.0543522	0.103561	-0.162238	0.0541399	-0.0655181	0.0640647	0.0553681	-0.16002	-0	0.0560112	-0.113725	3.60398	0.0682424	-0.018326	0	-2.27243	-0.76379	-1080	1080	-600	1700	-10	10	-10	-0	0	-0	250	-1.2	0.2	177	-1.2	-1	2555	0.07	1829	2415	8	56579	
11.1413	1.16809	-2.23864	245	100	2589	0	-0.0851038	0.1069	-0.0548881	-0.0459171	0.058519	-0.15091	0.139475	0.0844993	0.238643	0.0659627	0.0119891	-0.104796	0	0	0	0	0	0	0.11112	0.0910142	0.256	0.09	-0.05	-0.092	-0.196693	0.289205	-0.0870294	-0.0191412	0.118889	-0.159684	0.07147	-0.0444822	0.0432993	0.0734226	-0.160149	-0	0.0549524	-0.113775	3.60124	0.0684169	-0.018326	0	-2.59689	-0.518163	-1080	1080	-600	1700	-10	10	-10	-0	0	-0	250	-1.2	0.2	177	-1.2	-1	2555	0.07	1836	2417	8	56579	
11.1532	1.168	-2.23866	269	114	2589	0	-0.0853863	0.105197	-0.0547334	-0.0469339	0.0597717	-0.151562	0.139634	0.0846658	0.238656	0.0661994	0.0136765	-0.104957	0	0	0	0	0	0	0.11112	0.0910142	0.256	0.09	-0.05	-0.092	-0.266082	0.329663	-0.0870294	-0.0191869	0.118874	-0.15969	0.0714495	-0.0445095	0.0433226	0.073407	-0.160151	-0	0.0549979	-0.113869	3.5961	0.0684169	-0.018326	0	-2.59652	-0.518476	-1080	1080	-600	1700	-10	10	-10	-0	0	-0	250	-1.2	0.2	177	-1.2	-1	2555	0.07	1836	2417	8	56579	
11.1613	1.16792	-2.23807	268	111	2589	0	-0.083905	0.102992	-0.0554563	-0.0476103	0.060602	-0.152009	0.139754	0.0848575	0.238069	0.0646366	0.0158507	-0.104247	0	0	0	0	0	0	0.11112	0.0910142	0.255	0.09	-0.05	-0.091	-0.263191	0.320994	-0.0870294	-0.0192684	0.118843	-0.159703	0.0714305	-0.0445634	0.0433721	0.0733924	-0.160138	-0	0.0549961	-0.112781	3.59631	0.0684169	-0.0181514	0	-2.5959	-0.51901	-1080	1080	-600	1700	-10	10	-10	-0	0	-0	250	-1.2	0.2	177	-1.2	-1	2555	0.07	1836	2417	8	56579	
11.1713	1.16783	-2.23666	265	109	2590	0	-0.08144	0.100734	-0.0570301	-0.0484276	0.0616129	-0.152582	0.139913	0.0850612	0.236663	0.0621169	0.018162	-0.102627	0	0	0	0	0	0	0.11112	0.0910142	0.253	0.09	-0.05	-0.089	-0.254617	0.315337	-0.089589	-0.0193231	0.118896	-0.159657	0.0714302	-0.044623	0.0434266	0.0733981	-0.160104	-0	0.0539207	-0.113885	3.59525	0.0685914	-0.018326	0	-2.59534	-0.519487	-1080	1080	-600	1700	-10	10	-10	-0	0	-0	250	-1.2	0.2	177	-1.2	-1	2555	0.07	1836	2417	8	56579	
11.1814	1.16774	-2.23665	263	107	2590	0	-0.0793087	0.0985255	-0.0566211	-0.0492242	0.0626025	-0.15315	0.14005	0.0852779	0.236651	0.0599013	0.0203457	-0.103044	0	0	0	0	0	0	0.11112	0.0910142	0.253	0.09	-0.05	-0.089	-0.248833	0.309555	-0.089589	-0.0194073	0.118871	-0.159665	0.0713956	-0.0446748	0.0434736	0.0733682	-0.160106	-0	0.0539405	-0.113927	3.59298	0.0685914	-0.018326	0	-2.59465	-0.520082	-1080	1080	-600	1700	-10	10	-10	-0	0	-0	250	-1.2	0.2	177	-1.2	-1	2555	0.07	1836	2417	8	56579	
11.1914	1.16766	-2.23611	261	104	2590	0	-0.0775524	0.0963813	-0.057372	-0.0499994	0.0635659	-0.153724	0.140099	0.0855845	0.23611	0.057998	0.0224605	-0.102297	0	0	0	0	0	0	0.11112	0.0910142	0.252	0.09	-0.05	-0.088	-0.243049	0.300882	-0.089589	-0.0195545	0.118842	-0.159669	0.07134	-0.0447879	0.0435807	0.0733161	-0.160094	-0	0.0528506	-0.113916	3.59355	0.068766	-0.018326	0	-2.59321	-0.521311	-1080	1080	-600	1700	-10	10	-10	-0	0	-0	250	-1.2	0.2	177	-1.2	-1	2555	0.07	1836	2417	8	56579	
11.2013	1.16751	-2.2342	258	102	2591	0	-0.0752065	0.0939567	-0.05791	-0.0507489	0.0645022	-0.154301	0.140348	0.0858804	0.234201	0.0555602	0.0249238	-0.101719	0	0	0	0	0	0	0.11112	0.0910142	0.25	0.09	-0.05	-0.087	-0.234463	0.295214	-0.0921487	-0.0196463	0.118881	-0.159629	0.0713393	-0.044868	0.0436533	0.0733244	-0.160048	-0	0.0528599	-0.113936	3.59246	0.068766	-0.018326	0	-2.59246	-0.521947	-1080	1080	-600	1700	-10	10	-10	-0	0	-0	250	-1.2	0.2	177	-1.2	-1	2555	0.07	1836	2417	8	56579	
11.2114	1.16742	-2.23431	257	99	2591	0	-0.0737529	0.0918478	-0.0577499	-0.0514886	0.0654235	-0.15488	0.140424	0.0862203	0.234309	0.0539285	0.0269785	-0.101897	0	0	0	0	0	0	0.11112	0.0910142	0.25	0.09	-0.05	-0.087	-0.231569	0.286536	-0.0921487	-0.0198244	0.118826	-0.159647	0.0712659	-0.0449785	0.0437572	0.073255	-0.160054	-0	0.0528666	-0.113951	3.59167	0.068766	-0.018326	0	-2.59094	-0.52324	-1080	1080	-600	1700	-10	10	-10	-0	0	-0	250	-1.2	0.2	177	-1.2	-1	2555	0.07	1836	2417	8	56579	
11.2213	1.16729	-2.2317	255	97	2592	0	-0.0718034	0.0898202	-0.0592481	-0.0521987	0.0663118	-0.155466	0.14063	0.0865046	0.231705	0.051852	0.0290607	-0.100343	0	0	0	0	0	0	0.11112	0.0910142	0.247	0.09	-0.05	-0.085	-0.22587	0.280859	-0.0947084	-0.0199514	0.118881	-0.159591	0.0712769	-0.0450726	0.043844	0.0732744	-0.159989	-0	0.0528648	-0.113947	3.59188	0.068766	-0.018326	0	-2.59013	-0.523935	-1080	1080	-600	1700	-10	10	-10	-0	0	-0	250	-1.2	0.2	177	-1.2	-1	2555	0.07	1836	2417	8	56579	
11.2314	1.16719	-2.2316	253	95	2591	0	-0.0702619	0.0879571	-0.0588974	-0.0529092	0.0672011	-0.156062	0.140754	0.086798	0.231597	0.0501758	0.0308883	-0.100703	0	0	0	0	0	0	0.11112	0.0910142	0.247	0.09	-0.05	-0.085	-0.219995	0.274966	-0.0921487	-0.0200861	0.118845	-0.159601	0.0712249	-0.0451567	0.0439219	0.0732273	-0.159989	-0	0.0528832	-0.113986	3.58971	0.068766	-0.018326	0	-2.58901	-0.524888	-1080	1080	-600	1700	-10	10	-10	-0	0	-0	250	-1.2	0.2	177	-1.2	-1	2555	0.07	1836	2417	8	56579	
11.2414	1.16709	-2.2298	251	93	2592	0	-0.0688784	0.0863021	-0.0595087	-0.0535968	0.0680628	-0.156656	0.140862	0.0870863	0.229796	0.0486659	0.0325348	-0.100082	0	0	0	0	0	0	0.11112	0.0910142	0.245	0.09	-0.05	-0.084	-0.214291	0.269284	-0.0947084	-0.0202125	0.118837	-0.159591	0.0712067	-0.045264	0.0440226	0.0732147	-0.159945	-0	0.0517935	-0.112892	3.5902	0.0689405	-0.0181514	0	-2.58787	-0.525856	-1080	1080	-600	1700	-10	10	-10	-0	0	-0	250	-1.2	0.2	177	-1.2	-1	2555	0.07	1836	2417	8	56579	
11.2514	1.16699	-2.22724	250	92	2593	0	-0.0674855	0.0848009	-0.0610923	-0.0542742	0.0689139	-0.157269	0.140975	0.0873632	0.227237	0.0471186	0.0340547	-0.098465	0	0	0	0	0	0	0.11112	0.0910142	0.242	0.09	-0.05	-0.082	-0.211477	0.266493	-0.0972681	-0.0203669	0.118856	-0.159557	0.0712073	-0.0453758	0.0441277	0.0732213	-0.159881	-0	0.051801	-0.111823	3.58931	0.0689405	-0.0179769	0	-2.58681	-0.52676	-1080	1080	-600	1700	-10	10	-10	-0	0	-0	250	-1.2	0.2	177	-1.2	-1	2555	0.07	1836	2417	8	56579	
11.2613	1.16691	-2.2271	249	90	2593	0	-0.0663718	0.0833656	-0.0607049	-0.0549347	0.0697436	-0.157873	0.141057	0.0876301	0.2271	0.0458723	0.0354562	-0.0988606	0	0	0	0	0	0	0.11112	0.0910142	0.242	0.09	-0.05	-0.082	-0.208581	0.260703	-0.0972681	-0.0204995	0.118822	-0.159565	0.0711571	-0.0454591	0.0442055	0.073175	-0.159879	-0	0.0518201	-0.111864	3.58701	0.0689405	-0.0179769	0	-2.5857	-0.527699	-1080	1080	-600	1700	-10	10	-10	-0	0	-0	250	-1.2	0.2	177	-1.2	-1	2555	0.07	1836	2417	8	56579	
