time ;e1;e2;ctrlpitch;ctrlroll;ctrlthrust;ctrlyaw;edx;edy;edz;cumulx;cumuly;cumulz;x_pred;y_pred;z_pred;dxr_pred;dyr_pred;dzr_pred;dxrT;dyrT;dzrT;dxrUn;dyrUn;dzrUn;x;y;z;dx;dy;dz;ux;uy;uz;dxd;dyd;dzd;Perpx;Tangx;Perpy;Tangy;Perpz;Tanz;ax;ay;az;pitch;roll;yaw;yawd;eyaw;kpvx;kpvy;kpvz;kpyaw;kivx;kivy;kivz;kdvx;kdvy;kdvz;kdyaw;ktg;veld;pitchoff;ke1;ke2;gravity;thr_vel;gps_accuracy;height_accuracy;gps_sat_num;gps_status
19,8771;1,18611;-2,36638;50;50;1450;-50;0,00898633;0,120978;-0,159008;2,1684e-05;0,000291921;-0,000383686;0,100008;0,039692;0,366375;0;0;0;0;0;0;0;0;0;0,100008;0,039692;0,366;0;0;0;0,205665;0,0810057;2,82845;0,00898633;0,120978;-0,159008;0,0758664;-0,0304631;0,0301105;0,076755;-0,162844;-0;-0;-0;9,81;0,0804597;-0,0307178;0;-2,76377;-0,368896;-1080;1080;-600;1700;-10;10;-10;-0;0;-0;250;-1,2;0,2;177;-1,2;-1;2555;0,07;1415;1639;9;56579;
19,8848;1,18611;-2,36538;100;100;1500;-100;0,0090117;0,121038;-0,158961;9,13535e-05;0,00122766;-0,00161261;0,100008;0,039692;0,365375;0;0;0;0;0;0;0;0;0;0,100008;0,039692;0,365;0;0;0;0,129036;0,167558;2,70047;0,0090117;0,121038;-0,158961;0,0758876;-0,0304717;0,0301189;0,0767765;-0,162821;-0;-0,021411;-0,19645;3,4498;0,0806342;-0,0308923;0;-2,76377;-0,368896;-1080;1080;-600;1700;-10;10;-10;-0;0;-0;250;-1,2;0,2;177;-1,2;-1;2555;0,07;1415;1639;9;56579;
19,8948;1,18611;-2,36338;150;130;1550;-150;0,00906553;0,121099;-0,160053;0,000181791;0,00243575;-0,0032093;0,100008;0,039692;0,363375;-3,14965e-05;2,97116e-05;0,00116287;0;0;0;0;0;0;0,100008;0,039692;0,363;0;0;0;0,0467625;0,225037;2,57249;0,00903403;0,121129;-0,15889;0,0759302;-0,0304888;0,0301358;0,0768195;-0,162775;-0;-0,0225209;-0,197559;3,44984;0,0808087;-0,0310669;0;-2,76377;-0,368896;-1080;1080;-600;1700;-10;10;-10;-0;0;-0;250;-1,2;0,2;177;-1,2;-1;2555;0,07;1415;1639;9;56579;
19,9047;1,18611;-2,36338;167;130;1600;-200;0,00920031;0,120999;-0,162587;0,000272994;0,00363521;-0,00482103;0,100008;0,0396921;0,363376;-0,000166279;0,000130266;0,00369704;0;0;0;0;0;0;0,100008;0,039692;0,363;0;0;0;0,0178785;0,232296;2,4445;0,00903404;0,121129;-0,15889;0,0759301;-0,0304888;0,0301358;0,0768195;-0,162775;-0;-0,0225266;-0,197609;3,44822;0,0808087;-0,0310669;0;-2,76377;-0,368896;-1080;1080;-600;1700;-10;10;-10;-0;0;-0;250;-1,2;0,2;177;-1,2;-1;2555;0,07;1415;1639;9;56579;
19,915;1,18611;-2,36238;166;130;1650;-250;0,00954048;0,120821;-0,166971;0,000371099;0,00487762;-0,00653799;0,100009;0,0396923;0,362384;-0,000509573;0,000339232;0,00810436;0;0;0;0;0;0;0,100008;0,039692;0,362;0;0;0;0,0202809;0,239556;2,31652;0,00903091;0,121161;-0,158866;0,0759512;-0,0304973;0,0301442;0,0768408;-0,162752;-0;-0,0225397;-0,197723;3,44454;0,0808087;-0,0310669;0;-2,76377;-0,368897;-1080;1080;-600;1700;-10;10;-10;-0;0;-0;250;-1,2;0,2;177;-1,2;-1;2555;0,07;1415;1639;9;56579;
19,9247;1,18611;-2,3604;166;130;1700;-300;0,0101045;0,120613;-0,172818;0,000469345;0,00605034;-0,00821831;0,10001;0,0396934;0,360404;-0,00105192;0,000638395;0,0140224;0;0;0;0;0;0;0,100008;0,039692;0,36;0;0;0;0,0208955;0,246815;2,18853;0,00905259;0,121251;-0,158796;0,0759932;-0,0305147;0,0301614;0,0768833;-0,162706;-0;-0,0236742;-0,199032;3,43818;0,0809833;-0,0312414;0;-2,76376;-0,368902;-1080;1080;-600;1700;-10;10;-10;-0;0;-0;250;-1,2;0,2;177;-1,2;-1;2555;0,07;1415;1639;9;56579;
19,9348;1,18611;-2,35845;165;129;1750;-350;0,0108196;0,120254;-0,180246;0,000578418;0,00726262;-0,0100354;0,100012;0,0396962;0,358451;-0,00177502;0,00105986;0,0214969;0;0;0;0;0;0;0,100008;0,039692;0,358;0;0;0;0,0234655;0,252122;2,06055;0,00904463;0,121313;-0,158749;0,0760343;-0,0305327;0,0301792;0,0769249;-0,16266;-0;-0,0237057;-0,199296;3,42972;0,0809833;-0,0312414;0;-2,76375;-0,368918;-1080;1080;-600;1700;-10;10;-10;-0;0;-0;250;-1,2;0,2;177;-1,2;-1;2555;0,07;1415;1639;9;56579;
19,9449;1,1861;-2,35853;164;129;1800;-400;0,0116834;0,119717;-0,188767;0,000696011;0,00846757;-0,0119353;0,100015;0,0397018;0,358534;-0,00264282;0,00159355;0,0300161;0;0;0;0;0;0;0,100008;0,039692;0,358;0;0;0;0,0261472;0,259325;1,93256;0,00904054;0,121311;-0,158751;0,0760313;-0,0305349;0,0301813;0,076922;-0,162662;-0;-0,0237456;-0,199632;3,41899;0,0809833;-0,0312414;0;-2,76371;-0,368953;-1080;1080;-600;1700;-10;10;-10;-0;0;-0;250;-1,2;0,2;177;-1,2;-1;2555;0,07;1415;1639;9;56579;
19,9548;1,1861;-2,35767;163;128;1850;-450;0,0127402;0,119104;-0,198565;0,00082312;0,00965587;-0,0139164;0,10002;0,0397119;0,357674;-0,00368218;0,00226141;0,0398568;0;0;0;0;0;0;0,100008;0,039692;0,357;0;0;0;0,0289407;0,264465;1,80458;0,00905806;0,121365;-0,158709;0,0760474;-0,0305476;0,0301939;0,0769384;-0,162642;-0;-0,0249089;-0,201133;3,40667;0,0811578;-0,0314159;0;-2,76364;-0,369018;-1080;1080;-600;1700;-10;10;-10;-0;0;-0;250;-1,2;0,2;177;-1,2;-1;2555;0,07;1415;1639;9;56579;
19,9647;1,1861;-2,35589;161;127;1900;-500;0,0138976;0,118376;-0,209373;0,000960581;0,0108267;-0,0159873;0,100027;0,0397283;0,355888;-0,00485882;0,00307307;0,0507281;0;0;0;0;0;0;0,100008;0,039692;0,355;0;0;0;0,033969;0,269493;1,67659;0,00903879;0,121449;-0,158645;0,0760818;-0,030572;0,0302179;0,0769734;-0,1626;-0;-0,024964;-0,202698;3,39252;0,0811578;-0,0315905;0;-2,76352;-0,369127;-1080;1080;-600;1700;-10;10;-10;-0;0;-0;250;-1,2;0,2;177;-1,2;-1;2555;0,07;1415;1639;9;56579;
19,9748;1,18609;-2,3542;160;126;1950;-550;0,0152113;0,117422;-0,221072;0,00111429;0,0120133;-0,0182212;0,100036;0,0397532;0,354196;-0,00617079;0,00405261;0,0624462;0;0;0;0;0;0;0,100008;0,039692;0,353;0;0;0;0,0370418;0,274409;1,54861;0,00904047;0,121475;-0,158626;0,0761122;-0,0306007;0,0302461;0,0770044;-0,162561;-0;-0,0261475;-0,202068;3,37691;0,0813323;-0,0314159;0;-2,76334;-0,369297;-1080;1080;-600;1700;-10;10;-10;-0;0;-0;250;-1,2;0,2;177;-1,2;-1;2555;0,07;1415;1639;9;56579;
19,9849;1,18609;-2,35462;159;125;2000;-600;0,0165893;0,116276;-0,233512;0,00128043;0,0131778;-0,0205599;0,100049;0,0397893;0,354617;-0,00757905;0,00518443;0,0748737;0;0;0;0;0;0;0,100008;0,039692;0,353;0;0;0;0,0402263;0,279214;1,42063;0,00901029;0,12146;-0,158639;0,0760947;-0,0306178;0,0302628;0,0769872;-0,162571;-0;-0,0262162;-0,202599;3,36001;0,0813323;-0,0314159;0;-2,76307;-0,369547;-1080;1080;-600;1700;-10;10;-10;-0;0;-0;250;-1,2;0,2;177;-1,2;-1;2555;0,07;1415;1639;9;56579;
19,9948;1,18608;-2,35318;157;124;2050;-628;0,0181137;0,115003;-0,246714;0,00146027;0,0143195;-0,0230092;0,100065;0,03984;0,353184;-0,0091243;0,00650057;0,0881074;0;0;0;0;0;0;0,100008;0,039692;0,351;0;0;0;0,0458132;0,283907;1,29264;0,00898935;0,121504;-0,158606;0,0761132;-0,0306596;0,030304;0,0770065;-0,162537;-0;-0,0274181;-0,203164;3,34204;0,0815069;-0,0314159;0;-2,76269;-0,369903;-1080;1080;-600;1700;-10;10;-10;-0;0;-0;250;-1,2;0,2;177;-1,2;-1;2555;0,07;1415;1639;9;56579;
20,0047;1,18607;-2,35291;155;122;2100;-629;0,0196713;0,113515;-0,260402;0,00165542;0,0154457;-0,0255927;0,100085;0,0399085;0,352914;-0,0107438;0,00799497;0,101797;0;0;0;0;0;0;0,100008;0,039692;0,35;0;0;0;0,0516235;0,286145;1,16466;0,00892758;0,12151;-0,158605;0,0761026;-0,0307021;0,0303456;0,0769965;-0,162531;-0;-0,0274989;-0,203762;3,32297;0,0815069;-0,0314159;0;-2,76217;-0,370386;-1080;1080;-600;1700;-10;10;-10;-0;0;-0;250;-1,2;0,2;177;-1,2;-1;2555;0,07;1415;1639;9;56579;
20,0147;1,18605;-2,35183;153;120;2150;-630;0,0213204;0,111814;-0,274405;0,00186842;0,0165627;-0,028334;0,10011;0,0399981;0,35183;-0,0124482;0,00969981;0,1158;0;0;0;0;0;0;0,100008;0,039692;0,348;0;0;0;0,0576572;0,28816;1,03667;0,00887213;0,121514;-0,158605;0,0761041;-0,0307643;0,0304068;0,076999;-0,162506;-0;-0,0287183;-0,203248;3,3032;0,0816814;-0,0312414;0;-2,76148;-0,371024;-1080;1080;-600;1700;-10;10;-10;-0;0;-0;250;-1,2;0,2;177;-1,2;-1;2555;0,07;1415;1639;9;56579;
20,0247;1,18604;-2,35296;152;118;2200;-632;0,0229591;0,109891;-0,288703;0,00209743;0,0176589;-0,0312138;0,100141;0,0401135;0,35296;-0,0141872;0,0115822;0,130061;0;0;0;0;0;0;0,100008;0,039692;0,348;0;0;0;0,0614563;0,289951;0,908689;0,00877186;0,121473;-0,158642;0,076052;-0,030823;0,0304643;0,0769475;-0,162533;-0;-0,0288076;-0,20388;3,28297;0,0816814;-0,0312414;0;-2,76059;-0,371848;-1080;1080;-600;1700;-10;10;-10;-0;0;-0;250;-1,2;0,2;177;-1,2;-1;2555;0,07;1415;1639;9;56579;
20,0348;1,18601;-2,35334;150;116;2250;-633;0,0246115;0,107781;-0,303187;0,00234623;0,0187485;-0,0342787;0,100179;0,0402598;0,353336;-0,0159703;0,0136745;0,144524;0;0;0;0;0;0;0,100008;0,039692;0,347;0;0;0;0,067881;0,291519;0,780705;0,00864114;0,121456;-0,158663;0,0760083;-0,0309065;0,0305463;0,0769048;-0,162543;-0;-0,0288988;-0,204525;3,26232;0,0816814;-0,0312414;0;-2,75947;-0,372894;-1080;1080;-600;1700;-10;10;-10;-0;0;-0;250;-1,2;0,2;177;-1,2;-1;2555;0,07;1415;1639;9;56579;
20,0448;1,18598;-2,35398;148;114;2300;-636;0,0263197;0,1054;-0,317691;0,0026103;0,019806;-0,0374661;0,100224;0,0404415;0,353979;-0,0178122;0,0160002;0,158979;0;0;0;0;0;0;0,100008;0,039692;0,346;0;0;0;0,0745292;0,292864;0,65272;0,00850754;0,1214;-0,158712;0,0759502;-0,0310089;0,0306467;0,0768478;-0,162558;-0;-0,0301376;-0,204033;3,24139;0,0818559;-0,0310669;0;-2,75806;-0,374195;-1080;1080;-600;1700;-10;10;-10;-0;0;-0;250;-1,2;0,2;177;-1,2;-1;2555;0,07;1415;1639;9;56579;
20,0547;1,18595;-2,35393;146;111;2350;-638;0,0280295;0,102916;-0,332165;0,00288725;0,0208229;-0,0407482;0,10028;0,0406658;0,353931;-0,0196759;0,0185051;0,17346;0;0;0;0;0;0;0,100008;0,039692;0,344;0;0;0;0,0814008;0,291362;0,524736;0,00835363;0,121421;-0,158704;0,0758962;-0,0311424;0,0307777;0,0767955;-0,162558;-0;-0,0313838;-0,205834;3,22043;0,0820305;-0,0312414;0;-2,75633;-0,375799;-1080;1080;-600;1700;-10;10;-10;-0;0;-0;250;-1,2;0,2;177;-1,2;-1;2555;0,07;1415;1639;9;56579;
20,0656;1,18591;-2,3562;144;108;2400;-642;0,029613;0,100081;-0,346409;0,00320882;0,0219096;-0,0445099;0,100346;0,0409365;0,356197;-0,0214956;0,0212569;0,187628;0;0;0;0;0;0;0,100008;0,039692;0,344;0;0;0;0,0884957;0,289525;0,396751;0,00811737;0,121338;-0,158781;0,0757814;-0,0312828;0,0309154;0,076682;-0,162612;-0;-0,0314834;-0,206487;3,19951;0,0820305;-0,0312414;0;-2,75425;-0,377731;-1080;1080;-600;1700;-10;10;-10;-0;0;-0;250;-1,2;0,2;177;-1,2;-1;2555;0,07;1415;1639;9;56579;
20,0748;1,18586;-2,35679;143;105;2450;-646;0,0311058;0,0971579;-0,360071;0,00349562;0,0228054;-0,0478297;0,100423;0,0412581;0,356786;-0,023255;0,0241753;0,201273;0;0;0;0;0;0;0,100008;0,039692;0,342;0;0;0;0,0930768;0,287353;0,268767;0,00785072;0,121333;-0,158797;0,0756895;-0,0314673;0,0310964;0,0765923;-0,162627;-0;-0,0315815;-0,208287;3,17891;0,0820305;-0,0314159;0;-2,75178;-0,38002;-1080;1080;-600;1700;-10;10;-10;-0;0;-0;250;-1,2;0,2;177;-1,2;-1;2555;0,07;1415;1639;9;56579;
20,0849;1,18579;-2,35891;141;101;2500;-650;0,0326368;0,0937668;-0,374343;0,00382561;0,0237535;-0,0516147;0,10052;0,041658;0,358908;-0,025128;0,0274793;0,215462;0;0;0;0;0;0;0,100008;0,039692;0,341;0;0;0;0,100563;0,282054;0,140783;0,00750882;0,121246;-0,158881;0,0755457;-0,031683;0,0313079;0,0764508;-0,162678;-0;-0,0328364;-0,208908;3,15916;0,082205;-0,0314159;0;-2,74871;-0,382849;-1080;1080;-600;1700;-10;10;-10;-0;0;-0;250;-1,2;0,2;177;-1,2;-1;2555;0,07;1416;1639;9;56579;
20,0948;1,18572;-2,36114;140;97;2550;-656;0,0338267;0,0904411;-0,386228;0,00416201;0,024653;-0,0554558;0,100625;0,0420928;0,361135;-0,0266966;0,0307403;0,227281;0;0;0;0;0;0;0,100008;0,039692;0,34;0;0;0;0,105423;0,276309;0,0127984;0,00713007;0,121181;-0,158947;0,0753907;-0,0319166;0,0315369;0,0762985;-0,162732;-0;-0,0329383;-0,21072;3,13852;0,082205;-0,0315905;0;-2,7454;-0,385909;-1080;1080;-600;1700;-10;10;-10;-0;0;-0;250;-1,2;0,2;177;-1,2;-1;2555;0,07;1416;1639;9;56579;
20,1047;1,18564;-2,36493;139;93;2600;-662;0,0349524;0,0866587;-0,398386;0,00450808;0,025511;-0,0594002;0,100753;0,0426198;0,364933;-0,0282736;0,0343745;0,239306;0;0;0;0;0;0;0,100008;0,039692;0,34;0;0;0;0,110395;0,270115;-0,115186;0,00667883;0,121033;-0,15908;0,0751797;-0,032187;0,0318018;0,0760903;-0,162822;-0;-0,0330232;-0,211263;3,12132;0,082205;-0,0315905;0;-2,74141;-0,389588;-1080;1080;-600;1700;-10;10;-10;-0;0;-0;250;-1,2;0,2;177;-1,2;-1;2555;0,07;1416;1639;9;56579;
20,1148;1,18554;-2,36712;138;89;2650;-669;0,0359531;0,0827442;-0,409448;0,00486908;0,0263418;-0,0635114;0,100902;0,043224;0,367123;-0,0297664;0,0381858;0,25027;0;0;0;0;0;0;0,100008;0,039692;0,338;0;0;0;0,115479;0,263475;-0,24317;0,00618663;0,12093;-0,159178;0,0749832;-0,0325128;0,032121;0,0758978;-0,162875;-0;-0,0342806;-0,211819;3,10372;0,0823795;-0,0315905;0;-2,73687;-0,393768;-1080;1080;-600;1700;-10;10;-10;-0;0;-0;250;-1,2;0,2;177;-1,2;-1;2555;0,07;1416;1639;9;56579;
20,1248;1,18543;-2,37074;137;85;2700;-677;0,0366876;0,0785857;-0,419506;0,00523669;0,0271292;-0,0677149;0,101074;0,0439152;0,370741;-0,0310859;0,0421885;0,260188;0;0;0;0;0;0;0,100008;0,039692;0,337;0;0;0;0,120674;0,256387;-0,371155;0,00560173;0,120774;-0,159318;0,074735;-0,0328705;0,0324713;0,0756538;-0,162961;-0;-0,0343625;-0,212325;3,08769;0,0823795;-0,0315905;0;-2,73171;-0,398498;-1080;1080;-600;1700;-10;10;-10;-0;0;-0;250;-1,2;0,2;177;-1,2;-1;2555;0,07;1416;1639;9;56579;
20,1348;1,18529;-2,37585;136;80;2750;-686;0,037296;0,0740739;-0,428636;0,00560887;0,0278684;-0,0719923;0,101274;0,0447079;0,375853;-0,0323239;0,0464603;0,269116;0;0;0;0;0;0;0,100008;0,039692;0,337;0;0;0;0,125981;0,24578;-0,499139;0,00497205;0,120534;-0,159521;0,0744303;-0,0332654;0,0328577;0,0753537;-0,163082;-0;-0,0356128;-0,211611;3,07311;0,0825541;-0,0314159;0;-2,72587;-0,403855;-1080;1080;-600;1700;-10;10;-10;-0;0;-0;250;-1,2;0,2;177;-1,2;-1;2555;0,07;1416;1639;9;56579;
20,1448;1,18514;-2,38143;136;75;2800;-696;0,037585;0,0694191;-0,436497;0,00598532;0,0285637;-0,0763642;0,101504;0,0456051;0,381427;-0,0333473;0,0508779;0,276776;0;0;0;0;0;0;0,100008;0,039692;0,337;0;0;0;0,128272;0,234614;-0,627123;0,00423773;0,120297;-0,159721;0,0740901;-0,0337057;0,0332883;0,0750191;-0,163213;-0;-0,0356829;-0,212027;3,05986;0,0825541;-0,0314159;0;-2,71933;-0,40983;-1080;1080;-600;1700;-10;10;-10;-0;0;-0;250;-1,2;0,2;177;-1,2;-1;2555;0,07;1416;1639;9;56579;
20,1547;1,18496;-2,38646;136;70;2821;-707;0,0376645;0,0646107;-0,442919;0,00635824;0,0292034;-0,0807496;0,101767;0,0466136;0,38646;-0,0342151;0,0554538;0,283004;0;0;0;0;0;0;0,100008;0,039692;0,336;0;0;0;0,129234;0,22062;-0,680877;0,00344942;0,120064;-0,159914;0,0737337;-0,0342017;0,0337732;0,0746693;-0,163332;-0;-0,0369233;-0,212386;3,04844;0,0827286;-0,0314159;0;-2,71207;-0,416437;-1080;1080;-600;1700;-10;10;-10;-0;0;-0;250;-1,2;0,2;177;-1,2;-1;2555;0,07;1416;1639;9;56579;
20,1648;1,18476;-2,39184;136;64;2824;-720;0,0373923;0,0596233;-0,447889;0,00673657;0,0298067;-0,0852813;0,102068;0,0477453;0,391838;-0,0348435;0,0601832;0,287765;0;0;0;0;0;0;0,100008;0,039692;0,335;0;0;0;0,129371;0,20193;-0,688556;0,00254882;0,119807;-0,160125;0,0733398;-0,034748;0,0343068;0,074283;-0,163459;-0;-0,0369744;-0,21268;3,03909;0,0827286;-0,0314159;0;-2,70405;-0,423713;-1080;1080;-600;1700;-10;10;-10;-0;0;-0;250;-1,2;0,2;177;-1,2;-1;2555;0,07;1416;1639;9;56579;
20,1751;1,18437;-2,39886;138;57;2827;-733;0,0355963;0,0530614;-0,452798;0,0071019;0,0303513;-0,0899284;0,102966;0,0492185;0,398863;-0,0339547;0,066446;0,292438;0;0;0;0;0;0;0,100008;0,039692;0,335;0;0;0;0,123192;0,18004;-0,696235;0,0016416;0,119507;-0,16036;0,0728871;-0,0353005;0,0348408;0,073849;-0,163627;-0;-0,0381971;-0,21409;3,03182;0,0829031;-0,0315905;0;-2,69569;-0,431271;-1080;1080;-600;1700;-10;10;-10;-0;0;-0;250;-1,2;0,2;177;-1,2;-1;2555;0,07;1416;1639;9;56579;
20,1847;1,18442;-2,39421;140;55;2807;-745;0,0341391;0,0508204;-0,419806;0,00743011;0,0308398;-0,0939644;0,102409;0,0499444;0,394207;-0,0334156;0,0687391;0,259478;0;0;0;0;0;0;0,100008;0,039692;0,335;0;0;0;0,116048;0,172495;-0,645041;0,000723563;0,11956;-0,160328;0,0727083;-0,0359258;0,0354594;0,0736646;-0,163521;-0;-0,0382375;-0,214317;3,02464;0,0829031;-0,0315905;0;-2,68784;-0,438343;-1080;1080;-600;1700;-10;10;-10;-0;0;-0;250;-1,2;0,2;177;-1,2;-1;2555;0,07;1416;1639;9;56579;
20,1948;1,18437;-2,39238;141;51;2792;-758;0,0324288;0,047594;-0,39375;0,00775836;0,0313216;-0,0979499;0,102145;0,0509378;0,392381;-0,0326969;0,071905;0,233376;0;0;0;0;0;0;0,100008;0,039692;0,335;0;0;0;0,112308;0,159097;-0,606646;-0,000268096;0,119499;-0,160374;0,0724261;-0,0365944;0,0361177;0,0733822;-0,163481;-0;-0,0391464;-0,21282;3,07205;0,0830777;-0,0315905;0;-2,679;-0,44627;-1080;1080;-600;1700;-10;10;-10;-0;0;-0;250;-1,2;0,2;177;-1,2;-1;2555;0,07;1416;1639;9;56579;
20,2047;1,18433;-2,38887;145;50;2773;-761;0,0291639;0,0465141;-0,363234;0,00804737;0,0317825;-0,10155;0,102163;0,0512062;0,388868;-0,0296854;0,0730935;0,202942;0;0;0;0;0;0;0,100008;0,039692;0,336;0;0;0;0,0991512;0,154916;-0,558012;-0,000521478;0,119608;-0,160293;0,0724218;-0,0367796;0,0362993;0,0733801;-0,163402;-0;-0,038929;-0,212807;3,10947;0,0830777;-0,031765;0;-2,67697;-0,448086;-1080;1080;-600;1700;-10;10;-10;-0;0;-0;250;-1,2;0,2;177;-1,2;-1;2555;0,07;1416;1639;9;56579;
20,2167;1,18427;-2,38373;149;49;2755;-762;0,0255115;0,0458621;-0,332983;0,00835376;0,0323333;-0,105549;0,102338;0,051317;0,38373;-0,0260375;0,0739041;0,172808;0;0;0;0;0;0;0,100008;0,039692;0,336;0;0;0;0,0861948;0,150833;-0,511937;-0,000526017;0,119766;-0,160174;0,0725164;-0,0368461;0,0363632;0,0734794;-0,163286;-0;-0,039836;-0,211414;3,15332;0,0832522;-0,031765;0;-2,67679;-0,448249;-1080;1080;-600;1700;-10;10;-10;-0;0;-0;250;-1,2;0,2;177;-1,2;-1;2555;0,07;1416;1639;9;56579;
20,2248;1,18422;-2,37862;153;49;2738;-761;0,0220636;0,0454828;-0,304378;0,00853118;0,0326991;-0,107996;0,102508;0,051388;0,378616;-0,022609;0,0744434;0,144324;0;0;0;0;0;0;0,100008;0,039692;0,336;0;0;0;0,0734258;0,149902;-0,468423;-0,000545435;0,119926;-0,160054;0,0726216;-0,036891;0,0364059;0,0735892;-0,16317;-0;-0,0395759;-0,210034;3,19678;0,0832522;-0,031765;0;-2,6769;-0,44815;-1080;1080;-600;1700;-10;10;-10;-0;0;-0;250;-1,2;0,2;177;-1,2;-1;2555;0,07;1416;1639;9;56579;
20,2347;1,18415;-2,37503;156;48;2723;-762;0,0188568;0,0447907;-0,278206;0,00871912;0,0331455;-0,110769;0,10272;0,0515595;0,375026;-0,0194842;0,0752106;0,118209;0;0;0;0;0;0;0,100008;0,039692;0,337;0;0;0;0,0638959;0,146039;-0,430027;-0,000627393;0,120001;-0,159998;0,0726725;-0,0369656;0,0364773;0,0736453;-0,163089;-0;-0,0393298;-0,207581;3,23791;0,0832522;-0,0315905;0;-2,67639;-0,448601;-1080;1080;-600;1700;-10;10;-10;-0;0;-0;250;-1,2;0,2;177;-1,2;-1;2555;0,07;1416;1639;9;56579;
20,2447;1,18413;-2,36967;159;49;2707;-760;0,015957;0,0452445;-0,252335;0,00887757;0,0335948;-0,113275;0,102871;0,051444;0,369674;-0,016418;0,074945;0,0924784;0;0;0;0;0;0;0,100008;0,039692;0,337;0;0;0;0,0544463;0,148205;-0,389072;-0,000460973;0,12019;-0,159857;0,0728345;-0,0369115;0,0364232;0,0738109;-0,162966;-0;-0,0402451;-0,206393;3,27552;0,0834267;-0,0315905;0;-2,67788;-0,447272;-1080;1080;-600;1700;-10;10;-10;-0;0;-0;250;-1,2;0,2;177;-1,2;-1;2555;0,07;1416;1639;9;56579;
20,2547;1,18409;-2,36385;162;49;2693;-758;0,0132341;0,0454961;-0,22873;0,0090105;0,0340517;-0,115572;0,103048;0,0514144;0,363847;-0,0136259;0,0748605;0,0689982;0;0;0;0;0;0;0,100008;0,039692;0,336;0;0;0;0,0451374;0,147439;-0,353237;-0,000391796;0,120357;-0,159731;0,0729848;-0,0369044;0,036415;0,0739658;-0,162832;-0;-0,0400161;-0,204085;3,31271;0,0834267;-0,0314159;0;-2,67879;-0,446454;-1080;1080;-600;1700;-10;10;-10;-0;0;-0;250;-1,2;0,2;177;-1,2;-1;2555;0,07;1416;1639;9;56579;
20,2648;1,18405;-2,35917;165;49;2680;-757;0,0107631;0,0458869;-0,206827;0,00911924;0,0345153;-0,117662;0,103225;0,0513566;0,359167;-0,0110531;0,0746318;0,0472175;0;0;0;0;0;0;0,100008;0,039692;0,336;0;0;0;0,0359357;0,146727;-0,319961;-0,000289973;0,120519;-0,159609;0,0731203;-0,0368688;0,0363787;0,0741053;-0,162724;-0;-0,0398071;-0,203019;3,34665;0,0834267;-0,0314159;0;-2,67993;-0,445436;-1080;1080;-600;1700;-10;10;-10;-0;0;-0;250;-1,2;0,2;177;-1,2;-1;2555;0,07;1416;1639;9;56579;
20,2748;1,18402;-2,35467;167;50;2668;-755;0,00859648;0,0463956;-0,186578;0,009205;0,0349782;-0,119523;0,103389;0,0512878;0,354671;-0,00875111;0,0742803;0,0270877;0;0;0;0;0;0;0,100008;0,039692;0,336;0;0;0;0,0298124;0,149051;-0,289245;-0,000154623;0,120676;-0,159491;0,0732534;-0,0368289;0,0363384;0,0742423;-0,16262;-0;-0,0407357;-0,20203;3,37813;0,0836013;-0,0314159;0;-2,6811;-0,44439;-1080;1080;-600;1700;-10;10;-10;-0;0;-0;250;-1,2;0,2;177;-1,2;-1;2555;0,07;1416;1639;9;56579;
20,2864;1,18399;-2,35036;169;51;2656;-753;0,0066519;0,0470168;-0,167924;0,00928206;0,0355229;-0,121469;0,10355;0,051203;0,35036;-0,0066776;0,0738096;0,00854697;0;0;0;0;0;0;0,100008;0,039692;0,336;0;0;0;0,0237427;0,151347;-0,258528;-2,56982e-05;0,120826;-0,159377;0,0733869;-0,036779;0,0362882;0,0743795;-0,162519;-0;-0,0416688;-0,201116;3,40724;0,0837758;-0,0314159;0;-2,68237;-0,443249;-1080;1080;-600;1700;-10;10;-10;-0;0;-0;250;-1,2;0,2;177;-1,2;-1;2555;0,07;1416;1639;9;56579;
20,2947;1,18397;-2,3462;171;52;2646;-751;0,00490216;0,0478524;-0,150819;0,00932265;0,0359191;-0,122717;0,103699;0,0510646;0,346197;-0,00476263;0,0731553;-0,00841989;0;0;0;0;0;0;0,100008;0,039692;0,336;0;0;0;0,01774;0,153733;-0,232932;0,000139537;0,121008;-0,159239;0,0735315;-0,0366994;0,0362091;0,0745273;-0,162422;-0;-0,0414943;-0,201386;3,43405;0,0837758;-0,0315905;0;-2,68402;-0,441772;-1080;1080;-600;1700;-10;10;-10;-0;0;-0;250;-1,2;0,2;177;-1,2;-1;2555;0,07;1416;1639;9;56579;
20,3047;1,18393;-2,34233;173;52;2637;-749;0,00331366;0,048371;-0,135161;0,00935595;0,0364052;-0,124076;0,103876;0,0510198;0,342325;-0,00308004;0,0727721;-0,0239748;0;0;0;0;0;0;0,100008;0,039692;0,336;0;0;0;0,0117864;0,15321;-0,209894;0,000233621;0,121143;-0,159136;0,0736466;-0,0366634;0,0361724;0,0746463;-0,162331;-0;-0,0413343;-0,200609;3,45865;0,0837758;-0,0315905;0;-2,68504;-0,440856;-1080;1080;-600;1700;-10;10;-10;-0;0;-0;250;-1,2;0,2;177;-1,2;-1;2555;0,07;1416;1639;9;56579;
20,3147;1,18395;-2,3385;174;54;2629;-745;0,00214065;0,0497648;-0,121271;0,00937733;0,0369023;-0,125287;0,103951;0,0507127;0,338502;-0,00159055;0,0715078;-0,037766;0;0;0;0;0;0;0,100008;0,039692;0,336;0;0;0;0,008813;0,158619;-0,189417;0,000550094;0,121273;-0,159037;0,0738232;-0,0365031;0,0360148;0,0748242;-0,16224;-0;-0,0422923;-0,198794;3,48116;0,0839503;-0,0314159;0;-2,68771;-0,438457;-1080;1080;-600;1700;-10;10;-10;-0;0;-0;250;-1,2;0,2;177;-1,2;-1;2555;0,07;1416;1639;9;56579;
20,3248;1,18395;-2,33399;175;55;2621;-742;0,00109844;0,0508765;-0,108709;0,00938842;0,0374159;-0,126384;0,104045;0,0505181;0,333987;-0,00037771;0,0705343;-0,0502214;0;0;0;0;0;0;0,100008;0,039692;0,335;0;0;0;0,00585746;0,161065;-0,168939;0,000720727;0,121411;-0,15893;0,0739843;-0,0364096;0,0359226;0,0749875;-0,162133;-0;-0,0421589;-0,197066;3,50114;0,0839503;-0,0312414;0;-2,68958;-0,436779;-1080;1080;-600;1700;-10;10;-10;-0;0;-0;250;-1,2;0,2;177;-1,2;-1;2555;0,07;1416;1639;9;56579;
20,3348;1,18395;-2,32971;176;56;2614;-739;0,00028088;0,0520695;-0,0976303;0,00939123;0,0379363;-0,12736;0,104126;0,0502936;0,329705;0,000683043;0,0695044;-0,0611742;0;0;0;0;0;0;0,100008;0,039692;0,334;0;0;0;0,00292091;0,163555;-0,151022;0,000963923;0,121574;-0,158804;0,0741477;-0,0362992;0,0358138;0,0751526;-0,162031;-0;-0,0431361;-0,196502;3,5192;0,0841249;-0,0312414;0;-2,69163;-0,43493;-1080;1080;-600;1700;-10;10;-10;-0;0;-0;250;-1,2;0,2;177;-1,2;-1;2555;0,07;1416;1639;9;56579;
20,3448;1,18397;-2,32668;177;57;2609;-736;-0,000337357;0,0532737;-0,0880218;0,00938785;0,0384701;-0,128242;0,104188;0,0500581;0,326681;0,00152528;0,0684232;-0,0706869;0;0;0;0;0;0;0,100008;0,039692;0,334;0;0;0;0;0,166156;-0,138223;0,00118792;0,121697;-0,158709;0,0742855;-0,0361745;0,0356912;0,0752915;-0,161958;-0;-0,0430269;-0,196004;3,53512;0,0841249;-0,0312414;0;-2,6937;-0,433067;-1080;1080;-600;1700;-10;10;-10;-0;0;-0;250;-1,2;0,2;177;-1,2;-1;2555;0,07;1416;1639;9;56579;
20,3548;1,18399;-2,32292;177;59;2604;-732;-0,000729513;0,0546416;-0,0798741;0,00938054;0,0390176;-0,129042;0,104218;0,0497798;0,322916;0,00217166;0,067175;-0,0787407;0;0;0;0;0;0;0,100008;0,039692;0,333;0;0;0;0;0,171655;-0,125425;0,00144215;0,121817;-0,158615;0,0744472;-0,0360405;0,0355598;0,0754537;-0,161867;-0;-0,0440249;-0,19448;3,54894;0,0842994;-0,0310669;0;-2,69598;-0,431008;-1080;1080;-600;1700;-10;10;-10;-0;0;-0;250;-1,2;0,2;177;-1,2;-1;2555;0,07;1416;1639;9;56579;
20,3647;1,18402;-2,31943;177;60;2600;-729;-0,000912314;0,056043;-0,0730899;0,00937155;0,0395699;-0,129763;0,104224;0,0494974;0,31943;0,00259678;0,0659134;-0,085415;0;0;0;0;0;0;0,100008;0,039692;0,332;0;0;0;0;0,174296;-0,115186;0,00168447;0,121956;-0,158505;0,0746013;-0,0359073;0,0354292;0,0756078;-0,161782;-0;-0,0439426;-0,194116;3,56065;0,0842994;-0,0310669;0;-2,69821;-0,428994;-1080;1080;-600;1700;-10;10;-10;-0;0;-0;250;-1,2;0,2;177;-1,2;-1;2555;0,07;1416;1639;9;56579;
20,3747;1,18406;-2,31622;177;62;2596;-726;-0,000860512;0,0574217;-0,0676576;0,00936295;0,0401436;-0,130439;0,104198;0,0492146;0,31622;0,00280494;0,0646642;-0,0907446;0;0;0;0;0;0;0,100008;0,039692;0,331;0;0;0;0;0,179827;-0,104947;0,00194443;0,122086;-0,158402;0,074746;-0,0357791;0,035304;0,0757519;-0,161704;-0;-0,044963;-0,193814;3,5704;0,0844739;-0,0310669;0;-2,70033;-0,427079;-1080;1080;-600;1700;-10;10;-10;-0;0;-0;250;-1,2;0,2;177;-1,2;-1;2555;0,07;1416;1639;9;56579;
20,3862;1,18413;-2,31442;177;64;2594;-721;-0,000604431;0,0590373;-0,0639546;0,00935599;0,0408237;-0,131175;0,104125;0,0488441;0,314415;0,00285078;0,0631389;-0,0943739;0;0;0;0;0;0;0,100008;0,039692;0,331;0;0;0;0;0,185484;-0,0998278;0,00224635;0,122176;-0,158329;0,0748805;-0,0355965;0,0351256;0,0758842;-0,161659;-0;-0,0449067;-0,193571;3,5782;0,0844739;-0,0310669;0;-2,70298;-0,424686;-1080;1080;-600;1700;-10;10;-10;-0;0;-0;250;-1,2;0,2;177;-1,2;-1;2555;0,07;1416;1639;9;56579;
20,3947;1,18417;-2,31074;177;65;2592;-719;-0,000219972;0,0603291;-0,0610083;0,00935412;0,041335;-0,131692;0,104063;0,0485835;0,310745;0,00266224;0,0620152;-0,0971875;0;0;0;0;0;0;0,100008;0,039692;0,329;0;0;0;0;0,188236;-0,0947084;0,00244227;0,122344;-0,158196;0,0750245;-0,0354946;0,0350264;0,0760273;-0,161569;-0;-0,0448684;-0,194492;3,58352;0,0844739;-0,0312414;0;-2,7048;-0,423034;-1080;1080;-600;1700;-10;10;-10;-0;0;-0;250;-1,2;0,2;177;-1,2;-1;2555;0,07;1416;1639;9;56579;
20,4047;1,18422;-2,30932;176;66;2591;-716;0,000337934;0,061372;-0,0592289;0,00935752;0,0419515;-0,132287;0,103992;0,0483591;0,309322;0,00228356;0,0610344;-0,0989159;0;0;0;0;0;0;0,100008;0,039692;0,329;0;0;0;0,00289521;0,191057;-0,0921487;0,00262149;0,122406;-0,158145;0,0751099;-0,0353936;0,034928;0,0761109;-0,161533;-0;-0,0459239;-0,19436;3,58775;0,0846485;-0,0312414;0;-2,70631;-0,421664;-1080;1080;-600;1700;-10;10;-10;-0;0;-0;250;-1,2;0,2;177;-1,2;-1;2555;0,07;1416;1639;9;56579;
20,4147;1,1843;-2,30756;175;68;2592;-713;0,00120608;0,0630144;-0,0596805;0,00936959;0,0425822;-0,132885;0,10382;0,0479722;0,307562;0,00168218;0,059502;-0,0983745;0;0;0;0;0;0;0,100008;0,039692;0,328;0;0;0;0,00579265;0,196921;-0,0947084;0,00288826;0,122516;-0,158055;0,0752366;-0,0352255;0,0347647;0,0762337;-0,161488;-0;-0,0469906;-0,195366;3,5903;0,084823;-0,0314159;0;-2,70874;-0,419458;-1080;1080;-600;1700;-10;10;-10;-0;0;-0;250;-1,2;0,2;177;-1,2;-1;2555;0,07;1416;1639;9;56579;
20,4246;1,18438;-2,30696;174;69;2592;-710;0,00216144;0,0642435;-0,0609408;0,00939103;0,0432196;-0,133489;0,103663;0,0476841;0,306964;0,000927988;0,0583127;-0,0970795;0;0;0;0;0;0;0,100008;0,039692;0,328;0;0;0;0,00868897;0,199816;-0,0947084;0,00308943;0,122556;-0,15802;0,0753127;-0,0351001;0,0346431;0,0763062;-0,161472;-0;-0,0469956;-0,195386;3,58963;0,084823;-0,0314159;0;-2,71046;-0,417899;-1080;1080;-600;1700;-10;10;-10;-0;0;-0;250;-1,2;0,2;177;-1,2;-1;2555;0,07;1416;1639;9;56579;
20,4348;1,18446;-2,30673;173;71;2594;-707;0,00326962;0,0654569;-0,0634803;0,00942421;0,0438836;-0,134133;0,103475;0,0473849;0,306734;7,12106e-07;0,0571253;-0,0945163;0;0;0;0;0;0;0,100008;0,039692;0,328;0;0;0;0,0115942;0,205765;-0,0998278;0,00327033;0,122582;-0,157997;0,0753805;-0,0349724;0,0345194;0,0763697;-0,161465;-0;-0,0470095;-0,195444;3,5878;0,084823;-0,0314159;0;-2,71216;-0,416355;-1080;1080;-600;1700;-10;10;-10;-0;0;-0;250;-1,2;0,2;177;-1,2;-1;2555;0,07;1416;1639;9;56579;
20,4448;1,18455;-2,30688;171;72;2596;-705;0,00457359;0,0666133;-0,0673133;0,00947004;0,0445512;-0,134808;0,103249;0,0471005;0,306885;-0,00112119;0,0559798;-0,0906708;0;0;0;0;0;0;0,100008;0,039692;0,328;0;0;0;0,0174047;0,208823;-0,104947;0,00345241;0,122593;-0,157984;0,0754319;-0,0348598;0,0344109;0,076416;-0,161466;-0;-0,0481238;-0,195559;3,58413;0,0849975;-0,0314159;0;-2,71361;-0,415039;-1080;1080;-600;1700;-10;10;-10;-0;0;-0;250;-1,2;0,2;177;-1,2;-1;2555;0,07;1416;1639;9;56579;
20,4549;1,18463;-2,30738;170;73;2599;-703;0,0059938;0,0676053;-0,0722857;0,00953035;0,0452315;-0,135535;0,103004;0,0468434;0,307381;-0,00243865;0,0549555;-0,0857213;0;0;0;0;0;0;0,100008;0,039692;0,328;0;0;0;0,020329;0,211967;-0,112626;0,00355514;0,122561;-0,158007;0,0754663;-0,034765;0,0343199;0,0764451;-0,161476;-0;-0,0481666;-0,194646;3,5786;0,0849975;-0,0312414;0;-2,71478;-0,413973;-1080;1080;-600;1700;-10;10;-10;-0;0;-0;250;-1,2;0,2;177;-1,2;-1;2555;0,07;1416;1639;9;56579;
20,4648;1,18473;-2,30806;168;74;2603;-702;0,00747225;0,0685167;-0,0777394;0,00960453;0,0459116;-0,136307;0,102735;0,0465948;0,308055;-0,00379038;0,0540355;-0,0802714;0;0;0;0;0;0;0,100008;0,039692;0,328;0;0;0;0,0261775;0,2152;-0,122865;0,00368187;0,122552;-0,158011;0,0754917;-0,0346801;0,0342388;0,0764648;-0,16149;-0;-0,0482221;-0,19487;3,57142;0,0849975;-0,0312414;0;-2,7158;-0,413047;-1080;1080;-600;1700;-10;10;-10;-0;0;-0;250;-1,2;0,2;177;-1,2;-1;2555;0,07;1416;1639;9;56579;
20,4748;1,18482;-2,30881;167;75;2606;-701;0,0090104;0,0692388;-0,0831242;0,00969445;0,0466026;-0,137137;0,102441;0,0463936;0,308809;-0,00524835;0,0532959;-0,0748982;0;0;0;0;0;0;0,100008;0,039692;0,328;0;0;0;0,0291196;0,218359;-0,130544;0,00376204;0,122535;-0,158022;0,0754995;-0,0346302;0,0341922;0,0764666;-0,161506;-0;-0,0493731;-0,195116;3,56355;0,0851721;-0,0312414;0;-2,71635;-0,412545;-1080;1080;-600;1700;-10;10;-10;-0;0;-0;250;-1,2;0,2;177;-1,2;-1;2555;0,07;1416;1639;9;56579;
20,4848;1,18491;-2,30973;165;75;2609;-701;0,0105414;0,0696108;-0,0887315;0,00979985;0,0472986;-0,138024;0,102147;0,046277;0,309727;-0,00677911;0,0528942;-0,069314;0;0;0;0;0;0;0,100008;0,039692;0,328;0;0;0;0,0349837;0,21861;-0,138223;0,0037623;0,122505;-0,158045;0,0754798;-0,0346311;0,0341956;0,0764411;-0,161527;-0;-0,050526;-0,195359;3,55577;0,0853466;-0,0312414;0;-2,71621;-0,412669;-1080;1080;-600;1700;-10;10;-10;-0;0;-0;250;-1,2;0,2;177;-1,2;-1;2555;0,07;1416;1638;9;56579;
20,4948;1,18499;-2,31056;164;75;2612;-701;0,0119136;0,0698803;-0,0937172;0,0099191;0,0479981;-0,138962;0,101873;0,0461635;0,310559;-0,00815371;0,0525997;-0,0643477;0;0;0;0;0;0;0,100008;0,039692;0,328;0;0;0;0,0379425;0,218861;-0,145902;0,00375989;0,12248;-0,158065;0,0754633;-0,0346291;0,034196;0,0764193;-0,161545;-0;-0,0505914;-0,195612;3,54768;0,0853466;-0,0312414;0;-2,71613;-0,412747;-1080;1080;-600;1700;-10;10;-10;-0;0;-0;250;-1,2;0,2;177;-1,2;-1;2555;0,07;1416;1638;9;56579;
20,5047;1,18506;-2,31133;162;75;2615;-703;0,0132524;0,0697901;-0,0982135;0,0100508;0,0486918;-0,139938;0,101582;0,0461504;0,31133;-0,00961949;0,0526287;-0,0599018;0;0;0;0;0;0;0,100008;0,039692;0,328;0;0;0;0,0438301;0,219113;-0,153581;0,00363294;0,122419;-0,158115;0,0754175;-0,0346953;0,0342634;0,0763682;-0,161562;-0;-0,0506496;-0,194743;3,54048;0,0853466;-0,0310669;0;-2,71515;-0,41363;-1080;1080;-600;1700;-10;10;-10;-0;0;-0;250;-1,2;0,2;177;-1,2;-1;2555;0,07;1416;1638;9;56579;
20,5147;1,18513;-2,31308;161;75;2617;-704;0,01445;0,0696267;-0,102287;0,0101956;0,0493896;-0,140963;0,101315;0,0461323;0,313077;-0,010876;0,0527019;-0,0558993;0;0;0;0;0;0;0,100008;0,039692;0,329;0;0;0;0,0467878;0,21928;-0,158701;0,00357398;0,122329;-0,158186;0,0753549;-0,0347424;0,0343118;0,0763005;-0,161603;-0;-0,0517974;-0,19385;3,53398;0,0855211;-0,0308923;0;-2,71431;-0,414399;-1080;1080;-600;1700;-10;10;-10;-0;0;-0;250;-1,2;0,2;177;-1,2;-1;2555;0,07;1416;1638;9;56579;
20,5249;1,18518;-2,31375;160;75;2619;-706;0,0154467;0,0693244;-0,105808;0,0103529;0,0500952;-0,14204;0,10108;0,0461473;0,313748;-0,0119554;0,0529743;-0,0524029;0;0;0;0;0;0;0,100008;0,039692;0,329;0;0;0;0,0497499;0,219448;-0,16382;0,00349124;0,122299;-0,158211;0,0753093;-0,0348117;0,0343819;0,0762507;-0,161618;-0;-0,0529424;-0,194032;3,52809;0,0856957;-0,0308923;0;-2,71331;-0,415308;-1080;1080;-600;1700;-10;10;-10;-0;0;-0;250;-1,2;0,2;177;-1,2;-1;2555;0,07;1416;1638;9;56579;
20,5348;1,18524;-2,31446;159;75;2621;-706;0,0162183;0,069309;-0,109161;0,0105126;0,0507778;-0,143115;0,100873;0,0460684;0,314462;-0,012736;0,0529675;-0,0490679;0;0;0;0;0;0;0,100008;0,039692;0,329;0;0;0;0,0527166;0,219615;-0,168939;0,00348233;0,122276;-0,158229;0,0752928;-0,0348142;0,0343861;0,0762302;-0,161634;-0;-0,0529854;-0,194189;3,523;0,0856957;-0,0308923;0;-2,71318;-0,415426;-1080;1080;-600;1700;-10;10;-10;-0;0;-0;250;-1,2;0,2;177;-1,2;-1;2555;0,07;1416;1638;9;56579;
20,5448;1,18526;-2,3139;158;74;2623;-709;0,0168564;0,0684267;-0,11146;0,010682;0,0514656;-0,144236;0,100718;0,0462211;0,313905;-0,0135903;0,0538498;-0,0467735;0;0;0;0;0;0;0,100008;0,039692;0,328;0;0;0;0,0556877;0,216854;-0,174059;0,00326611;0,122277;-0,158233;0,0752425;-0,0349593;0,03453;0,076178;-0,16162;-0;-0,0530263;-0,194339;3,51814;0,0856957;-0,0308923;0;-2,71135;-0,417093;-1080;1080;-600;1700;-10;10;-10;-0;0;-0;250;-1,2;0,2;177;-1,2;-1;2555;0,07;1416;1638;9;56579;
20,5548;1,18529;-2,3154;158;73;2624;-710;0,0173666;0,0678658;-0,113689;0,0108551;0,0521418;-0,145368;0,100573;0,0462592;0,315401;-0,0141635;0,0543545;-0,0445887;0;0;0;0;0;0;0,100008;0,039692;0,329;0;0;0;0,0557089;0,214006;-0,176618;0,00320307;0,12222;-0,158278;0,0751827;-0,0350097;0,0345807;0,0761155;-0,161655;-0;-0,0541531;-0,194442;3,51481;0,0858702;-0,0308923;0;-2,71049;-0,417872;-1080;1080;-600;1700;-10;10;-10;-0;0;-0;250;-1,2;0,2;177;-1,2;-1;2555;0,07;1416;1638;9;56579;
20,5648;1,18532;-2,31683;157;73;2625;-711;0,0177037;0,0672354;-0,115478;0,0110328;0,0528169;-0,146528;0,100456;0,046319;0,316831;-0,0146013;0,0549573;-0,0428235;0;0;0;0;0;0;0,100008;0,039692;0,33;0;0;0;0,0586632;0,214087;-0,179178;0,00310238;0,122193;-0,158301;0,0751212;-0,0350665;0,0346373;0,0760519;-0,16169;-0;-0,0541809;-0,195641;3,51157;0,0858702;-0,0310669;0;-2,70956;-0,418719;-1080;1080;-600;1700;-10;10;-10;-0;0;-0;250;-1,2;0,2;177;-1,2;-1;2555;0,07;1416;1638;9;56579;
20,5748;1,18533;-2,31722;157;72;2626;-713;0,0178976;0,0665855;-0,116965;0,0112108;0,053479;-0,147691;0,100374;0,046387;0,317222;-0,0148942;0,0555859;-0,0413546;0;0;0;0;0;0;0,100008;0,039692;0,33;0;0;0;0,0586856;0,211236;-0,181738;0,00300343;0,122171;-0,15832;0,0750835;-0,0351286;0,0346991;0,0760129;-0,161699;-0;-0,0542033;-0,195722;3,50897;0,0858702;-0,0310669;0;-2,70869;-0,419508;-1080;1080;-600;1700;-10;10;-10;-0;0;-0;250;-1,2;0,2;177;-1,2;-1;2555;0,07;1416;1638;9;56579;
20,5848;1,18534;-2,31756;157;71;2627;-714;0,0179885;0,0659076;-0,118122;0,0113921;0,0541432;-0,148881;0,100311;0,0464564;0,317558;-0,0150695;0,0562427;-0,0402155;0;0;0;0;0;0;0,100008;0,039692;0,33;0;0;0;0,0587079;0,208382;-0,184297;0,00291905;0,12215;-0,158338;0,0750487;-0,0351866;0,0347566;0,0759772;-0,161707;-0;-0,055322;-0,195789;3,5068;0,0860447;-0,0310669;0;-2,70788;-0,420242;-1080;1080;-600;1700;-10;10;-10;-0;0;-0;250;-1,2;0,2;177;-1,2;-1;2555;0,07;1416;1638;9;56579;
20,5947;1,18534;-2,31984;157;70;2627;-715;0,0179719;0,0651714;-0,119001;0,0115691;0,0547851;-0,150053;0,100269;0,0465276;0,319844;-0,0151485;0,0568954;-0,0394027;0;0;0;0;0;0;0,100008;0,039692;0,332;0;0;0;0,0587079;0,205448;-0,184297;0,00282342;0,122067;-0,158404;0,0749744;-0,0352207;0,0347903;0,0759019;-0,161762;-0;-0,0553369;-0,195842;3,5051;0,0860447;-0,0310669;0;-2,70713;-0,42092;-1080;1080;-600;1700;-10;10;-10;-0;0;-0;250;-1,2;0,2;177;-1,2;-1;2555;0,07;1416;1638;9;56579;
20,6047;1,18535;-2,32012;157;70;2628;-715;0,0178762;0,0648287;-0,119706;0,0117477;0,055433;-0,15125;0,100241;0,0465128;0,320124;-0,0150206;0,0572294;-0,0387033;0;0;0;0;0;0;0,100008;0,039692;0,332;0;0;0;0,0587303;0,205527;-0,186857;0,00285566;0,122058;-0,15841;0,0749696;-0,0352165;0,0347864;0,0758964;-0,161768;-0;-0,0564489;-0,195882;3,50381;0,0862193;-0,0310669;0;-2,70715;-0,420903;-1080;1080;-600;1700;-10;10;-10;-0;0;-0;250;-1,2;0,2;177;-1,2;-1;2555;0,07;1416;1638;9;56579;
20,6148;1,18532;-2,32028;157;69;2628;-717;0,0176695;0,0638295;-0,119854;0,0119262;0,0560776;-0,15246;0,100254;0,0466864;0,320279;-0,0149744;0,0582356;-0,0385528;0;0;0;0;0;0;0,100008;0,039692;0,332;0;0;0;0,0587303;0,202591;-0,186857;0,00269513;0,122065;-0,158407;0,0749173;-0,0353194;0,0348874;0,0758449;-0,161773;-0;-0,0564582;-0,197015;3,50276;0,0862193;-0,0312414;0;-2,70578;-0,42215;-1080;1080;-600;1700;-10;10;-10;-0;0;-0;250;-1,2;0,2;177;-1,2;-1;2555;0,07;1416;1638;9;56579;
20,6248;1,18531;-2,32044;158;68;2628;-718;0,0174;0,0631852;-0,11996;0,0120998;0,0567082;-0,153657;0,100275;0,0467556;0,320443;-0,0147617;0,0588687;-0,038457;0;0;0;0;0;0;0,100008;0,039692;0,332;0;0;0;0,0557938;0,199656;-0,186857;0,00263832;0,122054;-0,158417;0,074896;-0,0353549;0,0349221;0,0758242;-0,161777;-0;-0,0564604;-0,197022;3,50252;0,0862193;-0,0312414;0;-2,70529;-0,422594;-1080;1080;-600;1700;-10;10;-10;-0;0;-0;250;-1,2;0,2;177;-1,2;-1;2555;0,07;1416;1638;9;56579;
20,6348;1,18529;-2,32056;158;68;2628;-719;0,0170909;0,0625389;-0,119839;0,0122707;0,0573335;-0,154856;0,100309;0,0468329;0,320559;-0,014483;0,0595052;-0,0385855;0;0;0;0;0;0;0,100008;0,039692;0,332;0;0;0;0,0557938;0,199656;-0,186857;0,00260794;0,122044;-0,158425;0,0748751;-0,0353919;0,0349582;0,0758041;-0,16178;-0;-0,0575628;-0,197028;3,50234;0,0863938;-0,0312414;0;-2,70479;-0,423049;-1080;1080;-600;1700;-10;10;-10;-0;0;-0;250;-1,2;0,2;177;-1,2;-1;2555;0,07;1416;1638;9;56579;
20,6447;1,18528;-2,31964;158;67;2628;-719;0,0167252;0,0619935;-0,119558;0,0124367;0,0579486;-0,156042;0,100356;0,0468964;0,319642;-0,0141626;0,060048;-0,03887;0;0;0;0;0;0;0,100008;0,039692;0,331;0;0;0;0,0557938;0,196721;-0,186857;0,00256263;0,122042;-0,158428;0,0748817;-0,035427;0,0349922;0,0758119;-0,161758;-0;-0,0575615;-0,195923;3,50249;0,0863938;-0,0310669;0;-2,70445;-0,423357;-1080;1080;-600;1700;-10;10;-10;-0;0;-0;250;-1,2;0,2;177;-1,2;-1;2555;0,07;1415;1638;9;56579;
20,6547;1,18525;-2,31971;159;66;2628;-720;0,0163084;0,0613835;-0,119181;0,0125997;0,0585623;-0,157233;0,100426;0,0469722;0,319706;-0,0137878;0,0606511;-0,0392523;0;0;0;0;0;0;0,100008;0,039692;0,331;0;0;0;0,0528574;0,193786;-0,186857;0,00252059;0,122035;-0,158434;0,0748666;-0,0354533;0,0350175;0,0757983;-0,161761;-0;-0,0575581;-0,195911;3,50286;0,0863938;-0,0310669;0;-2,70409;-0,423678;-1080;1080;-600;1700;-10;10;-10;-0;0;-0;250;-1,2;0,2;177;-1,2;-1;2555;0,07;1415;1638;9;56579;
20,6648;1,18523;-2,31773;159;66;2627;-720;0,0158624;0,0609599;-0,118608;0,0127594;0,0591761;-0,158428;0,1005;0,0470228;0,31773;-0,0133399;0,0611362;-0,0397785;0;0;0;0;0;0;0,100008;0,039692;0,329;0;0;0;0,0528373;0,193712;-0,184297;0,00252253;0,122096;-0,158386;0,0749026;-0,0354828;0,0350459;0,0758363;-0,161713;-0;-0,0586541;-0,195895;3,50338;0,0865683;-0,0310669;0;-2,70396;-0,423793;-1080;1080;-600;1700;-10;10;-10;-0;0;-0;250;-1,2;0,2;177;-1,2;-1;2555;0,07;1415;1638;9;56579;
20,6748;1,1852;-2,31673;160;65;2627;-720;0,0154274;0,0605028;-0,117984;0,0129138;0,0597816;-0,159608;0,100581;0,0470827;0,316727;-0,012904;0,0615951;-0,0404008;0;0;0;0;0;0;0,100008;0,039692;0,328;0;0;0;0,0499019;0,190778;-0,184297;0,00252337;0,122098;-0,158385;0,0749161;-0,0355066;0,0350686;0,0758517;-0,16169;-0;-0,0597472;-0,194771;3,50417;0,0867429;-0,0308923;0;-2,70378;-0,423955;-1080;1080;-600;1700;-10;10;-10;-0;0;-0;250;-1,2;0,2;177;-1,2;-1;2555;0,07;1415;1638;9;56579;
20,6848;1,18517;-2,31469;160;65;2626;-720;0,0149478;0,0600784;-0,11723;0,0130642;0,0603861;-0,160788;0,10067;0,0471442;0,31469;-0,0124557;0,0620548;-0,0411277;0;0;0;0;0;0;0,100008;0,039692;0,326;0;0;0;0,0498829;0,190705;-0,181738;0,00249214;0,122133;-0,158358;0,074952;-0,0355395;0,0351004;0,0758898;-0,161641;-0;-0,0597389;-0,193644;3,50504;0,0867429;-0,0307178;0;-2,70362;-0,424103;-1080;1080;-600;1700;-10;10;-10;-0;0;-0;250;-1,2;0,2;177;-1,2;-1;2555;0,07;1415;1638;9;56579;
20,6948;1,18515;-2,31463;161;65;2626;-720;0,0144754;0,0597682;-0,116457;0,0132087;0,0609824;-0,16195;0,100763;0,0471718;0,314634;-0,0119696;0,0623673;-0,0418991;0;0;0;0;0;0;0,100008;0,039692;0,326;0;0;0;0,0469487;0,190705;-0,181738;0,00250575;0,122136;-0,158356;0,0749564;-0,0355305;0,0350907;0,0758958;-0,16164;-0;-0,0597289;-0,193611;3,5061;0,0867429;-0,0307178;0;-2,70375;-0,423987;-1080;1080;-600;1700;-10;10;-10;-0;0;-0;250;-1,2;0,2;177;-1,2;-1;2555;0,07;1415;1638;9;56579;
20,7047;1,18513;-2,31361;161;65;2626;-719;0,0140125;0,0598179;-0,115836;0,0133469;0,0615728;-0,163093;0,100856;0,0471055;0,313607;-0,0113798;0,0623603;-0,0424849;0;0;0;0;0;0;0,100008;0,039692;0,325;0;0;0;0,0469487;0,190705;-0,181738;0,00263265;0,122178;-0,158321;0,0750087;-0,0354727;0,0350332;0,0759498;-0,161616;-0;-0,0608186;-0,193578;3,50719;0,0869174;-0,0307178;0;-2,70465;-0,423174;-1080;1080;-600;1700;-10;10;-10;-0;0;-0;250;-1,2;0,2;177;-1,2;-1;2555;0,07;1415;1638;9;56579;
20,7148;1,18509;-2,31147;162;64;2625;-720;0,0135178;0,059273;-0,114795;0,0134838;0,0621729;-0,164255;0,100974;0,0472197;0,311468;-0,0109749;0,062938;-0,0435022;0;0;0;0;0;0;0,100008;0,039692;0,323;0;0;0;0,0439977;0,1877;-0,179178;0,00254283;0,122211;-0,158297;0,075035;-0,0355309;0,0350894;0,0759791;-0,161565;-0;-0,0608103;-0,192452;3,50805;0,0869174;-0,0305433;0;-2,70417;-0,42361;-1080;1080;-600;1700;-10;10;-10;-0;0;-0;250;-1,2;0,2;177;-1,2;-1;2555;0,07;1415;1638;9;56579;
20,7248;1,18507;-2,30937;162;64;2625;-719;0,0130899;0,0592007;-0,113965;0,0136144;0,0627634;-0,165392;0,101074;0,0472083;0,309366;-0,0104762;0,0630828;-0,0442754;0;0;0;0;0;0;0,100008;0,039692;0,321;0;0;0;0,0439977;0,1877;-0,179178;0,00261373;0,122283;-0,15824;0,0750948;-0,0355164;0,0350744;0,0760411;-0,161514;-0;-0,0618957;-0,192407;3,50952;0,0870919;-0,0305433;0;-2,70464;-0,423184;-1080;1080;-600;1700;-10;10;-10;-0;0;-0;250;-1,2;0,2;177;-1,2;-1;2555;0,07;1415;1638;9;56579;
20,7347;1,18504;-2,30925;163;64;2624;-718;0,0126899;0,0590531;-0,113196;0,0137409;0,0633521;-0,166521;0,101173;0,047216;0,309254;-0,0100412;0,0632367;-0,0450389;0;0;0;0;0;0;0,100008;0,039692;0,321;0;0;0;0,0410489;0,187629;-0,176618;0,0026487;0,12229;-0,158235;0,0751069;-0,0354938;0,0350514;0,076055;-0,161512;-0;-0,0618842;-0,192371;3,51069;0,0870919;-0,0305433;0;-2,70495;-0,4229;-1080;1080;-600;1700;-10;10;-10;-0;0;-0;250;-1,2;0,2;177;-1,2;-1;2555;0,07;1415;1638;9;56579;
20,7448;1,18502;-2,30713;163;64;2624;-718;0,0122709;0,0590472;-0,112416;0,0138638;0,0639436;-0,167647;0,101276;0,0471945;0,307128;-0,00956832;0,0632893;-0,0457817;0;0;0;0;0;0;0,100008;0,039692;0,319;0;0;0;0,0410489;0,187629;-0,176618;0,0027026;0,122337;-0,158198;0,0751707;-0,0354722;0,0350293;0,076121;-0,161461;-0;-0,0618736;-0,19124;3,51177;0,0870919;-0,0303687;0;-2,70552;-0,422387;-1080;1080;-600;1700;-10;10;-10;-0;0;-0;250;-1,2;0,2;177;-1,2;-1;2555;0,07;1415;1638;9;56579;
20,7547;1,185;-2,30601;163;64;2623;-717;0,0119514;0,0591386;-0,111763;0,0139825;0,064531;-0,168757;0,101356;0,0471496;0,306011;-0,00919785;0,0632114;-0,0464232;0;0;0;0;0;0;0,100008;0,039692;0,318;0;0;0;0,0410332;0,187557;-0,174059;0,00275353;0,12235;-0,158186;0,075217;-0,0354327;0,03499;0,0761688;-0,161434;-0;-0,0618628;-0,190108;3,51287;0,0870919;-0,0301942;0;-2,70618;-0,421784;-1080;1080;-600;1700;-10;10;-10;-0;0;-0;250;-1,2;0,2;177;-1,2;-1;2555;0,07;1415;1638;9;56579;
20,7647;1,18499;-2,30489;164;64;2623;-715;0,0116625;0,0592432;-0,111149;0,0140996;0,065126;-0,169873;0,101442;0,0471053;0,304894;-0,00880737;0,06315;-0,0470025;0;0;0;0;0;0;0,100008;0,039692;0,317;0;0;0;0,0381023;0,187557;-0,174059;0,00285513;0,122393;-0,158151;0,0752638;-0,0353919;0,0349492;0,0762172;-0,161407;-0;-0,0629527;-0,19008;3,51378;0,0872665;-0,0301942;0;-2,70686;-0,421164;-1080;1080;-600;1700;-10;10;-10;-0;0;-0;250;-1,2;0,2;177;-1,2;-1;2555;0,07;1415;1638;9;56579;
20,7748;1,18498;-2,3048;164;64;2623;-714;0,0114395;0,0594134;-0,1107;0,0142146;0,0657232;-0,170986;0,101504;0,0470419;0,3048;-0,00849759;0,0629908;-0,0474414;0;0;0;0;0;0;0,100008;0,039692;0,317;0;0;0;0,0381023;0,187557;-0,174059;0,00294194;0,122404;-0,158141;0,0752915;-0,0353359;0,0348936;0,0762458;-0,161405;-0;-0,0629441;-0,190054;3,51464;0,0872665;-0,0301942;0;-2,70761;-0,420485;-1080;1080;-600;1700;-10;10;-10;-0;0;-0;250;-1,2;0,2;177;-1,2;-1;2555;0,07;1415;1638;9;56579;
20,7851;1,18497;-2,3037;164;65;2622;-713;0,0112304;0,0596341;-0,110231;0,0143306;0,0663388;-0,172124;0,101573;0,0469738;0,303696;-0,00819982;0,0628144;-0,0478739;0;0;0;0;0;0;0,100008;0,039692;0,316;0;0;0;0,0380878;0,190414;-0,171499;0,0030306;0,122448;-0,158105;0,0753427;-0,0352852;0,0348433;0,0762983;-0,161378;-0;-0,0629379;-0,190036;3,51526;0,0872665;-0,0301942;0;-2,70842;-0,41975;-1080;1080;-600;1700;-10;10;-10;-0;0;-0;250;-1,2;0,2;177;-1,2;-1;2555;0,07;1415;1638;9;56579;
20,7948;1,18497;-2,3026;164;65;2622;-712;0,0111202;0,0599052;-0,109836;0,0144378;0,0669168;-0,173183;0,101618;0,0468991;0,302602;-0,00797659;0,062587;-0,0482325;0;0;0;0;0;0;0,100008;0,039692;0,315;0;0;0;0,0380878;0,190414;-0,171499;0,00314363;0,122492;-0,158069;0,0753928;-0,035237;0,0347957;0,0763492;-0,161352;-0;-0,0640299;-0,190016;3,51591;0,087441;-0,0301942;0;-2,7092;-0,419048;-1080;1080;-600;1700;-10;10;-10;-0;0;-0;250;-1,2;0,2;177;-1,2;-1;2555;0,07;1415;1638;9;56579;
20,8047;1,18496;-2,3015;164;65;2622;-711;0,0110183;0,0601222;-0,109493;0,0145471;0,0675132;-0,17427;0,101668;0,0468359;0,301503;-0,00779071;0,0624388;-0,0485206;0;0;0;0;0;0;0,100008;0,039692;0,314;0;0;0;0,0380878;0,190414;-0,171499;0,00322758;0,122561;-0,158014;0,0754404;-0,0351945;0,0347535;0,0763976;-0,161325;-0;-0,0651228;-0,191098;3,51645;0,0876155;-0,0303687;0;-2,7099;-0,418412;-1080;1080;-600;1700;-10;10;-10;-0;0;-0;250;-1,2;0,2;177;-1,2;-1;2555;0,07;1415;1638;9;56579;
20,8147;1,18497;-2,30145;164;65;2622;-709;0,0110075;0,0604741;-0,109364;0,014658;0,0681221;-0,175371;0,101684;0,0467275;0,301449;-0,00766984;0,0620988;-0,0486386;0;0;0;0;0;0;0,100008;0,039692;0,314;0;0;0;0,0380878;0,190414;-0,171499;0,00333769;0,122573;-0,158002;0,0754745;-0,0351233;0,0346834;0,0764317;-0,161323;-0;-0,0651179;-0,191084;3,51692;0,0876155;-0,0303687;0;-2,71084;-0,417559;-1080;1080;-600;1700;-10;10;-10;-0;0;-0;250;-1,2;0,2;177;-1,2;-1;2555;0,07;1415;1638;9;56579;
20,8248;1,18498;-2,30139;164;66;2622;-708;0,0110079;0,0607691;-0,10923;0,0147682;0,0687307;-0,176465;0,101696;0,0466367;0,30139;-0,00759872;0,0618123;-0,0487646;0;0;0;0;0;0;0,100008;0,039692;0,314;0;0;0;0,0380878;0,193343;-0,171499;0,00340921;0,122581;-0,157994;0,0755033;-0,0350639;0,034625;0,0764604;-0,161322;-0;-0,0651163;-0,191079;3,51708;0,0876155;-0,0303687;0;-2,71162;-0,416847;-1080;1080;-600;1700;-10;10;-10;-0;0;-0;250;-1,2;0,2;177;-1,2;-1;2555;0,07;1415;1638;9;56579;
20,8347;1,18499;-2,30134;164;66;2622;-707;0,0110567;0,0610652;-0,109132;0,0148777;0,0693355;-0,177545;0,101701;0,0465458;0,301344;-0,00755076;0,0615241;-0,0488545;0;0;0;0;0;0;0,100008;0,039692;0,314;0;0;0;0,0380878;0,193343;-0,171499;0,00350596;0,122589;-0,157986;0,075531;-0,0350064;0,0345684;0,0764878;-0,16132;-0;-0,0662128;-0,191074;3,51724;0,0877901;-0,0303687;0;-2,71238;-0,416158;-1080;1080;-600;1700;-10;10;-10;-0;0;-0;250;-1,2;0,2;177;-1,2;-1;2555;0,07;1415;1638;9;56579;
20,8448;1,185;-2,3003;164;67;2622;-706;0,0111217;0,0614721;-0,109051;0,0149905;0,0699588;-0,178651;0,101694;0,0464305;0,300301;-0,00753417;0,0611869;-0,0488792;0;0;0;0;0;0;0,100008;0,039692;0,313;0;0;0;0,0380878;0,196272;-0,171499;0,00358758;0,122659;-0,15793;0,0755855;-0,0349469;0,0345102;0,0765421;-0,161294;-0;-0,0662115;-0,192168;3,51736;0,0877901;-0,0305433;0;-2,71329;-0,41533;-1080;1080;-600;1700;-10;10;-10;-0;0;-0;250;-1,2;0,2;177;-1,2;-1;2555;0,07;1415;1638;9;56579;
20,8548;1,18502;-2,30026;164;67;2622;-704;0,0112535;0,0617833;-0,109016;0,015103;0,0705766;-0,179741;0,101672;0,0463327;0,300255;-0,00758169;0,060885;-0,0489045;0;0;0;0;0;0;0,100008;0,039692;0,313;0;0;0;0,0380878;0,196272;-0,171499;0,00367185;0,122668;-0,157921;0,075612;-0,0348926;0,034457;0,0765678;-0,161293;-0;-0,0662106;-0,192165;3,51745;0,0877901;-0,0305433;0;-2,714;-0,41468;-1080;1080;-600;1700;-10;10;-10;-0;0;-0;250;-1,2;0,2;177;-1,2;-1;2555;0,07;1415;1638;9;56579;
20,8647;1,18503;-2,30022;164;67;2622;-704;0,0114091;0,0619965;-0,109032;0,0152163;0,0711919;-0,180823;0,101657;0,046251;0,300222;-0,00763682;0,0606796;-0,0488804;0;0;0;0;0;0;0,100008;0,039692;0,313;0;0;0;0,0380878;0,196272;-0,171499;0,00377232;0,122676;-0,157912;0,0756344;-0,034846;0,0344113;0,0765898;-0,161292;-0;-0,0673085;-0,192164;3,51747;0,0879646;-0,0305433;0;-2,71461;-0,414123;-1080;1080;-600;1700;-10;10;-10;-0;0;-0;250;-1,2;0,2;177;-1,2;-1;2555;0,07;1415;1638;9;56579;
20,8747;1,18505;-2,30119;164;67;2622;-702;0,0115944;0,0622214;-0,109085;0,0153319;0,0718124;-0,181911;0,101624;0,0461553;0,301194;-0,00773939;0,0604027;-0,0488657;0;0;0;0;0;0;0,100008;0,039692;0,314;0;0;0;0,0380878;0,196272;-0,171499;0,00385499;0,122624;-0,157951;0,0756372;-0,0347861;0,0343528;0,0765913;-0,161315;-0;-0,0673091;-0,191068;3,51742;0,0879646;-0,0303687;0;-2,71527;-0,413526;-1080;1080;-600;1700;-10;10;-10;-0;0;-0;250;-1,2;0,2;177;-1,2;-1;2555;0,07;1416;1639;9;56579;
20,8849;1,18507;-2,30117;164;68;2622;-701;0,0118053;0,0624847;-0,109161;0,0154518;0,0724471;-0,18302;0,101586;0,046057;0,30117;-0,00784369;0,06012;-0,0488022;0;0;0;0;0;0;0,100008;0,039692;0,314;0;0;0;0,0380878;0,1992;-0,171499;0,00396163;0,122605;-0,157963;0,0756615;-0,0347356;0,0343034;0,0766146;-0,161314;-0;-0,0684084;-0,189974;3,51732;0,0881391;-0,0301942;0;-2,71593;-0,412923;-1080;1080;-600;1700;-10;10;-10;-0;0;-0;250;-1,2;0,2;177;-1,2;-1;2555;0,07;1416;1639;9;56579;
20,8947;1,18509;-2,30115;163;68;2622;-701;0,0120008;0,0627124;-0,10923;0,0155696;0,0730625;-0,184092;0,101548;0,0459736;0,301146;-0,00797497;0,0598991;-0,0487261;0;0;0;0;0;0;0,100008;0,039692;0,314;0;0;0;0,0410176;0,1992;-0,171499;0,00402585;0,122611;-0,157956;0,0756815;-0,0346942;0,0342631;0,0766337;-0,161313;-0;-0,0684099;-0,189978;3,51719;0,0881391;-0,0301942;0;-2,71647;-0,41243;-1080;1080;-600;1700;-10;10;-10;-0;0;-0;250;-1,2;0,2;177;-1,2;-1;2555;0,07;1416;1639;9;56579;
20,9047;1,18511;-2,30213;163;68;2622;-700;0,0122444;0,0628152;-0,109345;0,0156923;0,0736922;-0,185188;0,101509;0,0459083;0,302134;-0,00813907;0,0597685;-0,0486311;0;0;0;0;0;0;0,100008;0,039692;0,315;0;0;0;0,0410176;0,1992;-0,171499;0,00410535;0,122584;-0,157976;0,0756746;-0,0346547;0,0342245;0,0766256;-0,161337;-0;-0,0695095;-0,189981;3,51706;0,0883137;-0,0301942;0;-2,71686;-0,412076;-1080;1080;-600;1700;-10;10;-10;-0;0;-0;250;-1,2;0,2;177;-1,2;-1;2555;0,07;1416;1639;9;56579;
20,9148;1,18513;-2,30213;163;68;2622;-699;0,0124353;0,0629719;-0,109464;0,0158177;0,0743269;-0,186291;0,101466;0,0458265;0,302126;-0,0082693;0,0595902;-0,0485274;0;0;0;0;0;0;0,100008;0,039692;0,315;0;0;0;0,0410176;0,1992;-0,171499;0,00416603;0,122562;-0,157991;0,0756932;-0,0346156;0,0341865;0,0766433;-0,161336;-0;-0,0695116;-0,188889;3,51687;0,0883137;-0,0300197;0;-2,71737;-0,411611;-1080;1080;-600;1700;-10;10;-10;-0;0;-0;250;-1,2;0,2;177;-1,2;-1;2555;0,07;1416;1639;9;56579;
20,9248;1,18515;-2,30312;163;68;2622;-699;0,0126767;0,0630864;-0,109582;0,0159445;0,0749581;-0,187388;0,101413;0,0457559;0,303121;-0,00843151;0,0594477;-0,0484285;0;0;0;0;0;0;0,100008;0,039692;0,316;0;0;0;0,0410176;0,1992;-0,171499;0,00424515;0,122534;-0,158011;0,0756861;-0,0345763;0,0341483;0,0766347;-0,16136;-0;-0,0706121;-0,188895;3,51667;0,0884882;-0,0300197;0;-2,71776;-0,411261;-1080;1080;-600;1700;-10;10;-10;-0;0;-0;250;-1,2;0,2;177;-1,2;-1;2555;0,07;1416;1639;9;56579;
20,9348;1,18516;-2,30313;162;68;2622;-698;0,0128599;0,0631651;-0,109721;0,0160734;0,0755912;-0,188488;0,101375;0,0456988;0,303133;-0,00857571;0,0593724;-0,048286;0;0;0;0;0;0;0,100008;0,039692;0,316;0;0;0;0,0439474;0,1992;-0,171499;0,00428414;0,122537;-0,158007;0,0756978;-0,0345511;0,0341239;0,0766456;-0,16136;-0;-0,0706143;-0,188901;3,51647;0,0884882;-0,0300197;0;-2,71808;-0,410964;-1080;1080;-600;1700;-10;10;-10;-0;0;-0;250;-1,2;0,2;177;-1,2;-1;2555;0,07;1416;1639;9;56579;
20,9448;1,18518;-2,30314;162;69;2622;-698;0,013035;0,0632423;-0,109834;0,0162035;0,0762223;-0,189584;0,101335;0,0456353;0,303136;-0,0087061;0,0592717;-0,0481899;0;0;0;0;0;0;0,100008;0,039692;0,316;0;0;0;0,0439474;0,202129;-0,171499;0,00432889;0,122514;-0,158024;0,0757114;-0,0345223;0,0340959;0,0766583;-0,16136;-0;-0,0706168;-0,18781;3,51625;0,0884882;-0,0298451;0;-2,71846;-0,410622;-1080;1080;-600;1700;-10;10;-10;-0;0;-0;250;-1,2;0,2;177;-1,2;-1;2555;0,07;1416;1639;9;56579;
20,9547;1,1852;-2,30315;162;69;2622;-697;0,0132299;0,0633103;-0,109935;0,016335;0,0768516;-0,190676;0,101285;0,04558;0,303151;-0,00884041;0,0592064;-0,0480855;0;0;0;0;0;0;0,100008;0,039692;0,316;0;0;0;0,0439474;0,202129;-0,171499;0,00438952;0,122517;-0,15802;0,0757213;-0,0345014;0,0340758;0,0766671;-0,16136;-0;-0,0717174;-0,187816;3,51606;0,0886627;-0,0298451;0;-2,71873;-0,410377;-1080;1080;-600;1700;-10;10;-10;-0;0;-0;250;-1,2;0,2;177;-1,2;-1;2555;0,07;1416;1639;9;56579;
20,9648;1,18521;-2,30318;162;69;2622;-697;0,0134016;0,063268;-0,110065;0,0164696;0,077487;-0,191782;0,101251;0,0455432;0,303178;-0,00896255;0,05925;-0,047953;0;0;0;0;0;0;0,100008;0,039692;0,316;0;0;0;0,0439474;0,202129;-0,171499;0,00443909;0,122518;-0,158018;0,0757273;-0,0344876;0,0340625;0,0766724;-0,16136;-0;-0,0728178;-0,187821;3,51589;0,0888373;-0,0298451;0;-2,7189;-0,410216;-1080;1080;-600;1700;-10;10;-10;-0;0;-0;250;-1,2;0,2;177;-1,2;-1;2555;0,07;1416;1639;9;56579;
20,9747;1,18523;-2,30321;162;69;2623;-696;0,0135686;0,0632849;-0,110158;0,0166046;0,0781167;-0,192878;0,101206;0,0454925;0,303207;-0,00909941;0,0592351;-0,0478571;0;0;0;0;0;0;0,100008;0,039692;0,316;0;0;0;0,0439641;0,202206;-0,174059;0,00446918;0,12252;-0,158015;0,0757361;-0,0344681;0,0340437;0,0766802;-0,16136;-0;-0,0728203;-0,187827;3,51567;0,0888373;-0,0298451;0;-2,71915;-0,409989;-1080;1080;-600;1700;-10;10;-10;-0;0;-0;250;-1,2;0,2;177;-1,2;-1;2555;0,07;1416;1639;9;56579;
20,9848;1,18524;-2,30324;162;69;2623;-696;0,0136795;0,0632173;-0,110283;0,0167422;0,0787527;-0,193987;0,101177;0,0454612;0,303244;-0,00922033;0,0593033;-0,0477318;0;0;0;0;0;0;0,100008;0,039692;0,316;0;0;0;0,0439641;0,202206;-0,174059;0,00445912;0,122521;-0,158015;0,0757409;-0,0344563;0,0340323;0,0766844;-0,161361;-0;-0,0717236;-0,187832;3,51551;0,0886627;-0,0298451;0;-2,7193;-0,409853;-1080;1080;-600;1700;-10;10;-10;-0;0;-0;250;-1,2;0,2;177;-1,2;-1;2555;0,07;1416;1639;9;56579;
20,9948;1,18525;-2,30429;161;68;2623;-696;0,013832;0,0631515;-0,110373;0,0168808;0,0793854;-0,195093;0,101137;0,0454299;0,304287;-0,00935391;0,0593643;-0,047645;0;0;0;0;0;0;0,100008;0,039692;0,317;0;0;0;0,046895;0,199276;-0,174059;0,00447811;0,122516;-0,158018;0,0757231;-0,0344374;0,034014;0,0766656;-0,161386;-0;-0,071726;-0,188936;3,51531;0,0886627;-0,0300197;0;-2,71941;-0,40975;-1080;1080;-600;1700;-10;10;-10;-0;0;-0;250;-1,2;0,2;177;-1,2;-1;2555;0,07;1416;1639;9;56579;
21,0047;1,18526;-2,30434;161;68;2623;-696;0,0139124;0,0630821;-0,110437;0,0170188;0,0800114;-0,196189;0,101115;0,0454023;0,304339;-0,00944498;0,0594613;-0,0475602;0;0;0;0;0;0;0,100008;0,039692;0,317;0;0;0;0,046895;0,199276;-0,174059;0,00446737;0,122543;-0,157997;0,0757273;-0,0344258;0,0340029;0,0766693;-0,161387;-0;-0,0706292;-0,190039;3,51515;0,0884882;-0,0301942;0;-2,71956;-0,409619;-1080;1080;-600;1700;-10;10;-10;-0;0;-0;250;-1,2;0,2;177;-1,2;-1;2555;0,07;1416;1639;9;56579;
21,0147;1,18527;-2,30439;161;68;2623;-696;0,0139872;0,0630376;-0,110473;0,0171583;0,08064;-0,197291;0,101083;0,0453696;0,304391;-0,00950115;0,0595059;-0,0475237;0;0;0;0;0;0;0,100008;0,039692;0,317;0;0;0;0,046895;0,199276;-0,174059;0,00448603;0,122544;-0,157997;0,075732;-0,0344135;0,0339911;0,0766733;-0,161388;-0;-0,0706305;-0,190043;3,51503;0,0884882;-0,0301942;0;-2,71971;-0,40948;-1080;1080;-600;1700;-10;10;-10;-0;0;-0;250;-1,2;0,2;177;-1,2;-1;2555;0,07;1416;1639;9;56579;
21,0247;1,18527;-2,30344;161;68;2623;-696;0,0140385;0,0629428;-0,11049;0,0172985;0,0812687;-0,198394;0,101069;0,045356;0,303441;-0,00952189;0,0596324;-0,0474816;0;0;0;0;0;0;0,100008;0,039692;0,316;0;0;0;0,046895;0,199276;-0,174059;0,00451665;0,122575;-0,157971;0,0757546;-0,0344183;0,0339959;0,0766958;-0,161365;-0;-0,07173;-0,190045;3,51495;0,0886627;-0,0301942;0;-2,71977;-0,409426;-1080;1080;-600;1700;-10;10;-10;-0;0;-0;250;-1,2;0,2;177;-1,2;-1;2555;0,07;1416;1639;9;56579;
21,0348;1,18528;-2,30351;161;68;2623;-695;0,0141004;0,0628698;-0,110563;0,0174413;0,0819052;-0,199514;0,101043;0,0453317;0,30351;-0,00957081;0,0597044;-0,0474084;0;0;0;0;0;0;0,100008;0,039692;0,316;0;0;0;0,046895;0,199276;-0,174059;0,00452956;0,122574;-0,157972;0,0757571;-0,0344096;0,0339876;0,0766978;-0,161366;-0;-0,0717306;-0,190046;3,5149;0,0886627;-0,0301942;0;-2,71987;-0,409331;-1080;1080;-600;1700;-10;10;-10;-0;0;-0;250;-1,2;0,2;177;-1,2;-1;2555;0,07;1416;1639;9;56579;
21,0448;1,18529;-2,30257;161;68;2623;-695;0,0141144;0,0627508;-0,110576;0,0175825;0,0825328;-0,20062;0,101036;0,0453186;0,302566;-0,00957186;0,0598257;-0,0473939;0;0;0;0;0;0;0,100008;0,039692;0,315;0;0;0;0,046895;0,199276;-0,174059;0,0045425;0,122577;-0,157969;0,0757803;-0,0344124;0,0339904;0,0767211;-0,161343;-0;-0,0728307;-0,188952;3,51477;0,0888373;-0,0300197;0;-2,71995;-0,409256;-1080;1080;-600;1700;-10;10;-10;-0;0;-0;250;-1,2;0,2;177;-1,2;-1;2555;0,07;1416;1639;9;56579;
21,0548;1,18529;-2,30262;161;68;2623;-695;0,0141202;0,0625895;-0,110581;0,0177232;0,0831566;-0,201722;0,101031;0,0453145;0,302622;-0,00957567;0,0599854;-0,0473894;0;0;0;0;0;0;0,100008;0,039692;0,315;0;0;0;0,046895;0,199276;-0,174059;0,00454449;0,122575;-0,157971;0,0757797;-0,0344108;0,0339889;0,0767203;-0,161345;-0;-0,0728312;-0,188954;3,51473;0,0888373;-0,0300197;0;-2,71997;-0,409243;-1080;1080;-600;1700;-10;10;-10;-0;0;-0;250;-1,2;0,2;177;-1,2;-1;2555;0,07;1416;1639;9;56579;
21,0648;1,18529;-2,30268;161;68;2623;-695;0,0141482;0,0624727;-0,110586;0,017865;0,0837828;-0,20283;0,101015;0,0453029;0,302679;-0,00959858;0,060101;-0,0473855;0;0;0;0;0;0;0,100008;0,039692;0,315;0;0;0;0,046895;0,199276;-0,174059;0,00454962;0,122574;-0,157972;0,0757801;-0,0344072;0,0339855;0,0767204;-0,161346;-0;-0,0728316;-0,188955;3,51469;0,0888373;-0,0300197;0;-2,72001;-0,409207;-1080;1080;-600;1700;-10;10;-10;-0;0;-0;250;-1,2;0,2;177;-1,2;-1;2555;0,07;1416;1639;9;56579;
21,0746;1,18529;-2,30274;161;68;2623;-695;0,0141284;0,0623212;-0,110588;0,0180042;0,0843969;-0,20392;0,101018;0,0452955;0,302738;-0,00957024;0,0602512;-0,047384;0;0;0;0;0;0;0,100008;0,039692;0,315;0;0;0;0,046895;0,199276;-0,174059;0,00455815;0,122572;-0,157972;0,0757812;-0,0344012;0,0339796;0,0767215;-0,161347;-0;-0,072832;-0,188956;3,51466;0,0888373;-0,0300197;0;-2,72008;-0,409143;-1080;1080;-600;1700;-10;10;-10;-0;0;-0;250;-1,2;0,2;177;-1,2;-1;2555;0,07;1416;1639;9;56579;
21,0847;1,18529;-2,30181;161;68;2623;-695;0,0141102;0,0622063;-0,110592;0,0181466;0,0850245;-0,205036;0,10102;0,045295;0,301809;-0,00955502;0,060424;-0,0473354;0;0;0;0;0;0;0,100008;0,039692;0,314;0;0;0;0,046895;0,199276;-0,174059;0,00455516;0,12263;-0,157927;0,0758015;-0,0344092;0,0339874;0,0767421;-0,161325;-0;-0,0728324;-0,190055;3,51463;0,0888373;-0,0301942;0;-2,72009;-0,409131;-1080;1080;-600;1700;-10;10;-10;-0;0;-0;250;-1,2;0,2;177;-1,2;-1;2555;0,07;1416;1639;9;56579;
21,0948;1,18529;-2,30188;161;67;2623;-695;0,0140858;0,0621278;-0,110604;0,0182877;0,0856469;-0,206144;0,101022;0,0452692;0,301878;-0,00950477;0,0605024;-0,0473224;0;0;0;0;0;0;0,100008;0,039692;0,314;0;0;0;0,046895;0,196347;-0,174059;0,00458105;0,12263;-0,157927;0,0758076;-0,0343919;0,0339704;0,0767481;-0,161326;-0;-0,0728327;-0,190056;3,5146;0,0888373;-0,0301942;0;-2,72031;-0,408933;-1080;1080;-600;1700;-10;10;-10;-0;0;-0;250;-1,2;0,2;177;-1,2;-1;2555;0,07;1416;1639;9;56579;
21,1048;1,1853;-2,29994;161;67;2623;-694;0,0140811;0,0621217;-0,110569;0,018429;0,0862705;-0,207254;0,101023;0,0452427;0,299938;-0,00943457;0,0605755;-0,0473041;0;0;0;0;0;0;0,100008;0,039692;0,312;0;0;0;0,046895;0,196347;-0,174059;0,00464657;0,122697;-0,157873;0,0758569;-0,0343935;0,0339721;0,0767979;-0,161279;-0;-0,0739319;-0,190057;3,51455;0,0890118;-0,0301942;0;-2,72053;-0,408728;-1080;1080;-600;1700;-10;10;-10;-0;0;-0;250;-1,2;0,2;177;-1,2;-1;2555;0,07;1416;1639;9;56579;
