time 	e1	e2	ctrlpitch	ctrlroll	ctrlthrust	ctrlyaw	edx	edy	edz	cumulx	cumuly	cumulz	x_pred	y_pred	z_pred	dxr_pred	dyr_pred	dzr_pred	dxrT	dyrT	dzrT	dxrUn	dyrUn	dzrUn	x	y	z	dx	dy	dz	ux	uy	uz	dxd	dyd	dzd	Perpx	Tangx	Perpy	Tangy	Perpz	Tanz	ax	ay	az	pitch	roll	yaw	yawd	eyaw	kpvx	kpvy	kpvz	kpyaw	kivx	kivy	kivz	kdvx	kdvy	kdvz	kdyaw	ktg	veld	pitchoff	ke1	ke2	gravity	thr_vel	gps_accuracy	height_accuracy	gps_sat_num	gps_status
18.7651	1.16683	-1.45112	50	-30	1450	0	-0.145673	-0.0283433	-0.134075	-0.00086792	-0.00016887	-0.000798817	-0.0592341	0.155348	-0.548876	0	0	0	0	0	0	0	0	0	-0.05556	0.15083	-0.526	0	0	0	0.205665	-0.0486059	2.82845	-0.145673	-0.0283433	-0.134075	-0.0375325	-0.101231	0.0984333	-0.0385995	-0.131013	0	0	0	9.81	0.0216421	0.00436332	0	-1.20651	-0.93438	-1080	1080	-600	1700	-10	10	-10	-0	0	-0	250	-1.2	0.2	177	-1.2	-1	2555	0.07	2101	2814	8	56579	
18.769	1.16683	-1.44912	100	-30	1500	0	-0.145758	-0.0283619	-0.133978	-0.00143055	-0.000278346	-0.00131597	-0.0592341	0.155348	-0.550876	0	0	0	0	0	0	0	0	0	-0.05556	0.15083	-0.528	0	0	0	0.129036	-0.050282	2.70047	-0.145758	-0.0283619	-0.133978	-0.0375547	-0.101291	0.0984915	-0.0386223	-0.13091	0	0.351613	0.0264911	3.48569	0.0216421	0.00418879	0	-1.20651	-0.93438	-1080	1080	-600	1700	-10	10	-10	-0	0	-0	250	-1.2	0.2	177	-1.2	-1	2555	0.07	2101	2814	8	56579	
18.779	1.16683	-1.44912	150	-30	1550	0	-0.145831	-0.0284079	-0.13549	-0.0028925	-0.000563136	-0.00267425	-0.0592341	0.155348	-0.550876	7.28724e-05	4.60594e-05	0.00151139	0	0	0	0	0	0	-0.05556	0.15083	-0.528	0	0	0	0.0467625	-0.051958	2.57249	-0.145758	-0.0283619	-0.133978	-0.0375547	-0.101291	0.0984915	-0.0386223	-0.13091	0	0.351606	0.0264906	3.48581	0.0216421	0.00418879	0	-1.20651	-0.93438	-1080	1080	-600	1700	-10	10	-10	-0	0	-0	250	-1.2	0.2	177	-1.2	-1	2555	0.07	2101	2814	8	56579	
18.7891	1.16683	-1.44712	200	-30	1600	0	-0.146014	-0.0284624	-0.137517	-0.00436885	-0.000850919	-0.00406469	-0.059234	0.155348	-0.552875	0.000141862	8.47207e-05	0.00366593	0	0	0	0	0	0	-0.05556	0.15083	-0.53	0	0	0	-0.04112	-0.0536341	2.4445	-0.145872	-0.0283777	-0.133851	-0.0375769	-0.101351	0.0985497	-0.0386451	-0.130807	0	0.352831	0.0264999	3.4836	0.0214675	0.00418879	0	-1.20652	-0.93438	-1080	1080	-600	1700	-10	10	-10	-0	0	-0	250	-1.2	0.2	177	-1.2	-1	2555	0.07	2101	2814	8	56579	
18.7991	1.16683	-1.44513	250	-30	1650	0	-0.146188	-0.0284651	-0.14184	-0.00583145	-0.00113571	-0.0054838	-0.0592336	0.155348	-0.554868	0.000225948	0.00011842	0.00807991	0	0	0	0	0	0	-0.05556	0.15083	-0.532	0	0	0	-0.134569	-0.0553102	2.31652	-0.145962	-0.0283466	-0.13376	-0.0375988	-0.101411	0.0986079	-0.0386676	-0.130704	0	0.352996	0.0243029	3.48065	0.0214675	0.00383972	0	-1.20652	-0.934381	-1080	1080	-600	1700	-10	10	-10	-0	0	-0	250	-1.2	0.2	177	-1.2	-1	2555	0.07	2101	2814	8	56579	
18.809	1.16683	-1.44215	300	-30	1700	0	-0.146349	-0.0284249	-0.147659	-0.00727943	-0.00141695	-0.00694474	-0.0592325	0.155348	-0.557847	0.000229251	7.85726e-05	0.0140719	0	0	0	0	0	0	-0.05556	0.15083	-0.535	0	0	0	-0.233538	-0.0569862	2.18853	-0.146119	-0.0283463	-0.133587	-0.0376314	-0.101501	0.0986949	-0.0387011	-0.130549	0	0.354449	0.0232212	3.47439	0.021293	0.00366519	0	-1.20652	-0.934383	-1080	1080	-600	1700	-10	10	-10	-0	0	-0	250	-1.2	0.2	177	-1.2	-1	2555	0.07	2101	2814	8	56579	
18.8191	1.16683	-1.4422	334	-30	1750	0	-0.146187	-0.0282553	-0.15504	-0.00874408	-0.00170004	-0.00849808	-0.0592306	0.155347	-0.557801	6.968e-05	-8.93414e-05	0.0214498	0	0	0	0	0	0	-0.05556	0.15083	-0.535	0	0	0	-0.306768	-0.0586623	2.06055	-0.146118	-0.0283446	-0.13359	-0.03763	-0.1015	0.098694	-0.0386997	-0.130551	0	0.35492	0.023252	3.46598	0.021293	0.00366519	0	-1.20653	-0.934386	-1080	1080	-600	1700	-10	10	-10	-0	0	-0	250	-1.2	0.2	177	-1.2	-1	2555	0.07	2101	2814	8	56579	
18.829	1.16683	-1.43928	334	-30	1800	0	-0.145974	-0.0278637	-0.163456	-0.0101964	-0.00197725	-0.0101243	-0.0592282	0.155345	-0.560717	-0.000322505	-0.000456186	0.0300568	0	0	0	0	0	0	-0.05556	0.15083	-0.538	0	0	0	-0.315533	-0.0603384	1.93256	-0.146296	-0.0283199	-0.1334	-0.0376615	-0.101587	0.0987794	-0.0387321	-0.1304	0	0.357731	0.0210729	3.45532	0.020944	0.00331613	0	-1.20654	-0.934389	-1080	1080	-600	1700	-10	10	-10	-0	0	-0	250	-1.2	0.2	177	-1.2	-1	2555	0.07	2101	2814	8	56579	
18.8392	1.16683	-1.43642	334	-29	1850	0	-0.145387	-0.0273911	-0.173154	-0.0116771	-0.00225623	-0.0118879	-0.0592263	0.155342	-0.563578	-0.00100031	-0.00102915	0.039876	0	0	0	0	0	0	-0.05556	0.15083	-0.541	0	0	0	-0.324297	-0.0599474	1.80458	-0.146387	-0.0284203	-0.133278	-0.0376929	-0.101673	0.0988632	-0.0387643	-0.13025	0	0.357306	0.0211132	3.44316	0.0211185	0.00331613	0	-1.20655	-0.934391	-1080	1080	-600	1700	-10	10	-10	-0	0	-0	250	-1.2	0.2	177	-1.2	-1	2555	0.07	2101	2814	8	56579	
18.8492	1.16683	-1.43363	333	-28	1900	0	-0.144581	-0.0267673	-0.183863	-0.0131201	-0.00252337	-0.0137228	-0.0592263	0.155338	-0.566366	-0.00187534	-0.00175243	0.0506827	0	0	0	0	0	0	-0.05556	0.15083	-0.544	0	0	0	-0.330944	-0.0594447	1.67659	-0.146457	-0.0285197	-0.13318	-0.0377249	-0.101757	0.0989443	-0.0387971	-0.130105	0	0.355868	0.0222733	3.42915	0.0214675	0.00349066	0	-1.20654	-0.934388	-1080	1080	-600	1700	-10	10	-10	-0	0	-0	250	-1.2	0.2	177	-1.2	-1	2555	0.07	2101	2814	8	56579	
18.8592	1.16684	-1.43394	332	-27	1950	0	-0.143504	-0.0258721	-0.195745	-0.0145522	-0.00278157	-0.0156764	-0.05923	0.155331	-0.566056	-0.00293742	-0.00265025	0.0625486	0	0	0	0	0	0	-0.05556	0.15083	-0.544	0	0	0	-0.337479	-0.0588302	1.54861	-0.146442	-0.0285223	-0.133196	-0.037725	-0.101746	0.0989341	-0.0387972	-0.130121	0	0.356731	0.0223273	3.41369	0.0214675	0.00349066	0	-1.2065	-0.934375	-1080	1080	-600	1700	-10	10	-10	-0	0	-0	250	-1.2	0.2	177	-1.2	-1	2555	0.07	2101	2814	8	56579	
18.8693	1.16684	-1.43237	330	-26	2000	0	-0.142093	-0.0249182	-0.208318	-0.0159904	-0.00303377	-0.0177848	-0.0592399	0.155322	-0.567632	-0.00426374	-0.00370688	0.0750506	0	0	0	0	0	0	-0.05556	0.15083	-0.546	0	0	0	-0.341673	-0.058104	1.42063	-0.146357	-0.028625	-0.133268	-0.0377501	-0.10179	0.0989774	-0.0388229	-0.130038	0	0.350981	0.0223872	3.39654	0.0225147	0.00349066	0	-1.20643	-0.934348	-1080	1080	-600	1700	-10	10	-10	-0	0	-0	250	-1.2	0.2	177	-1.2	-1	2555	0.07	2101	2814	8	56579	
18.8791	1.16684	-1.42993	328	-25	2050	0	-0.14045	-0.0238259	-0.221515	-0.0173665	-0.00326722	-0.0199552	-0.0592586	0.155309	-0.570068	-0.00582529	-0.00494655	0.0881903	0	0	0	0	0	0	-0.05556	0.15083	-0.549	0	0	0	-0.345644	-0.0572661	1.29264	-0.146276	-0.0287724	-0.133325	-0.0377905	-0.101858	0.0990437	-0.0388644	-0.12991	0	0.344129	0.021328	3.37838	0.0237365	0.00331613	0	-1.20629	-0.934301	-1080	1080	-600	1700	-10	10	-10	-0	0	-0	250	-1.2	0.2	177	-1.2	-1	2555	0.07	2101	2814	8	56579	
18.8891	1.16684	-1.42867	326	-24	2100	0	-0.138345	-0.0227984	-0.235482	-0.0187531	-0.00349572	-0.0223154	-0.0592897	0.155291	-0.571334	-0.00768572	-0.00629548	0.101959	0	0	0	0	0	0	-0.05556	0.15083	-0.551	0	0	0	-0.349391	-0.0563164	1.16466	-0.146031	-0.0290938	-0.133523	-0.0378257	-0.101888	0.0990728	-0.0389005	-0.129844	0	0.332781	0.0247687	3.35933	0.0256563	0.00383972	0	-1.20608	-0.934225	-1080	1080	-600	1700	-10	10	-10	-0	0	-0	250	-1.2	0.2	177	-1.2	-1	2555	0.07	2101	2814	8	56579	
18.9013	1.16684	-1.42958	324	-23	2150	0	-0.136425	-0.0212998	-0.249417	-0.020422	-0.00375628	-0.0253665	-0.0593364	0.155269	-0.570424	-0.00955586	-0.0078328	0.115847	0	0	0	0	0	0	-0.05556	0.15083	-0.551	0	0	0	-0.352915	-0.0552549	1.03667	-0.145981	-0.0291326	-0.13357	-0.0378463	-0.101849	0.0990345	-0.0389217	-0.129891	0	0.333821	0.0248462	3.33916	0.0256563	0.00383972	0	-1.20577	-0.934114	-1080	1080	-600	1700	-10	10	-10	-0	0	-0	250	-1.2	0.2	177	-1.2	-1	2555	0.07	2101	2814	8	56579	
18.9091	1.16511	-1.42771	319	-31	2200	0	-0.131776	-0.0291845	-0.263858	-0.02145	-0.00398395	-0.0274249	-0.0705155	0.15524	-0.572288	-0.0118697	-0.00946908	0.130173	0	0	0	0	0	0	-0.066672	0.15083	-0.554	0	0	0	-0.348855	-0.076205	0.908689	-0.143646	-0.0386536	-0.133685	-0.0438237	-0.0993669	0.0964782	-0.0451359	-0.129848	0	0.322414	0.029455	3.31903	0.0275762	0.00453786	0	-1.14443	-0.910473	-1080	1080	-600	1700	-10	10	-10	-0	0	-0	250	-1.2	0.2	177	-1.2	-1	2555	0.07	2103	2818	8	56579	
18.9191	1.16511	-1.42727	316	-30	2250	0	-0.12887	-0.0277723	-0.280569	-0.0227328	-0.0042604	-0.0302177	-0.0706153	0.1552	-0.572732	-0.0145284	-0.011405	0.14677	0	0	0	0	0	0	-0.066672	0.15083	-0.556	0	0	0	-0.349255	-0.075423	0.780705	-0.143398	-0.0391773	-0.133799	-0.0438901	-0.0993515	0.096463	-0.0452044	-0.129824	0	0.315503	0.0352321	3.29818	0.0287979	0.00541052	0	-1.1438	-0.910212	-1080	1080	-600	1700	-10	10	-10	-0	0	-0	250	-1.2	0.2	177	-1.2	-1	2555	0.07	2103	2818	8	56579	
18.9291	1.16511	-1.42474	314	-28	2300	0	-0.126654	-0.0264449	-0.292779	-0.0240054	-0.00452612	-0.0331595	-0.0707299	0.155161	-0.575261	-0.0167123	-0.0132948	0.159112	0	0	0	0	0	0	-0.066672	0.15083	-0.56	0	0	0	-0.351886	-0.0719593	0.65272	-0.143366	-0.0397397	-0.133667	-0.0439911	-0.0993938	0.0965037	-0.0453085	-0.129691	0	0.315533	0.0387848	3.27406	0.0289725	0.00593412	0	-1.14309	-0.909919	-1080	1080	-600	1700	-10	10	-10	-0	0	-0	250	-1.2	0.2	177	-1.2	-1	2555	0.07	2103	2818	8	56579	
18.9391	1.1651	-1.42668	311	-26	2350	0	-0.123972	-0.0242934	-0.307165	-0.0252442	-0.00476888	-0.036229	-0.0708876	0.155107	-0.573324	-0.0192689	-0.0155679	0.1734	0	0	0	0	0	0	-0.066672	0.15083	-0.56	0	0	0	-0.351671	-0.0682722	0.524736	-0.143241	-0.0398613	-0.133765	-0.0440594	-0.0992932	0.0964054	-0.0453792	-0.129794	0	0.316385	0.0388896	3.2564	0.0289725	0.00593412	0	-1.14212	-0.909516	-1080	1080	-600	1700	-10	10	-10	-0	0	-0	250	-1.2	0.2	177	-1.2	-1	2555	0.07	2103	2818	8	56579	
18.9492	1.16509	-1.42394	308	-24	2400	0	-0.121111	-0.0227035	-0.32118	-0.0264624	-0.00499723	-0.0394594	-0.0710879	0.155042	-0.576057	-0.0220124	-0.0179787	0.187537	0	0	0	0	0	0	-0.066672	0.15083	-0.565	0	0	0	-0.351122	-0.0643616	0.396751	-0.143124	-0.0406822	-0.133643	-0.044213	-0.0993178	0.0964284	-0.0455378	-0.12965	0	0.315096	0.0424552	3.23562	0.0293215	0.00645772	0	-1.14089	-0.909005	-1080	1080	-600	1700	-10	10	-10	-0	0	-0	250	-1.2	0.2	177	-1.2	-1	2555	0.07	2103	2818	8	56579	
18.9592	1.16508	-1.41955	304	-22	2450	0	-0.118104	-0.0211169	-0.334686	-0.0276429	-0.00520832	-0.0428049	-0.0713362	0.154965	-0.580452	-0.0249455	-0.0204691	0.201241	0	0	0	0	0	0	-0.066672	0.15083	-0.572	0	0	0	-0.347504	-0.0602274	0.268767	-0.143049	-0.041586	-0.133445	-0.044416	-0.0993778	0.0964857	-0.0457474	-0.129418	0	0.312618	0.0483408	3.21536	0.0298451	0.00733038	0	-1.13938	-0.908374	-1080	1080	-600	1700	-10	10	-10	-0	0	-0	250	-1.2	0.2	177	-1.2	-1	2555	0.07	2103	2818	8	56579	
18.9691	1.16506	-1.42253	301	-20	2500	0	-0.11482	-0.018599	-0.348097	-0.0287874	-0.00539369	-0.0462744	-0.071641	0.154873	-0.577468	-0.0280196	-0.0232247	0.214502	0	0	0	0	0	0	-0.066672	0.15083	-0.572	0	0	0	-0.346228	-0.0558697	0.140783	-0.142839	-0.0418237	-0.133595	-0.0445545	-0.0992062	0.0963175	-0.0458908	-0.129576	0	0.313544	0.0484839	3.19583	0.0298451	0.00733038	0	-1.13753	-0.907599	-1080	1080	-600	1700	-10	10	-10	-0	0	-0	250	-1.2	0.2	177	-1.2	-1	2555	0.07	2103	2818	8	56579	
18.9792	1.16503	-1.4169	297	-18	2550	0	-0.111406	-0.0171233	-0.360426	-0.029907	-0.00556578	-0.0498967	-0.0720082	0.154765	-0.583103	-0.0313259	-0.0258419	0.227078	0	0	0	0	0	0	-0.066672	0.15083	-0.581	0	0	0	-0.341771	-0.0512885	0.0127984	-0.142732	-0.0429652	-0.133348	-0.0448417	-0.0992697	0.0963772	-0.0461875	-0.129278	0	0.308681	0.0590457	3.17644	0.0307178	0.00890118	0	-1.13531	-0.906667	-1080	1080	-600	1700	-10	10	-10	-0	0	-0	250	-1.2	0.2	177	-1.2	-1	2555	0.07	2103	2818	8	56579	
18.9892	1.16501	-1.40866	293	-17	2600	0	-0.107927	-0.0157897	-0.371819	-0.0309852	-0.00572352	-0.0536112	-0.0724458	0.154641	-0.591336	-0.0347528	-0.0285615	0.23887	0	0	0	0	0	0	-0.066672	0.15083	-0.593	0	0	0	-0.336867	-0.049389	-0.115186	-0.14268	-0.0443511	-0.132949	-0.0452038	-0.0993895	0.096491	-0.0465616	-0.12884	0	0.303713	0.0708128	3.1586	0.0315905	0.0106465	0	-1.13268	-0.905554	-1080	1080	-600	1700	-10	10	-10	-0	0	-0	250	-1.2	0.2	177	-1.2	-1	2555	0.07	2103	2818	8	56579	
18.9991	1.16497	-1.40188	290	-15	2650	0	-0.104415	-0.0145135	-0.382426	-0.0320255	-0.00586812	-0.0574213	-0.0729642	0.154498	-0.598122	-0.0381654	-0.0313764	0.249894	0	0	0	0	0	0	-0.066672	0.15083	-0.604	0	0	0	-0.334472	-0.0444167	-0.24317	-0.142581	-0.0458899	-0.132532	-0.045593	-0.0994439	0.0965408	-0.046964	-0.128477	0	0.302141	0.083789	3.14211	0.0319395	0.0125664	0	-1.12958	-0.904233	-1080	1080	-600	1700	-10	10	-10	-0	0	-0	250	-1.2	0.2	177	-1.2	-1	2555	0.07	2103	2818	8	56579	
19.009	1.16492	-1.40652	285	-12	2700	0	-0.100458	-0.0117203	-0.39255	-0.0330203	-0.00598419	-0.0613087	-0.0735692	0.154335	-0.593479	-0.0417526	-0.0346429	0.259785	0	0	0	0	0	0	-0.066672	0.15083	-0.604	0	0	0	-0.325716	-0.0362039	-0.371155	-0.14221	-0.0463632	-0.132766	-0.0458768	-0.0991394	0.0962414	-0.0472582	-0.128728	0	0.302837	0.083982	3.12675	0.0319395	0.0125664	0	-1.12597	-0.902687	-1080	1080	-600	1700	-10	10	-10	-0	0	-0	250	-1.2	0.2	177	-1.2	-1	2555	0.07	2103	2818	8	56579	
19.0191	1.16487	-1.39561	281	-11	2750	0	-0.0968791	-0.0103176	-0.400689	-0.0339918	-0.00608765	-0.0653268	-0.0742699	0.154151	-0.604388	-0.0453603	-0.0377431	0.26856	0	0	0	0	0	0	-0.066672	0.15083	-0.62	0	0	0	-0.319469	-0.0338015	-0.499139	-0.142239	-0.0480607	-0.132129	-0.046424	-0.0992615	0.0963553	-0.0478242	-0.128142	0	0.301166	0.0958554	3.11208	0.0322886	0.0143117	0	-1.12181	-0.90089	-1080	1080	-600	1700	-10	10	-10	-0	0	-0	250	-1.2	0.2	177	-1.2	-1	2555	0.07	2103	2818	8	56579	
19.0291	1.1648	-1.38915	277	-9	2800	0	-0.093067	-0.00915293	-0.407702	-0.0349233	-0.00617926	-0.0694075	-0.0750743	0.153945	-0.610852	-0.0489251	-0.0408613	0.276033	0	0	0	0	0	0	-0.066672	0.15083	-0.632	0	0	0	-0.312775	-0.0281586	-0.627123	-0.141992	-0.0500142	-0.131669	-0.0469687	-0.0992232	0.0963124	-0.0483881	-0.127794	0	0.300527	0.110076	3.10026	0.0324631	0.0164061	0	-1.11706	-0.898816	-1080	1080	-600	1700	-10	10	-10	-0	0	-0	250	-1.2	0.2	177	-1.2	-1	2555	0.07	2103	2818	8	56579	
19.0392	1.16472	-1.3672	274	-9	2803	0	-0.0899749	-0.00832391	-0.412581	-0.035831	-0.00626323	-0.0735696	-0.0759982	0.153713	-0.632803	-0.0524022	-0.0441284	0.282283	0	0	0	0	0	0	-0.066672	0.15083	-0.66	0	0	0	-0.303723	-0.0281888	-0.634802	-0.142377	-0.0524523	-0.130298	-0.0477959	-0.0996003	0.0966717	-0.0492438	-0.12659	0	0.302156	0.125488	3.09006	0.0322886	0.018675	0	-1.11163	-0.896421	-1080	1080	-600	1700	-10	10	-10	-0	0	-0	250	-1.2	0.2	177	-1.2	-1	2555	0.07	2103	2818	8	56579	
19.0491	1.16462	-1.3732	269	-5	2806	0	-0.0854446	-0.00547734	-0.417466	-0.0366823	-0.00631781	-0.0777293	-0.0770813	0.153436	-0.626801	-0.056339	-0.047829	0.286868	0	0	0	0	0	0	-0.066672	0.15083	-0.66	0	0	0	-0.288384	-0.0156772	-0.642481	-0.141784	-0.0533064	-0.130598	-0.0483229	-0.0991124	0.0961902	-0.0497909	-0.126925	0	0.302476	0.125621	3.08294	0.0322886	0.018675	0	-1.10526	-0.893579	-1080	1080	-600	1700	-10	10	-10	-0	0	-0	250	-1.2	0.2	177	-1.2	-1	2555	0.07	2103	2818	8	56579	
19.0591	1.16466	-1.34842	268	-5	2807	0	-0.0842803	-0.0046159	-0.419805	-0.0375192	-0.00636364	-0.0818975	-0.0777477	0.152998	-0.651578	-0.0580676	-0.0507894	0.290703	0	0	0	0	0	0	-0.066672	0.15083	-0.691	0	0	0	-0.285353	-0.0156828	-0.645041	-0.142348	-0.0554053	-0.129102	-0.0491224	-0.0996005	0.0966669	-0.0506131	-0.125541	0	0.303971	0.13398	3.07581	0.0321141	0.0198968	0	-1.10064	-0.891498	-1080	1080	-600	1700	-10	10	-10	-0	0	-0	250	-1.2	0.2	177	-1.2	-1	2555	0.07	2103	2818	8	56579	
19.069	1.16438	-1.30066	266	-4	2785	0	-0.0825232	-0.00380883	-0.383345	-0.038339	-0.00640148	-0.0857057	-0.0792682	0.152957	-0.699345	-0.0610636	-0.0547801	0.257051	0	0	0	0	0	0	-0.066672	0.15083	-0.733	0	0	0	-0.276897	-0.0124479	-0.588728	-0.143587	-0.058589	-0.126294	-0.0505822	-0.100589	0.0976039	-0.0521293	-0.122798	0	0.304127	0.138752	3.07234	0.0321141	0.0205949	0	-1.09266	-0.887856	-1080	1080	-600	1700	-10	10	-10	-0	0	-0	250	-1.2	0.2	177	-1.2	-1	2555	0.07	2103	2818	8	56579	
19.08	1.15878	-1.26729	261	-8	2767	0	-0.0775243	-0.00820993	-0.351962	-0.0391901	-0.00649162	-0.0895698	-0.0920941	0.160834	-0.732711	-0.0642876	-0.0588769	0.22791	0	0	0	0	0	0	-0.077784	0.158768	-0.762	0	0	0	-0.259659	-0.0247349	-0.542654	-0.141812	-0.0670868	-0.124051	-0.0549711	-0.0994168	0.096002	-0.0569264	-0.120985	0	0.304093	0.152837	3.12474	0.031765	0.0228638	0	-1.05077	-0.867804	-1080	1080	-600	1700	-10	10	-10	-0	0	-0	250	-1.2	0.2	177	-1.2	-1	2555	0.07	2102	2817	8	56579	
19.0891	1.15842	-1.26343	256	-5	2750	0	-0.0733211	-0.00536521	-0.324742	-0.0398605	-0.00654067	-0.092539	-0.0938794	0.160745	-0.736567	-0.0680862	-0.0630532	0.200956	0	0	0	0	0	0	-0.077784	0.158768	-0.762	0	0	0	-0.242709	-0.0153644	-0.499139	-0.141407	-0.0684184	-0.123786	-0.0558409	-0.0990456	0.0956134	-0.0578453	-0.120763	0	0.302042	0.151806	3.16984	0.031765	0.0228638	0	-1.0422	-0.863518	-1080	1080	-600	1700	-10	10	-10	-0	0	-0	250	-1.2	0.2	177	-1.2	-1	2555	0.07	2102	2817	8	56579	
19.0992	1.15814	-1.21844	256	-6	2731	0	-0.0733818	-0.00568149	-0.292494	-0.0405993	-0.00659787	-0.0954838	-0.0951067	0.160749	-0.781558	-0.0691669	-0.0658799	0.171834	0	0	0	0	0	0	-0.077784	0.158768	-0.801	0	0	0	-0.241032	-0.0183098	-0.450505	-0.142549	-0.0715614	-0.12066	-0.057105	-0.100007	0.0965186	-0.0591692	-0.117986	0	0.308318	0.163581	3.20896	0.0305433	0.0247837	0	-1.03654	-0.860648	-1080	1080	-600	1700	-10	10	-10	-0	0	-0	250	-1.2	0.2	177	-1.2	-1	2555	0.07	2102	2817	8	56579	
19.109	1.15793	-1.15664	258	-7	2711	0	-0.0755428	-0.00689761	-0.259619	-0.0413422	-0.0066657	-0.0980369	-0.0959314	0.160793	-0.843355	-0.0690625	-0.0677356	0.143347	0	0	0	0	0	0	-0.077784	0.158768	-0.856	0	0	0	-0.245322	-0.021205	-0.399311	-0.144605	-0.0746332	-0.116272	-0.0584667	-0.101558	0.0979974	-0.0605908	-0.113987	0	0.318723	0.170438	3.25532	0.0286234	0.0260054	0	-1.03287	-0.858773	-1080	1080	-600	1700	-10	10	-10	-0	0	-0	250	-1.2	0.2	177	-1.2	-1	2555	0.07	2102	2817	8	56579	
19.1191	1.15779	-1.09098	261	-9	2693	0	-0.0782639	-0.00838075	-0.228694	-0.0421275	-0.00674979	-0.100332	-0.0964966	0.160828	-0.909022	-0.0683141	-0.0693927	0.117042	0	0	0	0	0	0	-0.077784	0.158768	-0.915	0	0	0	-0.252715	-0.0270826	-0.353237	-0.146578	-0.0777734	-0.111652	-0.0597868	-0.103278	0.0996451	-0.0619666	-0.1095	0	0.322096	0.166938	3.30259	0.0277507	0.0256563	0	-1.03038	-0.857494	-1080	1080	-600	1700	-10	10	-10	-0	0	-0	250	-1.2	0.2	177	-1.2	-1	2555	0.07	2102	2817	8	56579	
19.1291	1.15773	-1.0844	263	-9	2678	0	-0.0793752	-0.00858824	-0.203603	-0.0429211	-0.00683567	-0.102367	-0.0966514	0.160875	-0.915598	-0.0674396	-0.0693986	0.0924116	0	0	0	0	0	0	-0.077784	0.158768	-0.915	0	0	0	-0.257288	-0.0269317	-0.314841	-0.146815	-0.0779869	-0.111191	-0.0599508	-0.10343	0.0997873	-0.0621395	-0.109038	0	0.319895	0.165797	3.34706	0.0277507	0.0256563	0	-1.0298	-0.857195	-1080	1080	-600	1700	-10	10	-10	-0	0	-0	250	-1.2	0.2	177	-1.2	-1	2555	0.07	2102	2817	8	56579	
19.1394	1.15768	-1.01769	267	-12	2661	0	-0.0831549	-0.0111559	-0.175827	-0.04378	-0.0069509	-0.104184	-0.0967818	0.160935	-0.98231	-0.0657499	-0.0699795	0.0697872	0	0	0	0	0	0	-0.077784	0.158768	-0.975	0	0	0	-0.267539	-0.0356809	-0.271327	-0.148905	-0.0811354	-0.10604	-0.0610845	-0.105288	0.101575	-0.0633175	-0.104195	0	0.324831	0.174963	3.38314	0.0267035	0.0272271	0	-1.02937	-0.856973	-1080	1080	-600	1700	-10	10	-10	-0	0	-0	250	-1.2	0.2	177	-1.2	-1	2555	0.07	2102	2817	8	56579	
19.1492	1.15763	-0.972932	270	-14	2646	0	-0.0859033	-0.0130705	-0.15115	-0.044624	-0.00707932	-0.105669	-0.0968779	0.160996	-1.02707	-0.0642278	-0.070474	0.0487734	0	0	0	0	0	0	-0.077784	0.158768	-1.013	0	0	0	-0.274894	-0.041393	-0.232932	-0.150131	-0.0835446	-0.102376	-0.0618363	-0.106523	0.102763	-0.0640994	-0.100797	0	0.329491	0.179447	3.42309	0.0256563	0.0280998	0	-1.0291	-0.856835	-1080	1080	-600	1700	-10	10	-10	-0	0	-0	250	-1.2	0.2	177	-1.2	-1	2555	0.07	2102	2817	8	56579	
19.161	1.15759	-0.905045	273	-16	2631	0	-0.0892914	-0.015448	-0.126318	-0.0456724	-0.00726069	-0.107152	-0.0969567	0.161059	-1.09495	-0.0626542	-0.0712222	0.0293599	0	0	0	0	0	0	-0.077784	0.158768	-1.074	0	0	0	-0.282148	-0.0470381	-0.194536	-0.151946	-0.0866702	-0.0969579	-0.0629402	-0.108383	0.104553	-0.065246	-0.0954117	0	0.326553	0.179558	3.45859	0.0258309	0.0282743	0	-1.02891	-0.856738	-1080	1080	-600	1700	-10	10	-10	-0	0	-0	250	-1.2	0.2	177	-1.2	-1	2555	0.07	2102	2817	8	56579	
19.1692	1.15756	-0.898311	275	-16	2620	0	-0.090384	-0.0156159	-0.107953	-0.046416	-0.00738916	-0.10804	-0.0969743	0.161127	-1.10169	-0.0618443	-0.0711662	0.0115406	0	0	0	0	0	0	-0.077784	0.158768	-1.074	0	0	0	-0.286818	-0.0468414	-0.16638	-0.152228	-0.086782	-0.0964128	-0.0630344	-0.108574	0.104734	-0.0653454	-0.0948629	0	0.324717	0.178548	3.4943	0.0258309	0.0282743	0	-1.02902	-0.856793	-1080	1080	-600	1700	-10	10	-10	-0	0	-0	250	-1.2	0.2	177	-1.2	-1	2555	0.07	2102	2817	8	56579	
19.179	1.1575	-0.853718	277	-18	2608	0	-0.0922987	-0.0171729	-0.0881365	-0.0473231	-0.00755794	-0.108906	-0.0971578	0.161167	-1.14628	-0.0606169	-0.072285	-0.00467566	0	0	0	0	0	0	-0.077784	0.158768	-1.112	0	0	0	-0.291328	-0.0524551	-0.135663	-0.152916	-0.0894579	-0.0928122	-0.0638072	-0.10973	0.105844	-0.0661499	-0.0911537	0	0.318973	0.173412	3.52072	0.026529	0.0275762	0	-1.02829	-0.856418	-1080	1080	-600	1700	-10	10	-10	-0	0	-0	250	-1.2	0.2	177	-1.2	-1	2555	0.07	2102	2817	8	56579	
19.1892	1.15751	-0.800855	280	-21	2597	0	-0.0953622	-0.0194978	-0.0691062	-0.0482913	-0.0077559	-0.109608	-0.0969705	0.16126	-1.19915	-0.0587075	-0.0724259	-0.0192826	0	0	0	0	0	0	-0.077784	0.158768	-1.158	0	0	0	-0.298796	-0.0609393	-0.107507	-0.15407	-0.0919237	-0.0883888	-0.0644993	-0.111198	0.107261	-0.0668669	-0.0865954	0	0.314253	0.166072	3.54924	0.0270526	0.026529	0	-1.0294	-0.856989	-1080	1080	-600	1700	-10	10	-10	-0	0	-0	250	-1.2	0.2	177	-1.2	-1	2555	0.07	2102	2817	8	56579	
19.1992	1.1575	-0.764215	282	-23	2587	0	-0.0973132	-0.0213071	-0.0528404	-0.0492643	-0.00796893	-0.110136	-0.0968952	0.161323	-1.23579	-0.0571361	-0.0730574	-0.0322522	0	0	0	0	0	0	-0.077784	0.158768	-1.188	0	0	0	-0.303421	-0.0664858	-0.08191	-0.154449	-0.0943645	-0.0850926	-0.0649906	-0.112177	0.108204	-0.0673767	-0.0833351	0	0.313966	0.162083	3.57662	0.0268781	0.0260054	0	-1.02991	-0.857255	-1080	1080	-600	1700	-10	10	-10	-0	0	-0	250	-1.2	0.2	177	-1.2	-1	2555	0.07	2102	2817	8	56579	
19.2091	1.15753	-0.757752	283	-23	2580	0	-0.0984966	-0.0212249	-0.0406133	-0.0502435	-0.00817995	-0.11054	-0.0967907	0.161319	-1.24225	-0.0562421	-0.0731852	-0.043901	0	0	0	0	0	0	-0.077784	0.158768	-1.188	0	0	0	-0.30548	-0.0663059	-0.0639922	-0.154739	-0.0944101	-0.0845143	-0.0650365	-0.112372	0.108395	-0.0674227	-0.0827507	0	0.312787	0.161475	3.60003	0.0268781	0.0260054	0	-1.03038	-0.857494	-1080	1080	-600	1700	-10	10	-10	-0	0	-0	250	-1.2	0.2	177	-1.2	-1	2555	0.07	2102	2817	8	56579	
19.2191	1.15754	-0.716511	286	-25	2572	0	-0.100888	-0.0234909	-0.0273649	-0.0512509	-0.0084145	-0.110813	-0.0964859	0.161469	-1.28349	-0.0544865	-0.0731047	-0.0534319	0	0	0	0	0	0	-0.077784	0.158768	-1.223	0	0	0	-0.313145	-0.071848	-0.0435147	-0.155374	-0.0965956	-0.0807968	-0.0654372	-0.113526	0.109509	-0.0678374	-0.0789655	0	0.310821	0.155615	3.61762	0.0270526	0.0251327	0	-1.03218	-0.85842	-1080	1080	-600	1700	-10	10	-10	-0	0	-0	250	-1.2	0.2	177	-1.2	-1	2555	0.07	2102	2817	8	56579	
19.2291	1.15748	-0.684304	287	-26	2565	0	-0.101823	-0.0248166	-0.0155861	-0.0522662	-0.00866195	-0.110968	-0.0965856	0.161568	-1.3157	-0.0536522	-0.0739933	-0.0622863	0	0	0	0	0	0	-0.077784	0.158768	-1.249	0	0	0	-0.315156	-0.0745184	-0.0255969	-0.155475	-0.09881	-0.0778724	-0.0659086	-0.114302	0.110252	-0.0683297	-0.0759397	0	0.307712	0.148673	3.63669	0.0274017	0.0240855	0	-1.03199	-0.858324	-1080	1080	-600	1700	-10	10	-10	-0	0	-0	250	-1.2	0.2	177	-1.2	-1	2555	0.07	2102	2817	8	56579	
19.2391	1.15746	-0.654317	288	-28	2559	0	-0.103097	-0.0265437	-0.00584871	-0.0532968	-0.00892731	-0.111027	-0.0964691	0.161687	-1.34568	-0.0523455	-0.0743854	-0.0693237	0	0	0	0	0	0	-0.077784	0.158768	-1.273	0	0	0	-0.317275	-0.0800626	-0.0102387	-0.155443	-0.100929	-0.0751724	-0.0662242	-0.115074	0.110995	-0.068658	-0.0730653	0	0.30472	0.137523	3.65365	0.0277507	0.0223402	0	-1.03285	-0.858763	-1080	1080	-600	1700	-10	10	-10	-0	0	-0	250	-1.2	0.2	177	-1.2	-1	2555	0.07	2102	2817	8	56579	
19.2492	1.15745	-0.648662	289	-28	2556	0	-0.103824	-0.0266488	0.00013015	-0.0543456	-0.00919651	-0.111026	-0.0963374	0.161797	-1.35134	-0.0519036	-0.074241	-0.0747632	0	0	0	0	0	0	-0.077784	0.158768	-1.273	0	0	0	-0.319755	-0.0799687	-0.00255969	-0.155728	-0.10089	-0.074633	-0.0661997	-0.115269	0.111182	-0.0686334	-0.0725175	0	0.304026	0.13721	3.66766	0.0277507	0.0223402	0	-1.03375	-0.859224	-1080	1080	-600	1700	-10	10	-10	-0	0	-0	250	-1.2	0.2	177	-1.2	-1	2555	0.07	2102	2817	8	56579	
19.2591	1.15744	-0.626219	290	-30	2552	0	-0.104862	-0.0280745	0.00626395	-0.0553928	-0.00947686	-0.110963	-0.0962006	0.161896	-1.37378	-0.0506841	-0.0745207	-0.0789253	0	0	0	0	0	0	-0.077784	0.158768	-1.29	0	0	0	-0.322103	-0.0855464	0.00767906	-0.155546	-0.102595	-0.0726614	-0.0663977	-0.115849	0.111741	-0.0688391	-0.0703237	0	0.301462	0.124174	3.67627	0.0280998	0.0202458	0	-1.03464	-0.85968	-1080	1080	-600	1700	-10	10	-10	-0	0	-0	250	-1.2	0.2	177	-1.2	-1	2555	0.07	2102	2817	8	56579	
19.2691	1.15744	-0.608066	291	-32	2549	0	-0.105591	-0.0296111	0.0105608	-0.056449	-0.00977306	-0.110857	-0.0960793	0.161982	-1.39193	-0.0493369	-0.0748845	-0.0818217	0	0	0	0	0	0	-0.077784	0.158768	-1.303	0	0	0	-0.324569	-0.0911419	0.0153581	-0.154928	-0.104496	-0.071261	-0.0665451	-0.116315	0.11219	-0.0689922	-0.0685277	0	0.294621	0.106894	3.68511	0.029147	0.0174533	0	-1.03543	-0.860082	-1080	1080	-600	1700	-10	10	-10	-0	0	-0	250	-1.2	0.2	177	-1.2	-1	2555	0.07	2102	2817	8	56579	
19.2792	1.15744	-0.592248	292	-33	2548	0	-0.106304	-0.0309309	0.0132667	-0.0575155	-0.0100834	-0.110724	-0.0959428	0.162055	-1.40775	-0.0480892	-0.0751705	-0.0833049	0	0	0	0	0	0	-0.077784	0.158768	-1.314	0	0	0	-0.327286	-0.093953	0.0179178	-0.154393	-0.106101	-0.0700383	-0.0666542	-0.116724	0.112584	-0.0691051	-0.0669472	0	0.290057	0.0897017	3.6913	0.0298451	0.0146608	0	-1.03625	-0.860501	-1080	1080	-600	1700	-10	10	-10	-0	0	-0	250	-1.2	0.2	177	-1.2	-1	2555	0.07	2102	2817	8	56579	
19.2891	1.15745	-0.587809	293	-33	2547	0	-0.106944	-0.0307971	0.0136575	-0.0585806	-0.0103901	-0.110588	-0.0958169	0.162105	-1.41219	-0.0476677	-0.0752742	-0.0832562	0	0	0	0	0	0	-0.077784	0.158768	-1.314	0	0	0	-0.33	-0.0939161	0.0204775	-0.154612	-0.106071	-0.0695987	-0.0666304	-0.116871	0.112727	-0.0690799	-0.0665008	0	0.289872	0.0896445	3.69519	0.0298451	0.0146608	0	-1.03696	-0.860862	-1080	1080	-600	1700	-10	10	-10	-0	0	-0	250	-1.2	0.2	177	-1.2	-1	2555	0.07	2102	2817	8	56579	
19.2992	1.15746	-0.577703	293	-34	2548	0	-0.107351	-0.03188	0.0131498	-0.0596622	-0.0107113	-0.110456	-0.095703	0.162155	-1.4223	-0.0465113	-0.0757186	-0.0820628	0	0	0	0	0	0	-0.077784	0.158768	-1.32	0	0	0	-0.330129	-0.0967998	0.0179178	-0.153862	-0.107599	-0.068913	-0.0666824	-0.117137	0.112984	-0.0691334	-0.0654808	0	0.286647	0.0725636	3.69576	0.0303687	0.0118682	0	-1.03762	-0.861196	-1080	1080	-600	1700	-10	10	-10	-0	0	-0	250	-1.2	0.2	177	-1.2	-1	2555	0.07	2102	2817	8	56579	
19.309	1.15429	-0.565003	296	-32	2549	0	-0.109855	-0.0300026	0.0114105	-0.0607393	-0.0110055	-0.110344	-0.0955723	0.170175	-1.435	-0.0453667	-0.0761353	-0.0795354	0	0	0	0	0	0	-0.077784	0.166706	-1.329	0	0	0	-0.338792	-0.0911419	0.0153581	-0.155222	-0.106138	-0.0681249	-0.0642922	-0.119011	0.114478	-0.0668383	-0.064267	0	0.284549	0.0544297	3.69503	0.0307178	0.00890118	0	-1.05908	-0.871906	-1080	1080	-600	1700	-10	10	-10	-0	0	-0	250	-1.2	0.2	177	-1.2	-1	2555	0.07	2104	2817	8	56579	
19.319	1.15429	-0.556673	296	-33	2551	0	-0.11019	-0.0308024	0.00825451	-0.0618428	-0.0113139	-0.110261	-0.0954815	0.17021	-1.44333	-0.0442736	-0.0768153	-0.0757783	0	0	0	0	0	0	-0.077784	0.166706	-1.334	0	0	0	-0.339058	-0.0940636	0.0102387	-0.154463	-0.107618	-0.0675238	-0.0643331	-0.119224	0.114683	-0.0668804	-0.0634153	0	0.281466	0.0427076	3.69253	0.0312414	0.00698132	0	-1.05958	-0.872148	-1080	1080	-600	1700	-10	10	-10	-0	0	-0	250	-1.2	0.2	177	-1.2	-1	2555	0.07	2104	2817	8	56579	
19.3291	1.1543	-0.553896	296	-32	2554	0	-0.110492	-0.0303999	0.00329934	-0.0629523	-0.0116192	-0.110228	-0.095386	0.170245	-1.4461	-0.0441145	-0.0771884	-0.0705428	0	0	0	0	0	0	-0.077784	0.166706	-1.334	0	0	0	-0.339457	-0.0913206	0.00255969	-0.154606	-0.107588	-0.0672434	-0.0643064	-0.119318	0.114774	-0.0668523	-0.0631304	0	0.281675	0.0427394	3.68799	0.0312414	0.00698132	0	-1.06009	-0.8724	-1080	1080	-600	1700	-10	10	-10	-0	0	-0	250	-1.2	0.2	177	-1.2	-1	2555	0.07	2104	2817	8	56579	
19.3391	1.15432	-0.546461	297	-33	2557	0	-0.110623	-0.0311404	-0.00247734	-0.0640627	-0.0119318	-0.110253	-0.0953065	0.170242	-1.45354	-0.0430574	-0.0780079	-0.0643735	0	0	0	0	0	0	-0.077784	0.166706	-1.339	0	0	0	-0.342709	-0.0942848	-0.00511937	-0.15368	-0.109148	-0.0668508	-0.0643526	-0.1195	0.114951	-0.0668992	-0.0623655	0	0.277728	0.0256736	3.68086	0.0319395	0.00418879	0	-1.06044	-0.87257	-1080	1080	-600	1700	-10	10	-10	-0	0	-0	250	-1.2	0.2	177	-1.2	-1	2555	0.07	2104	2817	8	56579	
19.349	1.15432	-0.541253	297	-34	2561	0	-0.110579	-0.0317026	-0.00856064	-0.0651603	-0.0122465	-0.110338	-0.0952382	0.170271	-1.45875	-0.0422746	-0.078745	-0.0580519	0	0	0	0	0	0	-0.077784	0.166706	-1.342	0	0	0	-0.343245	-0.0972937	-0.0153581	-0.152853	-0.110448	-0.0666125	-0.0643688	-0.119635	0.115081	-0.0669157	-0.061828	0	0.274895	0.0117831	3.67254	0.0324631	0.00191986	0	-1.06082	-0.872754	-1080	1080	-600	1700	-10	10	-10	-0	0	-0	250	-1.2	0.2	177	-1.2	-1	2555	0.07	2104	2817	8	56579	
19.3592	1.15434	-0.536326	297	-34	2564	0	-0.110517	-0.0318659	-0.0145329	-0.0662785	-0.0125689	-0.110485	-0.0952393	0.170222	-1.46367	-0.0415008	-0.0798899	-0.0518079	0	0	0	0	0	0	-0.077784	0.166706	-1.345	0	0	0	-0.343647	-0.0974077	-0.0230372	-0.152018	-0.111756	-0.0663407	-0.0644399	-0.119729	0.115174	-0.0669886	-0.0613179	0	0.273144	0	3.66378	0.0328122	0	0	-1.06069	-0.872692	-1080	1080	-600	1700	-10	10	-10	-0	0	-0	250	-1.2	0.2	177	-1.2	-1	2555	0.07	2104	2817	8	56579	
19.3691	1.15439	-0.534645	297	-33	2568	0	-0.110668	-0.0310163	-0.0206992	-0.0673765	-0.0128766	-0.11069	-0.0951757	0.170135	-1.46535	-0.0414114	-0.080759	-0.0454681	0	0	0	0	0	0	-0.077784	0.166706	-1.345	0	0	0	-0.344183	-0.0946904	-0.0332759	-0.15208	-0.111775	-0.0661673	-0.0644528	-0.119767	0.115215	-0.066999	-0.0611425	0	0.273526	0	3.65517	0.0328122	0	0	-1.06076	-0.872724	-1080	1080	-600	1700	-10	10	-10	-0	0	-0	250	-1.2	0.2	177	-1.2	-1	2555	0.07	2104	2817	8	56579	
19.3792	1.15447	-0.529807	297	-33	2571	0	-0.110701	-0.0311712	-0.0258363	-0.0684934	-0.0131911	-0.110951	-0.0951264	0.169983	-1.47019	-0.0403166	-0.0821518	-0.0401295	0	0	0	0	0	0	-0.077784	0.166706	-1.348	0	0	0	-0.344585	-0.0948011	-0.040955	-0.151018	-0.113323	-0.0659657	-0.0645279	-0.119854	0.115306	-0.0670728	-0.0606386	0	0.270697	-0.013985	3.64629	0.0333358	-0.00226893	0	-1.06059	-0.872646	-1080	1080	-600	1700	-10	10	-10	-0	0	-0	250	-1.2	0.2	177	-1.2	-1	2555	0.07	2104	2817	8	56579	
19.3892	1.1545	-0.524173	296	-33	2574	0	-0.110454	-0.0312446	-0.0306025	-0.0695985	-0.0135037	-0.111257	-0.0951122	0.169923	-1.47583	-0.0397113	-0.0833326	-0.0351438	0	0	0	0	0	0	-0.077784	0.166706	-1.352	0	0	0	-0.342115	-0.0949117	-0.0486341	-0.150165	-0.114577	-0.0657462	-0.0646015	-0.119963	0.115414	-0.0671477	-0.0600515	0	0.265642	-0.0280035	3.63889	0.0342085	-0.00453786	0	-1.06051	-0.872604	-1080	1080	-600	1700	-10	10	-10	-0	0	-0	250	-1.2	0.2	177	-1.2	-1	2555	0.07	2104	2817	8	56579	
19.3992	1.15454	-0.518764	296	-33	2577	0	-0.110259	-0.0312191	-0.0348676	-0.0707034	-0.0138165	-0.111607	-0.0951232	0.169807	-1.48124	-0.0389439	-0.0846623	-0.0307832	0	0	0	0	0	0	-0.077784	0.166706	-1.356	0	0	0	-0.342514	-0.0950223	-0.0563131	-0.149203	-0.115881	-0.0656508	-0.0647022	-0.120049	0.115502	-0.0672498	-0.059486	0	0.260551	-0.047443	3.63202	0.0350811	-0.00767945	0	-1.06017	-0.872438	-1080	1080	-600	1700	-10	10	-10	-0	0	-0	250	-1.2	0.2	177	-1.2	-1	2555	0.07	2104	2817	8	56579	
19.4091	1.15456	-0.517502	296	-32	2579	0	-0.109888	-0.0298298	-0.0386216	-0.0717962	-0.0141132	-0.111991	-0.0953088	0.169665	-1.4825	-0.0392139	-0.0862569	-0.0268948	0	0	0	0	0	0	-0.077784	0.166706	-1.356	0	0	0	-0.34278	-0.0922145	-0.0614325	-0.149102	-0.116087	-0.0655164	-0.0648541	-0.119994	0.11545	-0.0674067	-0.0593536	0	0.260811	-0.0474903	3.62587	0.0350811	-0.00767945	0	-1.05898	-0.871855	-1080	1080	-600	1700	-10	10	-10	-0	0	-0	250	-1.2	0.2	177	-1.2	-1	2555	0.07	2104	2817	8	56579	
19.4191	1.15459	-0.514186	296	-31	2581	0	-0.109515	-0.0294283	-0.0417813	-0.0728841	-0.0144055	-0.112406	-0.0954248	0.169528	-1.48581	-0.0386509	-0.0878193	-0.0237917	0	0	0	0	0	0	-0.077784	0.166706	-1.358	0	0	0	-0.343046	-0.0894023	-0.0665519	-0.148166	-0.117248	-0.0655729	-0.0649912	-0.120002	0.115461	-0.0675476	-0.0590059	0	0.257801	-0.0658958	3.62045	0.0356047	-0.0106465	0	-1.05811	-0.871432	-1080	1080	-600	1700	-10	10	-10	-0	0	-0	250	-1.2	0.2	177	-1.2	-1	2555	0.07	2104	2817	8	56579	
19.4291	1.15461	-0.508092	295	-31	2582	0	-0.109149	-0.0292417	-0.0442167	-0.0739763	-0.0146981	-0.112848	-0.0955339	0.169415	-1.49191	-0.0380646	-0.0892878	-0.0211958	0	0	0	0	0	0	-0.077784	0.166706	-1.363	0	0	0	-0.340297	-0.0894369	-0.0691115	-0.147214	-0.118529	-0.0654124	-0.0651479	-0.120072	0.11553	-0.0677093	-0.058366	0	0.25367	-0.0864832	3.61589	0.0363028	-0.0139626	0	-1.05734	-0.871053	-1080	1080	-600	1700	-10	10	-10	-0	0	-0	250	-1.2	0.2	177	-1.2	-1	2555	0.07	2104	2817	8	56579	
19.4391	1.15464	-0.502095	295	-31	2583	0	-0.108859	-0.0290957	-0.0461496	-0.0750717	-0.0149909	-0.113313	-0.0956363	0.169274	-1.49791	-0.0373692	-0.0907586	-0.0190591	0	0	0	0	0	0	-0.077784	0.166706	-1.368	0	0	0	-0.340429	-0.0894716	-0.0716712	-0.146228	-0.119854	-0.0652087	-0.0653087	-0.120136	0.115594	-0.0678743	-0.0577341	0	0.24841	-0.102756	3.61238	0.0371755	-0.0165806	0	-1.05652	-0.870651	-1080	1080	-600	1700	-10	10	-10	-0	0	-0	250	-1.2	0.2	177	-1.2	-1	2555	0.07	2104	2817	8	56579	
19.4492	1.15467	-0.501342	295	-30	2584	0	-0.108732	-0.0281762	-0.048016	-0.0761617	-0.0152734	-0.113794	-0.0957182	0.169157	-1.49866	-0.0374401	-0.0917909	-0.0171124	0	0	0	0	0	0	-0.077784	0.166706	-1.368	0	0	0	-0.340561	-0.0866191	-0.0742309	-0.146172	-0.119967	-0.0651284	-0.0653941	-0.120104	0.115567	-0.0679614	-0.057654	0	0.248522	-0.102802	3.60958	0.0371755	-0.0165806	0	-1.05586	-0.870326	-1080	1080	-600	1700	-10	10	-10	-0	0	-0	250	-1.2	0.2	177	-1.2	-1	2555	0.07	2104	2817	8	56579	
19.4591	1.1547	-0.497522	295	-30	2585	0	-0.108556	-0.0281595	-0.0492436	-0.0772443	-0.0155542	-0.114285	-0.0957609	0.169058	-1.50248	-0.036813	-0.0928748	-0.0157074	0	0	0	0	0	0	-0.077784	0.166706	-1.371	0	0	0	-0.340693	-0.0866526	-0.0767906	-0.145369	-0.121034	-0.0649511	-0.0654876	-0.120149	0.115613	-0.0680568	-0.0572502	0	0.247549	-0.113672	3.60688	0.03735	-0.018326	0	-1.05542	-0.870108	-1080	1080	-600	1700	-10	10	-10	-0	0	-0	250	-1.2	0.2	177	-1.2	-1	2555	0.07	2104	2817	8	56579	
19.4692	1.15472	-0.492819	294	-30	2586	0	-0.108251	-0.0283214	-0.050033	-0.078332	-0.0158388	-0.114788	-0.0958228	0.168977	-1.50718	-0.036173	-0.093977	-0.014657	0	0	0	0	0	0	-0.077784	0.166706	-1.375	0	0	0	-0.337939	-0.0866861	-0.0793503	-0.144424	-0.122298	-0.06469	-0.0655945	-0.120208	0.115672	-0.0681668	-0.0567524	0	0.244373	-0.122366	3.60511	0.0378736	-0.0197222	0	-1.05494	-0.86987	-1080	1080	-600	1700	-10	10	-10	-0	0	-0	250	-1.2	0.2	177	-1.2	-1	2555	0.07	2104	2817	8	56579	
19.479	1.13096	-0.488299	293	-32	2586	0	-0.10706	-0.0302234	-0.0510748	-0.0793856	-0.0161362	-0.11529	-0.118031	0.208808	-1.5117	-0.0352419	-0.0944371	-0.0138088	0	0	0	0	0	0	-0.100008	0.206398	-1.379	0	0	0	-0.335053	-0.0924648	-0.0793503	-0.142302	-0.12466	-0.0648835	-0.0647225	-0.12149	0.1145	-0.0686734	-0.0567875	0	0.239007	-0.125638	3.60396	0.0387463	-0.0202458	0	-1.05631	-0.870547	-1080	1080	-600	1700	-10	10	-10	-0	0	-0	250	-1.2	0.2	177	-1.2	-1	2555	0.07	2111	2823	8	56579	
19.4891	1.13084	-0.487833	293	-31	2587	0	-0.106741	-0.0291149	-0.0514072	-0.080465	-0.0164306	-0.11581	-0.118348	0.20887	-1.51217	-0.0354374	-0.0957115	-0.0134277	0	0	0	0	0	0	-0.100008	0.206398	-1.379	0	0	0	-0.335182	-0.0896101	-0.08191	-0.142179	-0.124826	-0.0648349	-0.0648407	-0.121435	0.114436	-0.0688063	-0.0567403	0	0.239065	-0.125668	3.60244	0.0387463	-0.0202458	0	-1.05529	-0.870043	-1080	1080	-600	1700	-10	10	-10	-0	0	-0	250	-1.2	0.2	177	-1.2	-1	2555	0.07	2111	2823	8	56579	
19.4992	1.13074	-0.48333	292	-31	2586	0	-0.106643	-0.0293498	-0.0513046	-0.0815384	-0.016726	-0.116327	-0.118474	0.209003	-1.51667	-0.0347275	-0.0964866	-0.013345	0	0	0	0	0	0	-0.100008	0.206398	-1.383	0	0	0	-0.332167	-0.0895755	-0.0793503	-0.141371	-0.125836	-0.0646496	-0.0649062	-0.121517	0.114503	-0.068882	-0.0562603	0	0.232588	-0.133261	3.60195	0.0397935	-0.0214675	0	-1.05511	-0.869953	-1080	1080	-600	1700	-10	10	-10	-0	0	-0	250	-1.2	0.2	177	-1.2	-1	2555	0.07	2111	2823	8	56579	
19.5092	1.13063	-0.478958	292	-32	2586	0	-0.106484	-0.0297725	-0.050992	-0.0826009	-0.0170231	-0.116835	-0.118579	0.209166	-1.52104	-0.0340048	-0.0971138	-0.0135267	0	0	0	0	0	0	-0.100008	0.206398	-1.387	0	0	0	-0.332167	-0.0924648	-0.0793503	-0.140489	-0.126886	-0.0645187	-0.064954	-0.121605	0.114575	-0.0689395	-0.0557937	0	0.227169	-0.144091	3.60209	0.0406662	-0.0232129	0	-1.05506	-0.869931	-1080	1080	-600	1700	-10	10	-10	-0	0	-0	250	-1.2	0.2	177	-1.2	-1	2555	0.07	2111	2823	8	56579	
19.5191	1.13052	-0.476669	292	-32	2586	0	-0.106356	-0.0299625	-0.0506331	-0.0836567	-0.0173205	-0.117338	-0.118707	0.209307	-1.52333	-0.033405	-0.0977576	-0.0138208	0	0	0	0	0	0	-0.100008	0.206398	-1.389	0	0	0	-0.332167	-0.0924648	-0.0793503	-0.139761	-0.12772	-0.0644539	-0.0649946	-0.121644	0.1146	-0.0689892	-0.0555499	0	0.222822	-0.148413	3.60253	0.0413643	-0.023911	0	-1.05489	-0.869845	-1080	1080	-600	1700	-10	10	-10	-0	0	-0	250	-1.2	0.2	177	-1.2	-1	2555	0.07	2111	2823	8	56579	
19.5292	1.13041	-0.476477	292	-32	2586	0	-0.106444	-0.0296647	-0.0502244	-0.084726	-0.0176186	-0.117843	-0.118796	0.20947	-1.52352	-0.0333177	-0.0980648	-0.0142114	0	0	0	0	0	0	-0.100008	0.206398	-1.389	0	0	0	-0.332167	-0.0924648	-0.0793503	-0.139761	-0.12773	-0.0644357	-0.0649921	-0.121653	0.114598	-0.068993	-0.0555315	0	0.222804	-0.148401	3.60303	0.0413643	-0.023911	0	-1.0549	-0.86985	-1080	1080	-600	1700	-10	10	-10	-0	0	-0	250	-1.2	0.2	177	-1.2	-1	2555	0.07	2111	2823	8	56579	
19.5392	1.13031	-0.475245	292	-32	2585	0	-0.106345	-0.0300897	-0.0496491	-0.0857911	-0.0179199	-0.11834	-0.118874	0.209632	-1.52476	-0.0325488	-0.0985239	-0.0149031	0	0	0	0	0	0	-0.100008	0.206398	-1.39	0	0	0	-0.332038	-0.0924291	-0.0767906	-0.138894	-0.128614	-0.0645522	-0.0649958	-0.121686	0.114619	-0.0690032	-0.0554011	0	0.216288	-0.153801	3.60361	0.0424115	-0.0247837	0	-1.05495	-0.869875	-1080	1080	-600	1700	-10	10	-10	-0	0	-0	250	-1.2	0.2	177	-1.2	-1	2555	0.07	2111	2823	8	56579	
19.549	1.13019	-0.47308	292	-33	2585	0	-0.106163	-0.0305469	-0.0489224	-0.0868357	-0.0182205	-0.118821	-0.118962	0.20982	-1.52692	-0.0319103	-0.0989351	-0.0156543	0	0	0	0	0	0	-0.100008	0.206398	-1.392	0	0	0	-0.332038	-0.0953173	-0.0767906	-0.138073	-0.129482	-0.0645767	-0.0650066	-0.121739	0.114656	-0.069022	-0.0551706	0	0.205435	-0.154864	3.60442	0.0441568	-0.0249582	0	-1.05502	-0.869909	-1080	1080	-600	1700	-10	10	-10	-0	0	-0	250	-1.2	0.2	177	-1.2	-1	2555	0.07	2111	2823	8	56579	
19.559	1.13008	-0.471957	292	-33	2585	0	-0.106043	-0.0308982	-0.0482314	-0.0878982	-0.0185301	-0.119304	-0.119039	0.209992	-1.52804	-0.0312587	-0.0993012	-0.0165482	0	0	0	0	0	0	-0.100008	0.206398	-1.393	0	0	0	-0.332038	-0.0953173	-0.0767906	-0.137302	-0.130199	-0.0647795	-0.0650063	-0.121771	0.114675	-0.0690284	-0.0550518	0	0.193495	-0.158086	3.60546	0.0460767	-0.0254818	0	-1.05509	-0.869946	-1080	1080	-600	1700	-10	10	-10	-0	0	-0	250	-1.2	0.2	177	-1.2	-1	2555	0.07	2111	2823	8	56579	
19.5691	1.12997	-0.471877	292	-33	2584	0	-0.106199	-0.0307957	-0.0473392	-0.0889714	-0.0188413	-0.119783	-0.119084	0.210186	-1.52812	-0.0311286	-0.0993792	-0.0174346	0	0	0	0	0	0	-0.100008	0.206398	-1.393	0	0	0	-0.33191	-0.0952804	-0.0742309	-0.137328	-0.130175	-0.0647738	-0.0649767	-0.121794	0.114686	-0.0690037	-0.0550455	0	0.193465	-0.158061	3.60644	0.0460767	-0.0254818	0	-1.05533	-0.870061	-1080	1080	-600	1700	-10	10	-10	-0	0	-0	250	-1.2	0.2	177	-1.2	-1	2555	0.07	2111	2823	8	56579	
19.5792	1.12984	-0.467774	292	-34	2583	0	-0.106109	-0.0313781	-0.0461423	-0.090036	-0.0191561	-0.120246	-0.119152	0.210395	-1.53223	-0.0305142	-0.0996717	-0.0183559	0	0	0	0	0	0	-0.100008	0.206398	-1.397	0	0	0	-0.331781	-0.0981295	-0.0716712	-0.136623	-0.13105	-0.0644982	-0.0649949	-0.121892	0.114765	-0.0690307	-0.0546054	0	0.181523	-0.1537	3.60772	0.0479966	-0.0247837	0	-1.0555	-0.870149	-1080	1080	-600	1700	-10	10	-10	-0	0	-0	250	-1.2	0.2	177	-1.2	-1	2555	0.07	2111	2823	8	56579	
19.589	1.12971	-0.464698	292	-34	2583	0	-0.106001	-0.0318794	-0.0450257	-0.0910822	-0.0194707	-0.12069	-0.119222	0.210618	-1.5353	-0.0300138	-0.0999077	-0.0192556	0	0	0	0	0	0	-0.100008	0.206398	-1.4	0	0	0	-0.331781	-0.0981295	-0.0716712	-0.136015	-0.131787	-0.0642813	-0.0649989	-0.121972	0.114827	-0.0690429	-0.0542756	0	0.172819	-0.150412	3.60943	0.0493928	-0.0242601	0	-1.05571	-0.870249	-1080	1080	-600	1700	-10	10	-10	-0	0	-0	250	-1.2	0.2	177	-1.2	-1	2555	0.07	2111	2823	8	56579	
19.5992	1.12961	-0.458632	292	-35	2582	0	-0.106046	-0.0325012	-0.043618	-0.0921589	-0.0198007	-0.121133	-0.119267	0.210794	-1.54137	-0.0293959	-0.100091	-0.0202166	0	0	0	0	0	0	-0.100008	0.206398	-1.406	0	0	0	-0.331653	-0.100976	-0.0691115	-0.135441	-0.132592	-0.0638346	-0.065035	-0.122107	0.114944	-0.0690876	-0.0536204	0	0.161959	-0.149291	3.61102	0.0511381	-0.0240855	0	-1.05591	-0.870347	-1080	1080	-600	1700	-10	10	-10	-0	0	-0	250	-1.2	0.2	177	-1.2	-1	2555	0.07	2111	2823	8	56579	
19.609	1.12948	-0.458631	292	-35	2581	0	-0.106026	-0.0324651	-0.0427832	-0.0932015	-0.02012	-0.121554	-0.119328	0.211006	-1.54137	-0.0294356	-0.100105	-0.0210545	0	0	0	0	0	0	-0.100008	0.206398	-1.406	0	0	0	-0.331524	-0.100937	-0.0665519	-0.135462	-0.13257	-0.0638376	-0.0650067	-0.122127	0.114951	-0.0690651	-0.0536229	0	0.161906	-0.149243	3.61304	0.0511381	-0.0240855	0	-1.05612	-0.870451	-1080	1080	-600	1700	-10	10	-10	-0	0	-0	250	-1.2	0.2	177	-1.2	-1	2555	0.07	2111	2823	8	56579	
19.6191	1.12939	-0.45359	292	-35	2581	0	-0.106177	-0.0329654	-0.0415338	-0.0942744	-0.0204531	-0.121973	-0.119356	0.211172	-1.54641	-0.0288233	-0.100236	-0.0219653	0	0	0	0	0	0	-0.100008	0.206398	-1.411	0	0	0	-0.331524	-0.100937	-0.0665519	-0.135001	-0.133202	-0.0634991	-0.065028	-0.122244	0.115051	-0.0690934	-0.0530772	0	0.153227	-0.150295	3.61423	0.0525344	-0.0242601	0	-1.05635	-0.870565	-1080	1080	-600	1700	-10	10	-10	-0	0	-0	250	-1.2	0.2	177	-1.2	-1	2555	0.07	2111	2823	8	56579	
19.6291	1.12929	-0.446575	292	-36	2580	0	-0.106306	-0.0336361	-0.0401764	-0.0953316	-0.0207876	-0.122373	-0.119379	0.211362	-1.55342	-0.0282331	-0.100326	-0.022698	0	0	0	0	0	0	-0.100008	0.206398	-1.418	0	0	0	-0.331396	-0.103781	-0.0639922	-0.134539	-0.133963	-0.0628744	-0.06506	-0.122402	0.115189	-0.0691338	-0.052315	0	0.145617	-0.149171	3.61602	0.0537561	-0.0240855	0	-1.05665	-0.870715	-1080	1080	-600	1700	-10	10	-10	-0	0	-0	250	-1.2	0.2	177	-1.2	-1	2555	0.07	2111	2823	8	56579	
19.6391	1.1292	-0.441559	292	-37	2579	0	-0.106458	-0.0341369	-0.0389845	-0.0964034	-0.0211313	-0.122765	-0.119415	0.211526	-1.55844	-0.0276381	-0.100483	-0.0234304	0	0	0	0	0	0	-0.100008	0.206398	-1.423	0	0	0	-0.331268	-0.106622	-0.0614325	-0.134096	-0.13462	-0.0624149	-0.0650834	-0.122514	0.115285	-0.0691644	-0.0517687	0	0.14233	-0.150204	3.61797	0.0542797	-0.0242601	0	-1.05686	-0.870815	-1080	1080	-600	1700	-10	10	-10	-0	0	-0	250	-1.2	0.2	177	-1.2	-1	2555	0.07	2111	2823	8	56579	
19.6492	1.12911	-0.441585	293	-37	2579	0	-0.106706	-0.0341661	-0.0383897	-0.0974743	-0.0214742	-0.123151	-0.119415	0.211703	-1.55842	-0.0274329	-0.100409	-0.0240311	0	0	0	0	0	0	-0.100008	0.206398	-1.423	0	0	0	-0.334146	-0.106622	-0.0614325	-0.134139	-0.134575	-0.0624208	-0.0650388	-0.122543	0.115303	-0.0691224	-0.0517734	0	0.142291	-0.150163	3.61967	0.0542797	-0.0242601	0	-1.05722	-0.870991	-1080	1080	-600	1700	-10	10	-10	-0	0	-0	250	-1.2	0.2	177	-1.2	-1	2555	0.07	2111	2823	8	56579	
19.6592	1.12901	-0.434614	293	-37	2578	0	-0.106928	-0.0347251	-0.0373078	-0.0985454	-0.021822	-0.123524	-0.119424	0.211893	-1.56539	-0.0268773	-0.100458	-0.0245139	0	0	0	0	0	0	-0.100008	0.206398	-1.43	0	0	0	-0.334016	-0.106581	-0.0588728	-0.133805	-0.135183	-0.0618217	-0.0650635	-0.122701	0.115442	-0.0691547	-0.0510117	0	0.135792	-0.151222	3.62052	0.0553269	-0.0244346	0	-1.05757	-0.871164	-1080	1080	-600	1700	-10	10	-10	-0	0	-0	250	-1.2	0.2	177	-1.2	-1	2555	0.07	2111	2823	8	56579	
19.6691	1.1289	-0.427657	293	-38	2578	0	-0.107107	-0.0352175	-0.0363149	-0.0996027	-0.0221696	-0.123883	-0.119439	0.212089	-1.57234	-0.0264074	-0.100535	-0.0248838	0	0	0	0	0	0	-0.100008	0.206398	-1.437	0	0	0	-0.334016	-0.109461	-0.0588728	-0.133514	-0.135752	-0.0611987	-0.065088	-0.122856	0.115577	-0.0691872	-0.0502491	0	0.129279	-0.151185	3.62207	0.0563741	-0.0244346	0	-1.05791	-0.871331	-1080	1080	-600	1700	-10	10	-10	-0	0	-0	250	-1.2	0.2	177	-1.2	-1	2555	0.07	2111	2823	8	56579	
19.6791	1.12881	-0.42775	293	-38	2577	0	-0.10733	-0.0352271	-0.0360891	-0.100684	-0.0225245	-0.124247	-0.119431	0.212274	-1.57225	-0.0262312	-0.100473	-0.025123	0	0	0	0	0	0	-0.100008	0.206398	-1.437	0	0	0	-0.333887	-0.109418	-0.0563131	-0.133561	-0.1357	-0.0612122	-0.0650377	-0.122887	0.115597	-0.0691393	-0.0502611	0	0.12925	-0.15115	3.62349	0.0563741	-0.0244346	0	-1.05831	-0.871528	-1080	1080	-600	1700	-10	10	-10	-0	0	-0	250	-1.2	0.2	177	-1.2	-1	2555	0.07	2111	2823	8	56579	
19.6892	1.12872	-0.422864	294	-38	2577	0	-0.107548	-0.0357549	-0.0355016	-0.101762	-0.022883	-0.124602	-0.119417	0.212457	-1.57714	-0.0256158	-0.100516	-0.0253075	0	0	0	0	0	0	-0.100008	0.206398	-1.442	0	0	0	-0.336762	-0.109418	-0.0563131	-0.133164	-0.136271	-0.0608091	-0.065033	-0.123008	0.115702	-0.0691399	-0.0497244	0	0.123846	-0.152222	3.62381	0.0572468	-0.0246091	0	-1.05873	-0.871734	-1080	1080	-600	1700	-10	10	-10	-0	0	-0	250	-1.2	0.2	177	-1.2	-1	2555	0.07	2111	2823	8	56579	
19.6992	1.12863	-0.418983	294	-39	2577	0	-0.107724	-0.0361232	-0.0351123	-0.102845	-0.0232462	-0.124956	-0.11942	0.212639	-1.58102	-0.0251114	-0.100587	-0.0254287	0	0	0	0	0	0	-0.100008	0.206398	-1.446	0	0	0	-0.336762	-0.112298	-0.0563131	-0.132835	-0.13671	-0.060541	-0.0650257	-0.123107	0.115785	-0.0691378	-0.0492977	0	0.119511	-0.155439	3.62464	0.0579449	-0.0251327	0	-1.05908	-0.871907	-1080	1080	-600	1700	-10	10	-10	-0	0	-0	250	-1.2	0.2	177	-1.2	-1	2555	0.07	2111	2823	8	56579	
19.7091	1.10401	-0.415129	290	-43	2577	0	-0.104306	-0.0396395	-0.0351792	-0.10388	-0.0236396	-0.125305	-0.141759	0.244741	-1.58487	-0.0246987	-0.100679	-0.02539	0	0	0	0	0	0	-0.122232	0.238152	-1.45	0	0	0	-0.325259	-0.123814	-0.0563131	-0.129004	-0.140318	-0.0605692	-0.0657721	-0.123426	0.113553	-0.071491	-0.0493436	0	0.113025	-0.154346	3.6252	0.0589921	-0.0249582	0	-1.0458	-0.865324	-1080	1080	-600	1700	-10	10	-10	-0	0	-0	250	-1.2	0.2	177	-1.2	-1	2555	0.07	2117	2830	8	56579	
19.719	1.10377	-0.41532	290	-42	2577	0	-0.10449	-0.0395633	-0.0352911	-0.104912	-0.0240302	-0.125653	-0.141873	0.245079	-1.58468	-0.0245286	-0.100731	-0.0253042	0	0	0	0	0	0	-0.122232	0.238152	-1.45	0	0	0	-0.325259	-0.120935	-0.0563131	-0.129019	-0.140294	-0.0605954	-0.0657339	-0.123452	0.113552	-0.0714647	-0.0493694	0	0.113027	-0.154348	3.62509	0.0589921	-0.0249582	0	-1.04605	-0.865449	-1080	1080	-600	1700	-10	10	-10	-0	0	-0	250	-1.2	0.2	177	-1.2	-1	2555	0.07	2117	2830	8	56579	
19.7295	1.10355	-0.413538	291	-43	2577	0	-0.10482	-0.0398526	-0.0353314	-0.106013	-0.0244489	-0.126024	-0.141971	0.245401	-1.58646	-0.0238616	-0.10079	-0.0251713	0	0	0	0	0	0	-0.122232	0.238152	-1.452	0	0	0	-0.328135	-0.123814	-0.0563131	-0.128682	-0.140643	-0.0605027	-0.0657128	-0.123514	0.113586	-0.0714563	-0.0491748	0	0.106554	-0.153273	3.62492	0.0600393	-0.0247837	0	-1.04632	-0.865584	-1080	1080	-600	1700	-10	10	-10	-0	0	-0	250	-1.2	0.2	177	-1.2	-1	2555	0.07	2117	2830	8	56579	
19.7391	1.10332	-0.410755	291	-43	2577	0	-0.105132	-0.0401201	-0.0352822	-0.10702	-0.024833	-0.126362	-0.14208	0.245722	-1.58924	-0.0232684	-0.100856	-0.0250443	0	0	0	0	0	0	-0.122232	0.238152	-1.455	0	0	0	-0.328135	-0.123814	-0.0563131	-0.1284	-0.140976	-0.0603265	-0.0657052	-0.123592	0.113635	-0.0714626	-0.048868	0	0.101159	-0.154354	3.62485	0.060912	-0.0249582	0	-1.04655	-0.865702	-1080	1080	-600	1700	-10	10	-10	-0	0	-0	250	-1.2	0.2	177	-1.2	-1	2555	0.07	2117	2830	8	56579	
19.7492	1.10308	-0.408987	291	-43	2577	0	-0.105372	-0.0400949	-0.0353179	-0.108081	-0.0252366	-0.126718	-0.142241	0.246034	-1.59101	-0.0228277	-0.10112	-0.0248756	0	0	0	0	0	0	-0.122232	0.238152	-1.457	0	0	0	-0.328135	-0.123814	-0.0563131	-0.128199	-0.141215	-0.0601934	-0.0657073	-0.123639	0.113654	-0.0714804	-0.0486746	0	0.0968401	-0.153273	3.62492	0.0616101	-0.0247837	0	-1.04661	-0.865731	-1080	1080	-600	1700	-10	10	-10	-0	0	-0	250	-1.2	0.2	177	-1.2	-1	2555	0.07	2117	2830	8	56579	
19.7592	1.10287	-0.409263	292	-43	2577	0	-0.105812	-0.040131	-0.0355943	-0.109139	-0.0256382	-0.127074	-0.142304	0.246352	-1.59074	-0.0224185	-0.10104	-0.024635	0	0	0	0	0	0	-0.122232	0.238152	-1.457	0	0	0	-0.331011	-0.123814	-0.0563131	-0.12823	-0.141171	-0.0602293	-0.0656556	-0.123671	0.113661	-0.0714377	-0.0487095	0	0.096841	-0.153275	3.62486	0.0616101	-0.0247837	0	-1.04698	-0.865916	-1080	1080	-600	1700	-10	10	-10	-0	0	-0	250	-1.2	0.2	177	-1.2	-1	2555	0.07	2117	2830	8	56579	
19.7692	1.10281	-0.406545	292	-43	2577	0	-0.106219	-0.0402538	-0.035551	-0.110201	-0.0260407	-0.127429	-0.142297	0.246453	-1.59346	-0.0218871	-0.101151	-0.0243934	0	0	0	0	0	0	-0.122232	0.238152	-1.46	0	0	0	-0.331011	-0.123814	-0.0563131	-0.128106	-0.141405	-0.0599444	-0.065657	-0.123737	0.113715	-0.071443	-0.0484061	0	0.0946885	-0.152206	3.62445	0.0619592	-0.0246091	0	-1.04718	-0.866014	-1080	1080	-600	1700	-10	10	-10	-0	0	-0	250	-1.2	0.2	177	-1.2	-1	2555	0.07	2117	2830	8	56579	
19.7791	1.10277	-0.405817	293	-43	2577	0	-0.106625	-0.0402353	-0.0356348	-0.111261	-0.0264404	-0.127783	-0.142294	0.246534	-1.59418	-0.0213637	-0.101321	-0.0242042	0	0	0	0	0	0	-0.122232	0.238152	-1.461	0	0	0	-0.333887	-0.123814	-0.0563131	-0.127989	-0.141556	-0.059839	-0.0656452	-0.123762	0.113734	-0.0714332	-0.0483254	0	0.0968466	-0.153284	3.6245	0.0616101	-0.0247837	0	-1.04733	-0.866089	-1080	1080	-600	1700	-10	10	-10	-0	0	-0	250	-1.2	0.2	177	-1.2	-1	2555	0.07	2117	2830	8	56579	
19.7892	1.1027	-0.406141	293	-43	2577	0	-0.106884	-0.0401654	-0.0359115	-0.112341	-0.0268464	-0.128146	-0.142299	0.246654	-1.59386	-0.0210644	-0.101432	-0.0239178	0	0	0	0	0	0	-0.122232	0.238152	-1.461	0	0	0	-0.333887	-0.123814	-0.0563131	-0.127948	-0.141597	-0.0598293	-0.0656174	-0.123774	0.113738	-0.0714076	-0.0483631	0	0.0990075	-0.153287	3.62438	0.0612611	-0.0247837	0	-1.04752	-0.866187	-1080	1080	-600	1700	-10	10	-10	-0	0	-0	250	-1.2	0.2	177	-1.2	-1	2555	0.07	2117	2830	8	56579	
19.7992	1.10264	-0.406485	293	-43	2578	0	-0.107186	-0.0399706	-0.0362157	-0.113415	-0.027247	-0.128509	-0.142308	0.24675	-1.59351	-0.0207695	-0.101603	-0.0236533	0	0	0	0	0	0	-0.122232	0.238152	-1.461	0	0	0	-0.334016	-0.123862	-0.0588728	-0.127956	-0.141574	-0.059869	-0.0655958	-0.123781	0.113738	-0.071388	-0.0484028	0	0.099014	-0.153297	3.62397	0.0612611	-0.0247837	0	-1.04766	-0.866259	-1080	1080	-600	1700	-10	10	-10	-0	0	-0	250	-1.2	0.2	177	-1.2	-1	2555	0.07	2117	2830	8	56579	
19.8091	1.10258	-0.40683	294	-43	2578	0	-0.10745	-0.0397974	-0.036532	-0.11448	-0.0276414	-0.128871	-0.142323	0.246836	-1.59317	-0.0204185	-0.101822	-0.0234143	0	0	0	0	0	0	-0.122232	0.238152	-1.461	0	0	0	-0.336893	-0.123862	-0.0588728	-0.127868	-0.14162	-0.0599464	-0.0655789	-0.123785	0.113736	-0.0713733	-0.0484425	0	0.0947027	-0.151149	3.62352	0.0619592	-0.0244346	0	-1.04777	-0.86631	-1080	1080	-600	1700	-10	10	-10	-0	0	-0	250	-1.2	0.2	177	-1.2	-1	2555	0.07	2117	2830	8	56579	
19.8191	1.10252	-0.406181	294	-43	2578	0	-0.107669	-0.0397272	-0.0367742	-0.115548	-0.0280355	-0.129236	-0.142335	0.246936	-1.59382	-0.0200727	-0.102013	-0.0231582	0	0	0	0	0	0	-0.122232	0.238152	-1.462	0	0	0	-0.336893	-0.123862	-0.0588728	-0.127742	-0.14174	-0.0599323	-0.0655671	-0.12381	0.113752	-0.0713645	-0.048371	0	0.0882316	-0.147922	3.62306	0.0630064	-0.023911	0	-1.04791	-0.86638	-1080	1080	-600	1700	-10	10	-10	-0	0	-0	250	-1.2	0.2	177	-1.2	-1	2555	0.07	2117	2830	8	56579	
19.8294	1.10246	-0.402522	294	-43	2578	0	-0.107981	-0.0396736	-0.0366476	-0.116663	-0.0284452	-0.129614	-0.142344	0.247033	-1.59748	-0.0197827	-0.102211	-0.0228958	0	0	0	0	0	0	-0.122232	0.238152	-1.466	0	0	0	-0.336893	-0.123862	-0.0588728	-0.127763	-0.141884	-0.0595434	-0.0655833	-0.123888	0.113817	-0.0713861	-0.0479615	0	0.0839176	-0.144692	3.6227	0.0637045	-0.0233874	0	-1.04805	-0.866451	-1080	1080	-600	1700	-10	10	-10	-0	0	-0	250	-1.2	0.2	177	-1.2	-1	2555	0.07	2117	2830	8	56579	
19.839	1.1024	-0.402874	295	-42	2578	0	-0.10822	-0.0394545	-0.0369043	-0.117707	-0.0288255	-0.12997	-0.142359	0.247124	-1.59713	-0.0195468	-0.10241	-0.0226796	0	0	0	0	0	0	-0.122232	0.238152	-1.466	0	0	0	-0.33977	-0.120982	-0.0588728	-0.127766	-0.141864	-0.0595839	-0.0655651	-0.123892	0.113816	-0.0713701	-0.0480021	0	0.0839152	-0.144688	3.62287	0.0637045	-0.0233874	0	-1.04816	-0.866507	-1080	1080	-600	1700	-10	10	-10	-0	0	-0	250	-1.2	0.2	177	-1.2	-1	2555	0.07	2117	2830	8	56579	
19.849	1.10234	-0.398188	295	-42	2578	0	-0.108575	-0.039292	-0.0365066	-0.118789	-0.0292174	-0.130334	-0.142402	0.247193	-1.60181	-0.0192978	-0.102746	-0.0224339	0	0	0	0	0	0	-0.122232	0.238152	-1.471	0	0	0	-0.33977	-0.120982	-0.0588728	-0.127872	-0.142038	-0.0589406	-0.065608	-0.123977	0.113888	-0.0714203	-0.0474764	0	0.0828405	-0.138219	3.6225	0.0638791	-0.0223402	0	-1.04815	-0.866503	-1080	1080	-600	1700	-10	10	-10	-0	0	-0	250	-1.2	0.2	177	-1.2	-1	2555	0.07	2117	2830	8	56579	
19.8591	1.10229	-0.391489	295	-42	2577	0	-0.108959	-0.0393947	-0.0359655	-0.119895	-0.029617	-0.130699	-0.142383	0.247295	-1.60851	-0.0190801	-0.102839	-0.0221324	0	0	0	0	0	0	-0.122232	0.238152	-1.478	0	0	0	-0.339638	-0.120935	-0.0563131	-0.12804	-0.142234	-0.0580979	-0.0656408	-0.124114	0.114007	-0.0714595	-0.0467227	0	0.0817532	-0.132808	3.62306	0.0640536	-0.0214675	0	-1.04839	-0.866622	-1080	1080	-600	1700	-10	10	-10	-0	0	-0	250	-1.2	0.2	177	-1.2	-1	2555	0.07	2117	2830	8	56579	
19.8692	1.03701	-0.385773	271	-61	2577	0	-0.0861826	-0.0570824	-0.0355993	-0.12076	-0.0301901	-0.131057	-0.220585	0.295247	-1.61423	-0.0188694	-0.103108	-0.0218731	0	0	0	0	0	0	-0.200016	0.285782	-1.484	0	0	0	-0.270603	-0.175633	-0.0563131	-0.105052	-0.16019	-0.0574724	-0.0760515	-0.117793	0.101793	-0.0880051	-0.0472692	0	0.0785043	-0.127394	3.62383	0.0645772	-0.0205949	0	-0.929141	-0.801106	-1080	1080	-600	1700	-10	10	-10	-0	0	-0	250	-1.2	0.2	177	-1.2	-1	2555	0.07	2125	2838	8	56579	
19.8792	1.03657	-0.386059	271	-61	2577	0	-0.0862666	-0.0568862	-0.0357854	-0.121623	-0.0307593	-0.131415	-0.221003	0.295556	-1.61394	-0.0186778	-0.103362	-0.0217226	0	0	0	0	0	0	-0.200016	0.285782	-1.484	0	0	0	-0.270603	-0.175633	-0.0563131	-0.104944	-0.160248	-0.057508	-0.0760704	-0.117772	0.101732	-0.0880645	-0.0473104	0	0.0784977	-0.127384	3.62435	0.0645772	-0.0205949	0	-0.928735	-0.800863	-1080	1080	-600	1700	-10	10	-10	-0	0	-0	250	-1.2	0.2	177	-1.2	-1	2555	0.07	2125	2838	8	56579	
19.8892	1.03612	-0.380352	272	-62	2577	0	-0.0872605	-0.0572566	-0.0353966	-0.122493	-0.0313299	-0.131767	-0.221404	0.295884	-1.61965	-0.0176875	-0.103194	-0.0215366	0	0	0	0	0	0	-0.200016	0.285782	-1.49	0	0	0	-0.27348	-0.178511	-0.0563131	-0.104948	-0.160451	-0.0569332	-0.0761478	-0.11786	0.101764	-0.088192	-0.0466574	0	0.0774216	-0.129548	3.62407	0.0647517	-0.020944	0	-0.928397	-0.800661	-1080	1080	-600	1700	-10	10	-10	-0	0	-0	250	-1.2	0.2	177	-1.2	-1	2555	0.07	2125	2838	8	56579	
19.8992	1.03569	-0.374607	273	-62	2577	0	-0.0882663	-0.0576133	-0.0349818	-0.123377	-0.0319074	-0.132118	-0.221802	0.296194	-1.62539	-0.0166547	-0.103051	-0.0213968	0	0	0	0	0	0	-0.200016	0.285782	-1.496	0	0	0	-0.276357	-0.178511	-0.0563131	-0.104921	-0.160664	-0.0563786	-0.0762277	-0.117944	0.101794	-0.0883213	-0.045998	0	0.0763353	-0.132775	3.62462	0.0649262	-0.0214675	0	-0.928038	-0.800445	-1080	1080	-600	1700	-10	10	-10	-0	0	-0	250	-1.2	0.2	177	-1.2	-1	2555	0.07	2125	2838	8	56579	
19.909	1.03525	-0.366847	274	-62	2576	0	-0.0892972	-0.0579861	-0.0342177	-0.124258	-0.0324792	-0.132455	-0.222207	0.296509	-1.63315	-0.015685	-0.102973	-0.0211974	0	0	0	0	0	0	-0.200016	0.285782	-1.504	0	0	0	-0.279126	-0.178442	-0.0537534	-0.104982	-0.160959	-0.055415	-0.0763284	-0.11806	0.101851	-0.0884755	-0.0451018	0	0.0806454	-0.132762	3.62521	0.0642281	-0.0214675	0	-0.927673	-0.800227	-1080	1080	-600	1700	-10	10	-10	-0	0	-0	250	-1.2	0.2	177	-1.2	-1	2555	0.07	2125	2838	8	56579	
19.9191	1.03482	-0.36712	275	-63	2576	0	-0.0901525	-0.0581679	-0.0344265	-0.125163	-0.0330631	-0.132801	-0.222584	0.296821	-1.63288	-0.0147395	-0.102838	-0.0210232	0	0	0	0	0	0	-0.200016	0.285782	-1.504	0	0	0	-0.282002	-0.181319	-0.0537534	-0.104892	-0.161006	-0.0554497	-0.0763383	-0.118048	0.101799	-0.0885232	-0.0451412	0	0.0806312	-0.132739	3.6263	0.0642281	-0.0214675	0	-0.927365	-0.800042	-1080	1080	-600	1700	-10	10	-10	-0	0	-0	250	-1.2	0.2	177	-1.2	-1	2555	0.07	2125	2838	8	56579	
19.929	1.03441	-0.361379	276	-63	2576	0	-0.0911497	-0.0584192	-0.0338845	-0.126072	-0.0336454	-0.133139	-0.22297	0.297112	-1.63862	-0.013786	-0.10279	-0.0208884	0	0	0	0	0	0	-0.200016	0.285782	-1.51	0	0	0	-0.284877	-0.181319	-0.0537534	-0.104936	-0.161209	-0.0547728	-0.0764175	-0.118128	0.101828	-0.0886505	-0.0444776	0	0.0849521	-0.134903	3.626	0.06353	-0.0218166	0	-0.927002	-0.799824	-1080	1080	-600	1700	-10	10	-10	-0	0	-0	250	-1.2	0.2	177	-1.2	-1	2555	0.07	2125	2838	8	56579	
19.9391	1.034	-0.357612	277	-63	2576	0	-0.0920878	-0.0586353	-0.0335592	-0.127	-0.0342365	-0.133477	-0.223342	0.297405	-1.64239	-0.0128346	-0.102741	-0.0207438	0	0	0	0	0	0	-0.200016	0.285782	-1.514	0	0	0	-0.287753	-0.181319	-0.0537534	-0.104922	-0.161377	-0.054303	-0.0764721	-0.118179	0.101831	-0.0887488	-0.0440437	0	0.0870996	-0.134887	3.62677	0.0631809	-0.0218166	0	-0.926675	-0.799627	-1080	1080	-600	1700	-10	10	-10	-0	0	-0	250	-1.2	0.2	177	-1.2	-1	2555	0.07	2125	2838	8	56579	
19.9492	1.03358	-0.354866	278	-63	2576	0	-0.0929102	-0.0587798	-0.0333476	-0.127936	-0.0348289	-0.133813	-0.223727	0.297703	-1.64513	-0.011963	-0.102751	-0.0205929	0	0	0	0	0	0	-0.200016	0.285782	-1.517	0	0	0	-0.290629	-0.181319	-0.0537534	-0.104873	-0.16153	-0.0539405	-0.0765172	-0.118212	0.101818	-0.0888373	-0.0437289	0	0.0881721	-0.133798	3.62723	0.0630064	-0.0216421	0	-0.926329	-0.79942	-1080	1080	-600	1700	-10	10	-10	-0	0	-0	250	-1.2	0.2	177	-1.2	-1	2555	0.07	2125	2838	8	56579	
19.9591	1.03318	-0.355156	279	-63	2576	0	-0.093693	-0.0588519	-0.0335161	-0.128863	-0.0354111	-0.134145	-0.224089	0.297993	-1.64484	-0.0110911	-0.102724	-0.0204607	0	0	0	0	0	0	-0.200016	0.285782	-1.517	0	0	0	-0.293504	-0.181319	-0.0537534	-0.104784	-0.161576	-0.0539768	-0.076528	-0.118198	0.101767	-0.0888844	-0.0437698	0	0.0881679	-0.133791	3.62752	0.0630064	-0.0216421	0	-0.926019	-0.799234	-1080	1080	-600	1700	-10	10	-10	-0	0	-0	250	-1.2	0.2	177	-1.2	-1	2555	0.07	2125	2838	8	56579	
19.9692	1.03279	-0.352414	280	-64	2576	0	-0.0945792	-0.0589451	-0.0332042	-0.129818	-0.0360062	-0.13448	-0.224451	0.298265	-1.64759	-0.0102225	-0.102745	-0.0203945	0	0	0	0	0	0	-0.200016	0.285782	-1.52	0	0	0	-0.29638	-0.184197	-0.0537534	-0.104802	-0.16169	-0.0535987	-0.0765733	-0.11823	0.101756	-0.0889704	-0.0434545	0	0.0935663	-0.134875	3.62727	0.0621337	-0.0218166	0	-0.925684	-0.799032	-1080	1080	-600	1700	-10	10	-10	-0	0	-0	250	-1.2	0.2	177	-1.2	-1	2555	0.07	2125	2838	8	56579	
