time ;e1;e2;ctrlpitch;ctrlroll;ctrlthrust;ctrlyaw;edx;edy;edz;cumulx;cumuly;cumulz;x_pred;y_pred;z_pred;dxr_pred;dyr_pred;dzr_pred;dxrT;dyrT;dzrT;dxrUn;dyrUn;dzrUn;x;y;z;dx;dy;dz;ux;uy;uz;dxd;dyd;dzd;Perpx;Tangx;Perpy;Tangy;Perpz;Tanz;ax;ay;az;pitch;roll;yaw;yawd;eyaw;kpvx;kpvy;kpvz;kpyaw;kivx;kivy;kivz;kdvx;kdvy;kdvz;kdyaw;ktg;veld;pitchoff;ke1;ke2;gravity;thr_vel;gps_accuracy;height_accuracy;gps_sat_num;gps_status
10,9437;1,1997;-2,07875;50;-6;1450;0;0,0782725;-0,00625895;-0,0371381;0,000654906;-5,23686e-05;-0,000310734;-0,000234232;-0,0159078;0,0787535;0,0520779;-0,0122793;-0,113411;0;0;0;0;0;0;0;-0,0158768;0,077;0,03;-0,04;-0,115;0,205665;-0,00972145;2,82845;0,13035;-0,0185382;-0,150549;-0,00131646;0,08943;-0,0894074;-0,0013168;-0,154936;-0;0;-0;9,81;0,0380482;-0,0228638;0;1,55607;0,999892;-1080;1080;-300;1700;-10;10;-10;-0;0;-0;250;-1,2;0,2;177;-1,2;-1;2555;0,07;1883;3158;8;56579;
10,9455;1,19968;-2,07759;93;-5;1500;0;0,0769736;-0,00504008;-0,0370278;0,000794229;-6,14912e-05;-0,000377754;6,7752e-05;-0,0163088;0,0775916;0,0538094;-0,0111507;-0,113417;0;0;0;0;0;0;0;-0,0158768;0,077;0,03;-0,04;-0,115;0,140762;-0,00838056;2,70047;0,130783;-0,0161908;-0,150445;0,000371586;0,0894692;-0,0894454;0,000371685;-0,154902;-0;0,241452;-0,140783;3,65201;0,0380482;-0,0228638;0;1,57495;0,999991;-1080;1080;-300;1700;-10;10;-10;-0;0;-0;250;-1,2;0,2;177;-1,2;-1;2555;0,07;1883;3158;8;56579;
10,9555;1,19968;-2,07777;93;-5;1550;0;0,0776148;-0,00495639;-0,0360055;0,00156929;-0,000110986;-0,000737306;1,76686e-05;-0,0162406;0,0777717;0,0531537;-0,0116436;-0,114407;0;0;0;0;0;0;0;-0,0158768;0,077;0,03;-0,04;-0,116;0,145454;-0,00865991;2,57249;0,130768;-0,0166;-0,150413;9,73063e-05;0,0894652;-0,0894416;9,73319e-05;-0,154907;-0;0,239301;-0,139707;3,65208;0,0383972;-0,0226893;0;1,57188;0,999999;-1080;1080;-300;1700;-10;10;-10;-0;0;-0;250;-1,2;0,2;177;-1,2;-1;2555;0,07;1883;3158;8;56579;
10,9654;1,19969;-2,07853;92;-6;1600;0;0,0781081;-0,00599362;-0,036087;0,00233881;-0,000170035;-0,00109284;-0,000179057;-0,0159779;0,0785316;0,0523789;-0,0121353;-0,114394;0;0;0;0;0;0;0;-0,0158768;0,077;0,03;-0,04;-0,116;0,151933;-0,0107271;2,4445;0,130487;-0,0181289;-0,150481;-0,00100206;0,0894398;-0,089417;-0,00100231;-0,154929;-0;0,239273;-0,13969;3,65281;0,0383972;-0,0226893;0;1,55959;0,999937;-1080;1080;-300;1700;-10;10;-10;-0;0;-0;250;-1,2;0,2;177;-1,2;-1;2555;0,07;1883;3158;8;56579;
10,9755;1,19968;-2,07755;93;-5;1650;0;0,0772684;-0,0048242;-0,0329701;0,00312193;-0,000218928;-0,00142699;6,71166e-05;-0,0163045;0,0775456;0,0535645;-0,0113944;-0,117428;0;0;0;0;0;0;0;-0,0158768;0,077;0,03;-0,04;-0,119;0,154838;-0,00921862;2,31652;0,130833;-0,0162186;-0,150399;0,000368203;0,0894704;-0,0894466;0,000368301;-0,1549;-0;0,239276;-0,140766;3,65274;0,0383972;-0,0228638;0;1,57491;0,999992;-1080;1080;-300;1700;-10;10;-10;-0;0;-0;250;-1,2;0,2;177;-1,2;-1;2555;0,07;1883;3158;8;56579;
10,9854;1,19968;-2,07753;93;-5;1700;0;0,0771563;-0,0049572;-0,029977;0,00388554;-0,000267989;-0,00172367;6,2766e-05;-0,016297;0,0775293;0,0536947;-0,011317;-0,1204;0;0;0;0;0;0;0;-0,0158768;0,077;0,03;-0,04;-0,122;0,15953;-0,00949797;2,18853;0,130851;-0,0162742;-0,150377;0,000344495;0,0894709;-0,0894471;0,000344587;-0,1549;-0;0,238115;-0,140715;3,65498;0,0385718;-0,0228638;0;1,57465;0,999993;-1080;1080;-300;1700;-10;10;-10;-0;0;-0;250;-1,2;0,2;177;-1,2;-1;2555;0,07;1883;3158;8;56579;
10,9955;1,19968;-2,07749;93;-5;1750;0;0,0770899;-0,00494418;-0,0299727;0,00466484;-0,00031797;-0,00202666;7,0938e-05;-0,0163062;0,0774921;0,0537721;-0,0112679;-0,120401;0;0;0;0;0;0;0;-0,0158768;0,077;0,03;-0,04;-0,122;0,164222;-0,00977732;2,06055;0,130862;-0,0162121;-0,150374;0,000389131;0,0894717;-0,0894479;0,000389235;-0,154899;-0;0,238032;-0,140666;3,65713;0,0385718;-0,0228638;0;1,57515;0,999991;-1080;1080;-300;1700;-10;10;-10;-0;0;-0;250;-1,2;0,2;177;-1,2;-1;2555;0,07;1883;3158;8;56579;
11,0054;1,19992;-2,07951;68;-39;1800;0;0,1004;-0,0369811;-0,0278611;0,00565318;-0,000682013;-0,00230093;6,34469e-05;-0,007921;0,0795088;0,0304452;0,0211948;-0,122573;0;0;0;0;0;0;0;-0,00793839;0,079;0,03;0;-0,124;0,219153;-0,0784383;1,93256;0,130845;-0,0157864;-0,150434;0,000716157;0,0894139;-0,0894083;0,000716202;-0,154953;-0;0,239106;-0,138519;3,65712;0,0383972;-0,0225147;0;1,57881;0,999968;-1080;1080;-300;1700;-10;10;-10;-0;0;-0;250;-1,2;0,2;177;-1,2;-1;2555;0,07;1885;3163;8;56579;
11,0155;1,19992;-2,07948;69;-39;1850;0;0,0995166;-0,036657;-0,027177;0,0066575;-0,00105196;-0,0025752;6,94862e-05;-0,00792109;0,0794799;0,0313508;0,0209569;-0,123246;0;0;0;0;0;0;0;-0,00793839;0,079;0,03;0;-0,124;0,223176;-0,0806172;1,80458;0,130867;-0,0157002;-0,150423;0,000784319;0,0894141;-0,0894085;0,000784368;-0,154952;-0;0,239047;-0,136338;3,65864;0,0383972;-0,0221657;0;1,57957;0,999962;-1080;1080;-300;1700;-10;10;-10;-0;0;-0;250;-1,2;0,2;177;-1,2;-1;2555;0,07;1885;3163;8;56579;
11,0254;1,19992;-2,07951;69;-39;1900;0;0,0995102;-0,0367763;-0,0271802;0,00764624;-0,00141737;-0,00284526;6,11942e-05;-0,00792117;0,0795104;0,0313363;0,0209455;-0,123248;0;0;0;0;0;0;0;-0,00793839;0,079;0,03;0;-0,124;0,229207;-0,082796;1,67659;0,130846;-0,0158308;-0,150428;0,000690716;0,0894141;-0,0894085;0,00069076;-0,154953;-0;0,239028;-0,136327;3,65912;0,0383972;-0,0221657;0;1,57852;0,99997;-1080;1080;-300;1700;-10;10;-10;-0;0;-0;250;-1,2;0,2;177;-1,2;-1;2555;0,07;1885;3163;8;56579;
11,0353;1,19992;-2,07946;69;-39;1950;0;0,0993601;-0,036697;-0,0250977;0,00863537;-0,00178268;-0,00309511;6,83254e-05;-0,00792126;0,0794569;0,0315677;0,0210165;-0,125275;0;0;0;0;0;0;0;-0,00793839;0,079;0,03;0;-0,126;0,235239;-0,0849748;1,54861;0,130928;-0,0156805;-0,150373;0,000771206;0,0894148;-0,0894092;0,000771254;-0,154951;-0;0,236883;-0,135254;3,65911;0,0387463;-0,0219911;0;1,57942;0,999963;-1080;1080;-300;1700;-10;10;-10;-0;0;-0;250;-1,2;0,2;177;-1,2;-1;2555;0,07;1885;3163;8;56579;
11,0455;1,19992;-2,07947;69;-39;2000;0;0,0993589;-0,0367378;-0,0250152;0,00964813;-0,00215715;-0,00335009;6,3306e-05;-0,00792134;0,0794743;0,0316709;0,0210154;-0,125265;0;0;0;0;0;0;0;-0,00793839;0,079;0,03;0;-0,126;0,241271;-0,0871537;1,42063;0,13103;-0,0157224;-0,15028;0,000714543;0,0894148;-0,0894092;0,000714588;-0,154951;-0;0,232535;-0,134148;3,66061;0,0394444;-0,0218166;0;1,57879;0,999968;-1080;1080;-300;1700;-10;10;-10;-0;0;-0;250;-1,2;0,2;177;-1,2;-1;2555;0,07;1885;3163;8;56579;
11,0555;1,19992;-2,07947;69;-39;2050;0;0,0992928;-0,0367532;-0,0249947;0,0106378;-0,00252347;-0,00359921;6,35609e-05;-0,00792143;0,0794695;0,0317377;0,0210348;-0,125285;0;0;0;0;0;0;0;-0,00793839;0,079;0,03;0;-0,126;0,247303;-0,0893325;1,29264;0,131031;-0,0157184;-0,15028;0,000717413;0,0894149;-0,0894093;0,000717458;-0,154951;-0;0,232533;-0,134147;3,66066;0,0394444;-0,0218166;0;1,57882;0,999968;-1080;1080;-300;1700;-10;10;-10;-0;0;-0;250;-1,2;0,2;177;-1,2;-1;2555;0,07;1885;3163;8;56579;
11,0653;1,19992;-2,07945;69;-39;2100;0;0,0992565;-0,0365826;-0,0259456;0,0116106;-0,00288202;-0,00385351;7,03769e-05;-0,00792151;0,0794473;0,0318304;0,0211108;-0,12431;0;0;0;0;0;0;0;-0,00793839;0,079;0,03;0;-0,125;0,253334;-0,0915114;1,16466;0,131087;-0,0154718;-0,150256;0,000794337;0,0894148;-0,0894092;0,000794386;-0,154951;-0;0,23146;-0,136293;3,66067;0,039619;-0,0221657;0;1,57968;0,999961;-1080;1080;-300;1700;-10;10;-10;-0;0;-0;250;-1,2;0,2;177;-1,2;-1;2555;0,07;1885;3163;8;56579;
11,0753;1,19992;-2,0795;69;-39;2150;0;0,0993698;-0,0365378;-0,0290013;0,0126087;-0,003249;-0,00414479;6,32462e-05;-0,0079216;0,0795033;0,0316361;0,0210906;-0,121328;0;0;0;0;0;0;0;-0,00793839;0,079;0,03;0;-0,122;0,259366;-0,0936902;1,03667;0,131006;-0,0154471;-0,150329;0,000713839;0,0894141;-0,0894085;0,000713884;-0,154952;-0;0,234704;-0,137381;3,65998;0,0390954;-0,0223402;0;1,57878;0,999968;-1080;1080;-300;1700;-10;10;-10;-0;0;-0;250;-1,2;0,2;177;-1,2;-1;2555;0,07;1885;3163;8;56579;
11,0854;1,19992;-2,07952;69;-39;2200;0;0,0993389;-0,0366263;-0,0289988;0,0136107;-0,00361845;-0,00443731;5,79563e-05;-0,00792168;0,0795211;0,0316538;0,0210958;-0,121333;0;0;0;0;0;0;0;-0,00793839;0,079;0,03;0;-0,122;0,265398;-0,0958691;0,908689;0,130993;-0,0155305;-0,150332;0,000654127;0,0894141;-0,0894085;0,000654168;-0,154953;-0;0,234788;-0,137431;3,65777;0,0390954;-0,0223402;0;1,57811;0,999973;-1080;1080;-300;1700;-10;10;-10;-0;0;-0;250;-1,2;0,2;177;-1,2;-1;2555;0,07;1885;3163;8;56579;
11,0954;1,19992;-2,07951;69;-39;2250;0;0,0993082;-0,0363979;-0,0310783;0,0145986;-0,00398054;-0,00474647;6,49552e-05;-0,00792177;0,0795089;0,0315378;0,0211385;-0,119409;0;0;0;0;0;0;0;-0,00793839;0,079;0,03;0;-0,12;0,27143;-0,0980479;0,780705;0,130846;-0,0152594;-0,150487;0,00073311;0,0894138;-0,0894082;0,000733156;-0,154953;-0;0,242299;-0,138504;3,65777;0,0378736;-0,0225147;0;1,579;0,999966;-1080;1080;-300;1700;-10;10;-10;-0;0;-0;250;-1,2;0,2;177;-1,2;-1;2555;0,07;1885;3163;8;56579;
11,1053;1,19992;-2,07956;69;-39;2300;0;0,099424;-0,0361271;-0,0372889;0,0155843;-0,0043387;-0,00511615;6,59176e-05;-0,00792185;0,0795617;0,0310812;0,021065;-0,113514;0;0;0;0;0;0;0;-0,00793839;0,079;0,03;0;-0,114;0,277462;-0,100227;0,65272;0,130505;-0,0150621;-0,150803;0,000743952;0,0894123;-0,0894067;0,000743999;-0,154954;-0;0,257383;-0,138538;3,65626;0,0354302;-0,0225147;0;1,57912;0,999965;-1080;1080;-300;1700;-10;10;-10;-0;0;-0;250;-1,2;0,2;177;-1,2;-1;2555;0,07;1885;3163;8;56579;
11,1154;1,19992;-2,07957;69;-39;2350;0;0,09939;-0,0362048;-0,0372841;0,016589;-0,0047047;-0,00549306;6,14198e-05;-0,00792193;0,0795747;0,0311042;0,0210718;-0,113521;0;0;0;0;0;0;0;-0,00793839;0,079;0,03;0;-0,114;0,283493;-0,102406;0,524736;0,130494;-0,0151331;-0,150805;0,000693182;0,0894124;-0,0894068;0,000693226;-0,154954;-0;0,25757;-0,138639;3,65178;0,0354302;-0,0225147;0;1,57855;0,99997;-1080;1080;-300;1700;-10;10;-10;-0;0;-0;250;-1,2;0,2;177;-1,2;-1;2555;0,07;1885;3163;8;56579;
11,1254;1,19992;-2,07964;69;-38;2400;0;0,0994706;-0,0359699;-0,0435494;0,0175823;-0,00506386;-0,0059279;6,00953e-05;-0,00792201;0,0796352;0,0305973;0,0209732;-0,107637;0;0;0;0;0;0;0;-0,00793839;0,079;0,03;0;-0,108;0,289525;-0,101903;0,396751;0,130068;-0,0149967;-0,151187;0,000678217;0,089411;-0,0894053;0,000678259;-0,154956;-0;0,275825;-0,137565;3,65178;0,0324631;-0,0223402;0;1,57838;0,999971;-1080;1080;-300;1700;-10;10;-10;-0;0;-0;250;-1,2;0,2;177;-1,2;-1;2555;0,07;1885;3163;8;56579;
11,1354;1,19992;-2,07961;69;-38;2450;0;0,0993813;-0,0359394;-0,043536;0,0185792;-0,0054244;-0,00636465;6,56415e-05;-0,0079221;0,079611;0,0307003;0,0210301;-0,107648;0;0;0;0;0;0;0;-0,00793839;0,079;0,03;0;-0,108;0,295557;-0,104026;0,268767;0,130082;-0,0149093;-0,151184;0,000740803;0,0894111;-0,0894055;0,00074085;-0,154956;-0;0,276027;-0,137666;3,64726;0,0324631;-0,0223402;0;1,57908;0,999966;-1080;1080;-300;1700;-10;10;-10;-0;0;-0;250;-1,2;0,2;177;-1,2;-1;2555;0,07;1885;3163;8;56579;
11,1456;1,19992;-2,07968;69;-38;2500;0;0,0994393;-0,0356983;-0,049856;0,019588;-0,00578653;-0,00687039;6,15938e-05;-0,00792218;0,0796812;0,0301381;0,0209229;-0,101773;0;0;0;0;0;0;0;-0,00793839;0,079;0,03;0;-0,102;0,301589;-0,106149;0,140783;0,129577;-0,0147755;-0,151629;0,000695104;0,0894096;-0,089404;0,000695148;-0,154958;-0;0,297516;-0,135515;3,64726;0,0289725;-0,0219911;0;1,57857;0,99997;-1080;1080;-300;1700;-10;10;-10;-0;0;-0;250;-1,2;0,2;177;-1,2;-1;2555;0,07;1885;3163;8;56579;
11,1556;1,19992;-2,07976;69;-38;2550;0;0,0995263;-0,0353812;-0,059068;0,020582;-0,00613991;-0,00746036;6,26949e-05;-0,00792226;0,0797633;0,0297028;0,0207834;-0,0928753;0;0;0;0;0;0;0;-0,00793839;0,079;0,03;0;-0,093;0,30762;-0,108272;0,0127984;0,129229;-0,0145978;-0,151943;0,000707505;0,0894074;-0,0894018;0,000707549;-0,15496;-0;0,312788;-0,135615;3,64269;0,026529;-0,0219911;0;1,57871;0,999969;-1080;1080;-300;1700;-10;10;-10;-0;0;-0;250;-1,2;0,2;177;-1,2;-1;2555;0,07;1885;3163;8;56579;
11,1655;1,19992;-2,07975;69;-38;2572;0;0,0994365;-0,0353634;-0,0590361;0,0215711;-0,00649167;-0,00804759;6,57369e-05;-0,00792234;0,079749;0,0298;0,0208135;-0,0929055;0;0;0;0;0;0;0;-0,00793839;0,079;0,03;0;-0,093;0,310274;-0,109206;-0,0435147;0,129236;-0,0145499;-0,151942;0,000741827;0,0894075;-0,0894019;0,000741873;-0,15496;-0;0,313125;-0,135761;3,63605;0,026529;-0,0219911;0;1,57909;0,999966;-1080;1080;-300;1700;-10;10;-10;-0;0;-0;250;-1,2;0,2;177;-1,2;-1;2555;0,07;1885;3163;8;56579;
11,1755;1,19993;-2,06182;19;-31;2576;0;0,151038;-0,0293913;-0,0724039;0,0230737;-0,00678406;-0,00876787;-0,000438671;-0,00772266;0,0618197;-0,0229374;0,00688905;-0,0795297;0;0;0;0;0;0;0;-0,00793839;0,061;-0,02;0,02;-0,078;0,454434;-0,0892291;-0,0537534;0,128101;-0,0225023;-0,151934;-0,00509665;0,0897302;-0,0897248;-0,00509696;-0,154421;-0;0,329266;-0,135761;3,63606;0,023911;-0,0219911;0;1,51405;0,998391;-1080;1080;-300;1700;-10;10;-10;-0;0;-0;250;-1,2;0,2;177;-1,2;-1;2555;0,07;1885;3167;8;56579;
11,1855;1,19993;-2,06197;14;-32;2581;0;0,150163;-0,029739;-0,0881232;0,024576;-0,0070816;-0,00964954;-0,00043567;-0,00772455;0,061968;-0,0225063;0,007478;-0,064219;0;0;0;0;0;0;0;-0,00793839;0,061;-0,02;0,02;-0,063;0,469701;-0,092286;-0,0665519;0,127657;-0,022261;-0,152342;-0,00506044;0,0897284;-0,089723;-0,00506074;-0,154426;-0;0,350254;-0,132736;3,62642;0,0205949;-0,0214675;0;1,51446;0,998413;-1080;1080;-300;1700;-10;10;-10;-0;0;-0;250;-1,2;0,2;177;-1,2;-1;2555;0,07;1885;3167;8;56579;
11,1955;1,19993;-2,06196;14;-32;2581;0;0,15003;-0,0297706;-0,088096;0,026079;-0,00737984;-0,0105321;-0,000433523;-0,0077256;0,0619632;-0,0223652;0,00754501;-0,0642451;0;0;0;0;0;0;0;-0,00793839;0,061;-0,02;0,02;-0,063;0,469701;-0,092286;-0,0665519;0,127664;-0,0222256;-0,152341;-0,0050349;0,08973;-0,0897246;-0,00503521;-0,154426;-0;0,350896;-0,13298;3,61508;0,0205949;-0,0214675;0;1,51474;0,998429;-1080;1080;-300;1700;-10;10;-10;-0;0;-0;250;-1,2;0,2;177;-1,2;-1;2555;0,07;1885;3167;8;56579;
11,2055;1,19993;-2,06229;14;-31;2591;0;0,150354;-0,0287415;-0,122577;0,027579;-0,00766656;-0,0117549;-0,000432494;-0,00772552;0,0622949;-0,0231628;0,00673716;-0,0301916;0;0;0;0;0;0;0;-0,00793839;0,061;-0,02;0,02;-0,029;0,471521;-0,0897487;-0,0921487;0,127191;-0,0220043;-0,152768;-0,00502256;0,089722;-0,0897167;-0,00502286;-0,154436;-0;0,372484;-0,127575;3,61508;0,0171042;-0,0205949;0;1,51487;0,998437;-1080;1080;-300;1700;-10;10;-10;-0;0;-0;250;-1,2;0,2;177;-1,2;-1;2555;0,07;1885;3167;8;56579;
11,2153;1,19993;-2,06259;14;-30;2601;0;0,150195;-0,0279611;-0,153282;0,0290652;-0,00794324;-0,0132716;-0,000430588;-0,00772633;0,0625886;-0,0236885;0,00608844;-7,27119e-05;0;0;0;0;0;0;0;-0,00793839;0,061;-0,02;0,02;0,001;0,47334;-0,0871889;-0,117746;0,126507;-0,0218727;-0,153354;-0,00499955;0,0897157;-0,0897103;-0,00499985;-0,154445;-0;0,404314;-0,118318;3,59022;0,0122173;-0,0190241;0;1,51512;0,998451;-1080;1080;-300;1700;-10;10;-10;-0;0;-0;250;-1,2;0,2;177;-1,2;-1;2555;0,07;1885;3167;8;56579;
11,2254;1,19993;-2,06258;14;-30;2601;0;0,150225;-0,0279333;-0,15331;0,0305773;-0,00822442;-0,0148149;-0,0004276;-0,00772823;0,0625806;-0,0237078;0,00611031;-4,32186e-05;0;0;0;0;0;0;0;-0,00793839;0,061;-0,02;0,02;0,001;0,47334;-0,0871889;-0,117746;0,126517;-0,021823;-0,153353;-0,00496376;0,0897179;-0,0897125;-0,00496406;-0,154444;-0;0,405754;-0,11874;3,56808;0,0122173;-0,0190241;0;1,51552;0,998473;-1080;1080;-300;1700;-10;10;-10;-0;0;-0;250;-1,2;0,2;177;-1,2;-1;2555;0,07;1885;3167;8;56579;
11,2354;1,19993;-2,06304;15;-29;2615;0;0,149628;-0,0269889;-0,201212;0,0320784;-0,00849517;-0,0168334;-0,000423864;-0,00773089;0,0630378;-0,0240319;0,00524044;0,047093;0;0;0;0;0;0;0;-0,00793839;0,061;-0,02;0,02;0,048;0,472973;-0,0847364;-0,153581;0,125596;-0,0217484;-0,154119;-0,00491819;0,0897085;-0,0897031;-0,00491848;-0,154458;-0;0,445972;-0,103491;3,56802;0,00575959;-0,0165806;0;1,51602;0,9985;-1080;1080;-300;1700;-10;10;-10;-0;0;-0;250;-1,2;0,2;177;-1,2;-1;2555;0,07;1885;3167;8;56579;
11,2454;1,19993;-2,06337;16;-29;2625;0;0,148051;-0,0268827;-0,235262;0,0335577;-0,00876378;-0,0191841;-0,000425151;-0,00772851;0,0633679;-0,0235723;0,00496995;0,0802623;0;0;0;0;0;0;0;-0,00793839;0,061;-0,02;0,02;0,081;0,471856;-0,0850605;-0,179178;0,124479;-0,0219128;-0,154999;-0,00493411;0,089699;-0,0896936;-0,00493441;-0,154468;-0;0,496503;-0,0799662;3,53349;-0,00191986;-0,0127409;0;1,51584;0,99849;-1080;1080;-300;1700;-10;10;-10;-0;0;-0;250;-1,2;0,2;177;-1,2;-1;2555;0,07;1885;3167;8;56579;
11,2554;1,19993;-2,06335;16;-29;2625;0;0,148082;-0,0268192;-0,23526;0,0350362;-0,00903154;-0,021533;-0,000422338;-0,00773024;0,0633533;-0,0235938;0,00495313;0,0802617;0;0;0;0;0;0;0;-0,00793839;0,061;-0,02;0,02;0,081;0,471856;-0,0850605;-0,179178;0,124489;-0,0218661;-0,154998;-0,00490049;0,0897012;-0,0896959;-0,00490079;-0,154468;-0;0,498446;-0,0802793;3,50892;-0,00191986;-0,0127409;0;1,51622;0,998511;-1080;1080;-300;1700;-10;10;-10;-0;0;-0;250;-1,2;0,2;177;-1,2;-1;2555;0,07;1885;3167;8;56579;
11,2654;1,19993;-2,06398;20;-29;2645;0;0,144864;-0,0268756;-0,300707;0,0364807;-0,00929955;-0,0245316;-0,000419428;-0,00773208;0,0639778;-0,0219551;0,00481662;0,14448;0;0;0;0;0;0;0;-0,00793839;0,061;-0,02;0,02;0,145;0,463658;-0,0857086;-0,230372;0,122908;-0,0220589;-0,156227;-0,00486479;0,0896869;-0,0896816;-0,00486509;-0,154487;-0;0,566391;-0,0450896;3,50887;-0,0127409;-0,00715585;0;1,5166;0,998532;-1080;1080;-300;1700;-10;10;-10;-0;0;-0;250;-1,2;0,2;177;-1,2;-1;2555;0,07;1885;3167;8;56579;
11,2754;1,19993;-2,06425;23;-29;2654;0;0,141742;-0,0273576;-0,330862;0,0379052;-0,00957449;-0,0278568;-0,000417175;-0,00773327;0,0642513;-0,0201305;0,00520452;0,173636;0;0;0;0;0;0;0;-0,00793839;0,061;-0,02;0,02;0,174;0,456359;-0,0860002;-0,253409;0,121611;-0,022153;-0,157226;-0,00483761;0,0896813;-0,0896759;-0,0048379;-0,154495;-0;0,626888;-0,0177278;3,46168;-0,0216421;-0,00279253;0;1,5169;0,998548;-1080;1080;-300;1700;-10;10;-10;-0;0;-0;250;-1,2;0,2;177;-1,2;-1;2555;0,07;1885;3167;8;56579;
11,2854;1,19993;-2,06423;23;-29;2654;0;0,14181;-0,0272697;-0,330861;0,0393218;-0,00984689;-0,0311618;-0,000414855;-0,00773454;0,064233;-0,0201912;0,00515498;0,173635;0;0;0;0;0;0;0;-0,00793839;0,061;-0,02;0,02;0,174;0,456359;-0,0860002;-0,253409;0,121619;-0,0221147;-0,157225;-0,00481002;0,0896833;-0,0896779;-0,00481031;-0,154494;-0;0,62904;-0,0177887;3,43989;-0,0216421;-0,00279253;0;1,51721;0,998565;-1080;1080;-300;1700;-10;10;-10;-0;0;-0;250;-1,2;0,2;177;-1,2;-1;2555;0,07;1885;3167;8;56579;
11,2955;1,19993;-2,06466;27;-30;2667;0;0,137917;-0,0279562;-0,374882;0,0407141;-0,0101291;-0,0349462;-0,00041433;-0,007734;0,0646625;-0,0174824;0,00586321;0,216745;0;0;0;0;0;0;0;-0,00793839;0,061;-0,02;0,02;0,217;0,4467;-0,0894013;-0,286685;0,120435;-0,0220929;-0,158137;-0,00480369;0,0896724;-0,0896671;-0,00480398;-0,154507;-0;0,681026;0,0100063;3,43981;-0,0298451;0,0015708;0;1,51727;0,998568;-1080;1080;-300;1700;-10;10;-10;-0;0;-0;250;-1,2;0,2;177;-1,2;-1;2555;0,07;1885;3167;8;56579;
11,3055;1,19993;-2,06463;27;-30;2667;0;0,138009;-0,0278019;-0,374855;0,0420893;-0,0104062;-0,0386816;-0,000411041;-0,00773624;0,0646309;-0,0175632;0,00576377;0,216719;0;0;0;0;0;0;0;-0,00793839;0,061;-0,02;0,02;0,217;0,4467;-0,0894013;-0,286685;0,120446;-0,0220382;-0,158137;-0,00476433;0,0896754;-0,08967;-0,00476462;-0,154506;-0;0,684423;0,0100562;3,40803;-0,0298451;0,0015708;0;1,51771;0,998591;-1080;1080;-300;1700;-10;10;-10;-0;0;-0;250;-1,2;0,2;177;-1,2;-1;2555;0,07;1885;3167;8;56579;
11,3155;1,19993;-2,06506;31;-30;2680;0;0,134005;-0,0281507;-0,417694;0,043424;-0,0106865;-0,0428419;-0,000411086;-0,00773514;0,0650596;-0,0145359;0,00639516;0,258779;0;0;0;0;0;0;0;-0,00793839;0,061;-0,02;0,02;0,259;0,436924;-0,0898371;-0,319961;0,11947;-0,0217555;-0,158914;-0,00476494;0,0896642;-0,0896588;-0,00476522;-0,154519;-0;0,727742;0,0268167;3,40796;-0,0366519;0,00418879;0;1,5177;0,998591;-1080;1080;-300;1700;-10;10;-10;-0;0;-0;250;-1,2;0,2;177;-1,2;-1;2555;0,07;1885;3167;8;56579;
11,3253;1,19993;-2,06539;35;-30;2692;0;0,130555;-0,0278991;-0,457323;0,0447142;-0,0109622;-0,0473611;-0,000406438;-0,00773875;0,0653943;-0,0117584;0,00677953;0,29782;0;0;0;0;0;0;0;-0,00793839;0,061;-0,02;0,02;0,298;0,426872;-0,0902394;-0,350677;0,118797;-0,0211195;-0,159503;-0,00470856;0,0896585;-0,0896531;-0,00470884;-0,154529;-0;0,763599;0,0370511;3,37702;-0,0417134;0,00575959;0;1,51832;0,998624;-1080;1080;-300;1700;-10;10;-10;-0;0;-0;250;-1,2;0,2;177;-1,2;-1;2555;0,07;1885;3167;8;56579;
11,3355;1,19993;-2,06537;35;-30;2692;0;0,130639;-0,027797;-0,457323;0,0460413;-0,0112446;-0,0520071;-0,000404314;-0,00773985;0,065371;-0,011836;0,00671259;0,29782;0;0;0;0;0;0;0;-0,00793839;0,061;-0,02;0,02;0,298;0,426872;-0,0902394;-0,350677;0,118803;-0,0210844;-0,159503;-0,00468339;0,0896604;-0,089655;-0,00468367;-0,154529;-0;0,766998;0,037216;3,34838;-0,0417134;0,00575959;0;1,51861;0,998638;-1080;1080;-300;1700;-10;10;-10;-0;0;-0;250;-1,2;0,2;177;-1,2;-1;2555;0,07;1885;3167;8;56579;
11,3455;1,19993;-2,06567;38;-29;2703;0;0,127991;-0,027559;-0,492648;0,0473219;-0,0115203;-0,056936;-0,000400756;-0,00774239;0,065672;-0,0095086;0,00714856;0,332819;0;0;0;0;0;0;0;-0,00793839;0,061;-0,02;0,02;0,333;0,419572;-0,087588;-0,378834;0,118482;-0,0204105;-0,159829;-0,00464037;0,0896548;-0,0896494;-0,00464065;-0,154538;-0;0,784926;0,045111;3,34827;-0,0445059;0,00698132;0;1,51908;0,998663;-1080;1080;-300;1700;-10;10;-10;-0;0;-0;250;-1,2;0,2;177;-1,2;-1;2555;0,07;1885;3167;8;56579;
11,3554;1,19993;-2,06615;40;-30;2715;0;0,125508;-0,0277206;-0,532783;0,0485687;-0,0117957;-0,0622287;-0,00040426;-0,00773784;0,0661469;-0,0071493;0,00797341;0,372779;0;0;0;0;0;0;0;-0,00793839;0,061;-0,02;0,02;0,373;0,415378;-0,0910104;-0,40955;0,118358;-0,0197472;-0,160004;-0,00468293;0,0896403;-0,0896349;-0,00468321;-0,154552;-0;0,798143;0,0577437;3,32272;-0,0460767;0,00890118;0;1,5186;0,998638;-1080;1080;-300;1700;-10;10;-10;-0;0;-0;250;-1,2;0,2;177;-1,2;-1;2555;0,07;1885;3167;8;56579;
11,3653;1,19993;-2,06606;40;-29;2715;0;0,125593;-0,0275508;-0,532765;0,049808;-0,0120676;-0,067486;-0,000399158;-0,00774193;0,0660637;-0,00721894;0,00788923;0,372762;0;0;0;0;0;0;0;-0,00793839;0,061;-0,02;0,02;0,373;0,415378;-0,0879768;-0,40955;0,118374;-0,0196616;-0,160003;-0,00462167;0,0896456;-0,0896402;-0,00462194;-0,15455;-0;0,801713;0,058002;3,2937;-0,0460767;0,00890118;0;1,51928;0,998674;-1080;1080;-300;1700;-10;10;-10;-0;0;-0;250;-1,2;0,2;177;-1,2;-1;2555;0,07;1885;3167;8;56579;
11,3757;1,19993;-2,06634;42;-30;2725;0;0,123696;-0,027704;-0,565873;0,0510957;-0,012356;-0,0733767;-0,000395755;-0,00774432;0,0663399;-0,00535348;0,0087794;0,405757;0;0;0;0;0;0;0;-0,00793839;0,061;-0,02;0,02;0,406;0,410829;-0,0913456;-0,435147;0,118343;-0,0189246;-0,160115;-0,00458059;0,0896405;-0,0896351;-0,00458087;-0,154558;-0;0,808499;0,070513;3,29359;-0,0471239;0,010821;0;1,51974;0,998697;-1080;1080;-300;1700;-10;10;-10;-0;0;-0;250;-1,2;0,2;177;-1,2;-1;2555;0,07;1885;3167;8;56579;
11,3854;1,19993;-2,06666;44;-29;2736;0;0,122336;-0,0274949;-0,603756;0,0522874;-0,0126238;-0,0792579;-0,000392483;-0,0077466;0,0666617;-0,00379462;0,00952353;0,443678;0;0;0;0;0;0;0;-0,00793839;0,061;-0,02;0,02;0,444;0,406383;-0,0886573;-0,463303;0,118541;-0,0179714;-0,160078;-0,00454106;0,0896342;-0,0896288;-0,00454133;-0,154568;-0;0,809208;0,0799039;3,26961;-0,0467748;0,0122173;0;1,52017;0,998719;-1080;1080;-300;1700;-10;10;-10;-0;0;-0;250;-1,2;0,2;177;-1,2;-1;2555;0,07;1885;3167;8;56579;
11,3955;1,19993;-2,06687;44;-30;2736;0;0,122162;-0,0277431;-0,60373;0,0535114;-0,0129018;-0,0853073;-0,00040128;-0,00773676;0,0668729;-0,00364794;0,00962175;0,443649;0;0;0;0;0;0;0;-0,00793839;0,061;-0,02;0,02;0,444;0,406383;-0,0917143;-0,463303;0,118514;-0,0181213;-0,160081;-0,00464818;0,0896232;-0,0896178;-0,00464845;-0,154574;-0;0,8126;0,0802389;3,2422;-0,0467748;0,0122173;0;1,51898;0,998658;-1080;1080;-300;1700;-10;10;-10;-0;0;-0;250;-1,2;0,2;177;-1,2;-1;2555;0,07;1885;3167;8;56579;
11,4055;1,19858;-1,95849;94;-80;2747;0;-0,0731972;-0,127459;-0,637867;0,05278;-0,0141755;-0,0916815;0,011462;0,0324683;-0,0415112;-0,0540346;0,177196;0,491791;0;0;0;0;0;0;0,011112;0,0305351;-0,047;0,05;0,18;0,492;0,254715;-0,245512;-0,49146;-0,127232;0,0497373;-0,146076;0,0308007;-0,087352;0,0872484;0,0308372;-0,151188;-0;0,813753;0,0905564;3,24207;-0,0469494;0,0137881;0;-1,91016;-0,942966;-1080;1080;-300;1700;-10;10;-10;-0;0;-0;250;-1,2;0,2;177;-1,2;-1;2555;0,07;1890;3176;8;56579;
11,4154;1,19857;-1,9589;144;-130;2755;0;-0,072632;-0,127579;-0,66617;0,05206;-0,0154401;-0,0982846;0,0114742;0,0325088;-0,0411008;-0,0549448;0,175796;0,519885;0;0;0;0;0;0;0,011112;0,0305351;-0,047;0,05;0,18;0,522;0,101586;-0,399985;-0,511937;-0,127577;0,0482172;-0,146285;0,0307919;-0,0873434;0,0872396;0,0308285;-0,151201;-0;0,809966;0,104703;3,21734;-0,0459022;0,0158825;0;-1,9101;-0,942985;-1080;1080;-300;1700;-10;10;-10;-0;0;-0;250;-1,2;0,2;177;-1,2;-1;2555;0,07;1890;3176;8;56579;
11,4254;1,19858;-1,95886;194;-135;2755;0;-0,0724351;-0,125378;-0,664674;0,051337;-0,0166916;-0,104919;0,0114711;0,0324941;-0,0411444;-0,0551403;0,173602;0,51839;0;0;0;0;0;0;0,011112;0,0305351;-0,047;0,05;0,18;0,522;-0,0523334;-0,415352;-0,511937;-0,127575;0,0482247;-0,146284;0,0307972;-0,0873427;0,087239;0,0308338;-0,1512;-0;0,812489;0,10503;3,19681;-0,0459022;0,0158825;0;-1,91016;-0,942967;-1080;1080;-300;1700;-10;10;-10;-0;0;-0;250;-1,2;0,2;177;-1,2;-1;2555;0,07;1890;3176;8;56579;
11,4353;1,19858;-1,95919;244;-136;2767;0;-0,0700796;-0,125781;-0,70575;0,0506368;-0,0179483;-0,111971;0,0114653;0,0324698;-0,0408093;-0,0575104;0,172783;0,559081;0;0;0;0;0;0;0,011112;0,0305351;-0,047;0,05;0,18;0,563;-0,207126;-0,420247;-0,542654;-0,12759;0,0470017;-0,146668;0,0308008;-0,0873318;0,0872283;0,0308373;-0,151211;-0;0,792902;0,109631;3,19773;-0,0429351;0,0165806;0;-1,91023;-0,942942;-1080;1080;-300;1700;-10;10;-10;-0;0;-0;250;-1,2;0,2;177;-1,2;-1;2555;0,07;1890;3176;8;56579;
11,4454;1,19858;-1,9592;251;-134;2767;0;-0,0689816;-0,12468;-0,705738;0,049942;-0,0192042;-0,119079;0,011467;0,0324728;-0,0408008;-0,0586072;0,171684;0,559069;0;0;0;0;0;0;0,011112;0,0305351;-0,047;0,05;0,18;0,563;-0,228759;-0,414074;-0,542654;-0,127589;0,0470039;-0,146669;0,0308023;-0,087331;0,0872275;0,0308389;-0,151211;-0;0,796468;0,110124;3,16799;-0,0429351;0,0165806;0;-1,91025;-0,942935;-1080;1080;-300;1700;-10;10;-10;-0;0;-0;250;-1,2;0,2;177;-1,2;-1;2555;0,07;1890;3176;8;56579;
11,4554;1,19858;-1,95968;247;-136;2783;0;-0,0659302;-0,125826;-0,757156;0,0492829;-0,0204621;-0,126649;0,0114657;0,0324647;-0,0403172;-0,0614107;0,171546;0,609867;0;0;0;0;0;0;0,011112;0,0305351;-0,047;0,05;0,18;0,614;-0,217649;-0,422677;-0,583609;-0,127341;0,0457197;-0,147289;0,0308016;-0,0873174;0,0872139;0,0308382;-0,151227;-0;0,763101;0,110126;3,16782;-0,0378736;0,0165806;0;-1,9103;-0,942922;-1080;1080;-300;1700;-10;10;-10;-0;0;-0;250;-1,2;0,2;177;-1,2;-1;2555;0,07;1890;3176;8;56579;
11,4654;1,19858;-1,95997;243;-137;2791;0;-0,0620982;-0,127174;-0,784279;0,0486599;-0,0217379;-0,134517;0,011468;0,0324697;-0,0400285;-0,0649956;0,171544;0,636365;0;0;0;0;0;0;0,011112;0,0305351;-0,047;0,05;0,18;0,641;-0,205805;-0,427006;-0,604086;-0,127094;0,0443699;-0,147914;0,0308003;-0,0873096;0,0872061;0,0308369;-0,151237;-0;0,73494;0,115406;3,13063;-0,0329867;0,0172788;0;-1,91031;-0,942917;-1080;1080;-300;1700;-10;10;-10;-0;0;-0;250;-1,2;0,2;177;-1,2;-1;2555;0,07;1890;3176;8;56579;
11,4753;1,19858;-1,95989;243;-137;2791;0;-0,0622029;-0,127248;-0,78426;0,0480473;-0,0229911;-0,142241;0,0114624;0,0324464;-0,0401121;-0,0648903;0,171628;0,636349;0;0;0;0;0;0;0,011112;0,0305351;-0,047;0,05;0,18;0,641;-0,205805;-0,427006;-0,604086;-0,127093;0,0443801;-0,147911;0,0308075;-0,0873095;0,0872061;0,030844;-0,151234;-0;0,737109;0,115746;3,11091;-0,0329867;0,0172788;0;-1,91038;-0,942892;-1080;1080;-300;1700;-10;10;-10;-0;0;-0;250;-1,2;0,2;177;-1,2;-1;2555;0,07;1890;3176;8;56579;
11,4854;1,19858;-1,96038;240;-139;2806;0;-0,0596006;-0,129198;-0,834371;0,047443;-0,0243011;-0,1507;0,0114624;0,0324431;-0,0396226;-0,0674106;0,172178;0,685977;0;0;0;0;0;0;0,011112;0,0305351;-0,047;0,05;0,18;0,691;-0,197508;-0,43556;-0,642481;-0,127011;0,0429796;-0,148394;0,0308058;-0,087296;0,0871927;0,0308424;-0,15125;-0;0,712718;0,121594;3,11074;-0,0293215;0,0181514;0;-1,91041;-0,942882;-1080;1080;-300;1700;-10;10;-10;-0;0;-0;250;-1,2;0,2;177;-1,2;-1;2555;0,07;1890;3176;8;56579;
11,4955;1,19858;-1,96061;238;-139;2819;0;-0,0571724;-0,1291;-0,874725;0,0468695;-0,0255959;-0,159474;0,0114515;0,0324008;-0,0393914;-0,0698121;0,171134;0,726038;0;0;0;0;0;0;0,011112;0,0305351;-0,047;0,05;0,18;0,731;-0,192126;-0,437578;-0,675757;-0,126984;0,0420339;-0,148688;0,0308136;-0,0872866;0,0871835;0,03085;-0,151258;-0;0,696704;0,11285;3,07446;-0,0263545;0,0167552;0;-1,91053;-0,942844;-1080;1080;-300;1700;-10;10;-10;-0;0;-0;250;-1,2;0,2;177;-1,2;-1;2555;0,07;1890;3176;8;56579;
11,5054;1,19858;-1,96078;238;-139;2819;0;-0,0572663;-0,129001;-0,874584;0,0462983;-0,0268827;-0,168198;0,0114643;0,0324435;-0,039218;-0,0697149;0,171025;0,72589;0;0;0;0;0;0;0,011112;0,0305351;-0,047;0,05;0,18;0,731;-0,192126;-0,437578;-0,675757;-0,126981;0,0420235;-0,148694;0,0308064;-0,0872842;0,0871809;0,0308429;-0,151263;-0;0,69973;0,11334;3,0452;-0,0263545;0,0167552;0;-1,91046;-0,942866;-1080;1080;-300;1700;-10;10;-10;-0;0;-0;250;-1,2;0,2;177;-1,2;-1;2555;0,07;1890;3176;8;56579;
11,5154;1,19858;-1,96121;230;-136;2835;0;-0,0498156;-0,12611;-0,930667;0,0458043;-0,0281332;-0,177426;0,0114571;0,0324143;-0,038785;-0,0763953;0,167488;0,781139;0;0;0;0;0;0;0,011112;0,0305351;-0,047;0,05;0,18;0,786;-0,167881;-0,430575;-0,716712;-0,126211;0,0413779;-0,149528;0,03081;-0,0872706;0,0871674;0,0308464;-0,151278;-0;0,644523;0,0826469;3,04509;-0,0181514;0,0122173;0;-1,91055;-0,942837;-1080;1080;-300;1700;-10;10;-10;-0;0;-0;250;-1,2;0,2;177;-1,2;-1;2555;0,07;1890;3176;8;56579;
11,5254;1,19858;-1,96156;217;-131;2849;0;-0,0377205;-0,121785;-0,974996;0,0454266;-0,0293529;-0,187191;0,0114526;0,032395;-0,0384403;-0,0871248;0,162675;0,824192;0;0;0;0;0;0;0,011112;0,0305351;-0,047;0,05;0,18;0,829;-0,127333;-0,416811;-0,752548;-0,124845;0,0408891;-0,150804;0,0308125;-0,0872598;0,0871568;0,0308489;-0,151289;-0;0,566762;0,0451355;3,00449;-0,00610865;0,00663225;0;-1,91061;-0,942816;-1080;1080;-300;1700;-10;10;-10;-0;0;-0;250;-1,2;0,2;177;-1,2;-1;2555;0,07;1890;3176;8;56579;
11,5354;1,19858;-1,96147;217;-132;2849;0;-0,0378935;-0,122185;-0,975151;0,0450464;-0,0305787;-0,196974;0,011448;0,0323752;-0,0385317;-0,0869523;0,163084;0,82435;0;0;0;0;0;0;0,011112;0,0305351;-0,047;0,05;0,18;0,829;-0,127333;-0,419989;-0,752548;-0,124846;0,0408984;-0,150801;0,0308191;-0,0872601;0,0871572;0,0308554;-0,151286;-0;0,569439;0,0453487;2,97235;-0,00610865;0,00663225;0;-1,91068;-0,942794;-1080;1080;-300;1700;-10;10;-10;-0;0;-0;250;-1,2;0,2;177;-1,2;-1;2555;0,07;1890;3176;8;56579;
11,5455;1,19858;-1,96197;200;-128;2863;0;-0,0225125;-0,11854;-1,02202;0,04482;-0,0317711;-0,207254;0,0114512;0,0323838;-0,0380313;-0,100703;0,158543;0,869645;0;0;0;0;0;0;0,011112;0,0305351;-0,047;0,05;0,18;0,875;-0,073579;-0,409277;-0,788384;-0,123216;0,0400032;-0,152373;0,0308151;-0,0872471;0,0871442;0,0308515;-0,151302;-0;0,474271;0,0167084;2,972;0,00785398;0,00244346;0;-1,91068;-0,942792;-1080;1080;-300;1700;-10;10;-10;-0;0;-0;250;-1,2;0,2;177;-1,2;-1;2555;0,07;1890;3176;8;56579;
11,5553;1,19858;-1,96235;189;-126;2876;0;-0,0122364;-0,117168;-1,06351;0,0446993;-0,0329269;-0,217746;0,0114504;0,0323776;-0,0376501;-0,110046;0,156272;0,910157;0;0;0;0;0;0;0,011112;0,0305351;-0,047;0,05;0,18;0,916;-0,0385638;-0,404718;-0,821659;-0,122282;0,0391043;-0,153355;0,0308149;-0,0872363;0,0871334;0,0308513;-0,151315;-0;0,417983;0,00239878;2,93801;0,0164061;0,000349066;0;-1,91072;-0,94278;-1080;1080;-300;1700;-10;10;-10;-0;0;-0;250;-1,2;0,2;177;-1,2;-1;2555;0,07;1890;3176;8;56579;
11,5654;1,19859;-1,96233;189;-127;2876;0;-0,0124487;-0,117443;-1,06355;0,0445737;-0,0341115;-0,228473;0,01145;0,0323732;-0,0376724;-0,109833;0,156552;0,910195;0;0;0;0;0;0;0,011112;0,0305351;-0,047;0,05;0,18;0,916;-0,0385638;-0,407927;-0,821659;-0,122282;0,0391087;-0,153355;0,030818;-0,0872358;0,087133;0,0308544;-0,151314;-0;0,419815;0,00240929;2,90789;0,0164061;0,000349066;0;-1,91075;-0,942769;-1080;1080;-300;1700;-10;10;-10;-0;0;-0;250;-1,2;0,2;177;-1,2;-1;2555;0,07;1890;3176;8;56579;
11,5754;1,1921;-1,74951;239;-177;2889;0;-0,174269;-0,176757;-1,10624;0,0428253;-0,0358849;-0,239572;0,069739;0,0414712;-0,250488;0,100712;0,292574;0,960717;0;0;0;0;0;0;0,066672;0,0403193;-0,259;0,3;0,11;0,962;-0,200124;-0,570822;-0,854935;-0,0735572;0,115817;-0,145519;0,0842099;-0,0504084;0,0500765;0,084768;-0,143786;-0;0,370521;-0,00240939;2,90761;0,0235619;-0,000349066;0;-2,60511;-0,511119;-1080;1080;-300;1700;-10;10;-10;-0;0;-0;250;-1,2;0,2;177;-1,2;-1;2555;0,07;1901;3184;8;56579;
11,5854;1,19209;-1,74968;289;-188;2888;0;-0,174471;-0,174377;-1,10451;0,0410849;-0,0376243;-0,250589;0,0697898;0,0414897;-0,250318;0,100932;0,290197;0,958988;0;0;0;0;0;0;0,066672;0,0403193;-0,259;0,3;0,11;0,962;-0,361289;-0,60601;-0,852376;-0,0735391;0,11582;-0,145526;0,0842114;-0,0503954;0,0500632;0,0847702;-0,143793;-0;0,372185;-0,00242021;2,87661;0,0235619;-0,000349066;0;-2,60523;-0,511012;-1080;1080;-300;1700;-10;10;-10;-0;0;-0;250;-1,2;0,2;177;-1,2;-1;2555;0,07;1901;3184;8;56579;
11,5955;1,1921;-1,75;339;-185;2901;0;-0,165017;-0,171287;-1,14655;0,0394267;-0,0393455;-0,262111;0,0697583;0,041478;-0,250002;0,0909869;0,286749;1,00099;0;0;0;0;0;0;0,066672;0,0403193;-0,259;0,3;0,11;1,003;-0,524702;-0,599045;-0,885652;-0,0740298;0,115462;-0,145562;0,0842001;-0,050397;0,050065;0,0847584;-0,143805;-0;0,33709;-0,0254086;2,87758;0,0286234;-0,00366519;0;-2,60516;-0,511076;-1080;1080;-300;1700;-10;10;-10;-0;0;-0;250;-1,2;0,2;177;-1,2;-1;2555;0,07;1901;3184;8;56579;
11,6053;1,1921;-1,75038;345;-180;2916;0;-0,156129;-0,166718;-1,19692;0,037893;-0,0409832;-0,273868;0,0697255;0,0414658;-0,249616;0,0815228;0,282015;1,05152;0;0;0;0;0;0;0,066672;0,0403193;-0,259;0,3;0,11;1,052;-0,546915;-0,585902;-0,924047;-0,0746067;0,115296;-0,145398;0,084187;-0,0503978;0,0500661;0,0847447;-0,143821;-0;0,311869;-0,0559016;2,84704;0,0324631;-0,00802851;0;-2,60508;-0,511143;-1080;1080;-300;1700;-10;10;-10;-0;0;-0;250;-1,2;0,2;177;-1,2;-1;2555;0,07;1901;3184;8;56579;
11,6153;1,1921;-1,75041;344;-180;2916;0;-0,155886;-0,166578;-1,197;0,0363263;-0,0426573;-0,285898;0,0697323;0,0414682;-0,249585;0,0812816;0,281874;1,0516;0;0;0;0;0;0;0,066672;0,0403193;-0,259;0,3;0,11;1,052;-0,543665;-0,585902;-0,924047;-0,0746039;0,115296;-0,145399;0,084187;-0,0503958;0,0500641;0,0847448;-0,143822;-0;0,313505;-0,056195;2,8105;0,0324631;-0,00802851;0;-2,6051;-0,511127;-1080;1080;-300;1700;-10;10;-10;-0;0;-0;250;-1,2;0,2;177;-1,2;-1;2555;0,07;1901;3184;8;56579;
11,6254;1,19212;-1,75043;335;-177;2926;0;-0,146749;-0,163976;-1,22847;0,0348445;-0,0443131;-0,298303;0,0696495;0,0414377;-0,249574;0,0717596;0,278999;1,08305;0;0;0;0;0;0;0,066672;0,0403193;-0,259;0,3;0,11;1,082;-0,516178;-0,578133;-0,949644;-0,0749891;0,115024;-0,145417;0,0841777;-0,0504123;0,0500812;0,0847343;-0,143822;-0;0,276902;-0,0818523;2,81015;0,0376991;-0,0116937;0;-2,6049;-0,511298;-1080;1080;-300;1700;-10;10;-10;-0;0;-0;250;-1,2;0,2;177;-1,2;-1;2555;0,07;1901;3184;8;56579;
11,6354;1,19211;-1,75113;324;-178;2941;0;-0,136444;-0,164786;-1,27918;0,0334893;-0,0459498;-0,311008;0,0697026;0,041457;-0,248874;0,0610953;0,279043;1,13335;0;0;0;0;0;0;0,066672;0,0403193;-0,259;0,3;0,11;1,132;-0,482755;-0,584373;-0,988039;-0,0753488;0,114258;-0,145835;0,0841662;-0,050391;0,0500595;0,0847235;-0,14385;-0;0,241064;-0,0857975;2,7872;0,0429351;-0,0122173;0;-2,60503;-0,511187;-1080;1080;-300;1700;-10;10;-10;-0;0;-0;250;-1,2;0,2;177;-1,2;-1;2555;0,07;1901;3184;8;56579;
11,6454;1,19211;-1,75113;324;-178;2941;0;-0,136718;-0,164968;-1,2791;0,0321224;-0,0475991;-0,323796;0,0697017;0,0414566;-0,24887;0,0613694;0,279226;1,13327;0;0;0;0;0;0;0,066672;0,0403193;-0,259;0,3;0,11;1,132;-0,482755;-0,584373;-0,988039;-0,0753488;0,114258;-0,145835;0,0841661;-0,050391;0,0500596;0,0847233;-0,14385;-0;0,242328;-0,0862473;2,75039;0,0429351;-0,0122173;0;-2,60503;-0,511187;-1080;1080;-300;1700;-10;10;-10;-0;0;-0;250;-1,2;0,2;177;-1,2;-1;2555;0,07;1901;3184;8;56579;
11,6554;1,19212;-1,75142;313;-177;2958;0;-0,127121;-0,163729;-1,33297;0,0308443;-0,0492453;-0,337198;0,0696369;0,0414327;-0,248582;0,0511436;0,277386;1,18699;0;0;0;0;0;0;0,066672;0,0403193;-0,259;0,3;0,11;1,185;-0,449256;-0,584455;-1,03155;-0,0759775;0,113657;-0,145978;0,0841519;-0,0503997;0,0500688;0,0847081;-0,143861;-0;0,214011;-0,101035;2,75014;0,0469494;-0,0143117;0;-2,60487;-0,511321;-1080;1080;-300;1700;-10;10;-10;-0;0;-0;250;-1,2;0,2;177;-1,2;-1;2555;0,07;1901;3184;8;56579;
11,6653;1,19212;-1,75207;305;-173;2977;0;-0,11899;-0,159959;-1,39672;0,029667;-0,0508279;-0,351017;0,0696419;0,0414344;-0,247926;0,042372;0,273324;1,25085;0;0;0;0;0;0;0,066672;0,0403193;-0,259;0,3;0,11;1,248;-0,425574;-0,574942;-1,08019;-0,0766183;0,113365;-0,14587;0,0841362;-0,0503888;0,0500579;0,0846923;-0,143887;-0;0,196619;-0,126372;2,71104;0,0495674;-0,0178024;0;-2,60488;-0,51131;-1080;1080;-300;1700;-10;10;-10;-0;0;-0;250;-1,2;0,2;177;-1,2;-1;2555;0,07;1901;3184;8;56579;
11,6754;1,19212;-1,75209;305;-173;2977;0;-0,119071;-0,160163;-1,39679;0,0284637;-0,0524465;-0,365133;0,0696437;0,0414349;-0,247912;0,0424533;0,273528;1,25092;0;0;0;0;0;0;0,066672;0,0403193;-0,259;0,3;0,11;1,248;-0,425574;-0,574942;-1,08019;-0,0766173;0,113365;-0,14587;0,0841361;-0,0503881;0,0500572;0,0846923;-0,143888;-0;0,1979;-0,127194;2,66481;0,0495674;-0,0178024;0;-2,60489;-0,511304;-1080;1080;-300;1700;-10;10;-10;-0;0;-0;250;-1,2;0,2;177;-1,2;-1;2555;0,07;1901;3184;8;56579;
11,6854;1,19213;-1,75226;294;-169;2991;0;-0,108963;-0,156187;-1,44082;0,027373;-0,05401;-0,379556;0,069581;0,0414118;-0,247741;0,0319795;0,269286;1,29494;0;0;0;0;0;0;0,066672;0,0403193;-0,259;0,3;0,11;1,291;-0,390864;-0,564315;-1,11602;-0,0769831;0,113099;-0,145884;0,084125;-0,0503982;0,0500678;0,0846802;-0,143894;-0;0,166742;-0,152139;2,66442;0,0539307;-0,021293;0;-2,60474;-0,511434;-1080;1080;-300;1700;-10;10;-10;-0;0;-0;250;-1,2;0,2;177;-1,2;-1;2555;0,07;1901;3184;8;56579;
11,6955;1,19212;-1,75309;280;-165;3009;0;-0,0961345;-0,152977;-1,50262;0,0264051;-0,0555501;-0,394684;0,0696299;0,0414296;-0,246908;0,0190738;0,265712;1,35649;0;0;0;0;0;0;0,066672;0,0403193;-0,259;0,3;0,11;1,352;-0,346199;-0,554297;-1,1621;-0,0770607;0,112735;-0,146125;0,0841098;-0,0503758;0,0500451;0,0846656;-0,143927;-0;0,128664;-0,170355;2,63238;0,0593412;-0,0237365;0;-2,60486;-0,511331;-1080;1080;-300;1700;-10;10;-10;-0;0;-0;250;-1,2;0,2;177;-1,2;-1;2555;0,07;1901;3184;8;56579;
11,7054;1,19213;-1,7529;280;-166;3009;0;-0,0963165;-0,153453;-1,50279;0,0254506;-0,0570708;-0,409577;0,0695863;0,0414135;-0,247098;0,0192394;0,266185;1,35667;0;0;0;0;0;0;0,066672;0,0403193;-0,259;0,3;0,11;1,352;-0,346199;-0,557651;-1,1621;-0,0770771;0,112733;-0,146118;0,0841098;-0,0503873;0,0500569;0,0846649;-0,143919;-0;0,129468;-0,17142;2,58753;0,0593412;-0,0237365;0;-2,60476;-0,51142;-1080;1080;-300;1700;-10;10;-10;-0;0;-0;250;-1,2;0,2;177;-1,2;-1;2555;0,07;1901;3184;8;56579;
11,7153;1,19213;-1,7535;268;-162;3027;0;-0,0845956;-0,150229;-1,56127;0,0246147;-0,0585553;-0,425004;0,0695891;0,0414143;-0,246496;0,00713649;0,262472;1,41498;0;0;0;0;0;0;0,066672;0,0403193;-0,259;0,3;0,11;1,41;-0,307717;-0,547492;-1,20817;-0,0774591;0,112243;-0,146293;0,0840952;-0,0503777;0,0500473;0,0846503;-0,143943;-0;0,0992245;-0,187815;2,58705;0,06353;-0,0260054;0;-2,60476;-0,511414;-1080;1080;-300;1700;-10;10;-10;-0;0;-0;250;-1,2;0,2;177;-1,2;-1;2555;0,07;1901;3184;8;56579;
11,7254;1,19214;-1,75388;258;-164;3047;0;-0,075293;-0,152076;-1,6283;0,0238543;-0,0600911;-0,441448;0,0695272;0,0413915;-0,246117;-0,00266052;0,263478;1,48163;0;0;0;0;0;0;0,066672;0,0403193;-0,259;0,3;0,11;1,477;-0,275727;-0,557901;-1,25937;-0,0779535;0,111402;-0,146672;0,084079;-0,0503845;0,0500546;0,0846331;-0,143958;-0;0,0833246;-0,181313;2,54457;0,0657989;-0,0249582;0;-2,60462;-0,511541;-1080;1080;-300;1700;-10;10;-10;-0;0;-0;250;-1,2;0,2;177;-1,2;-1;2555;0,07;1901;3184;8;56579;
11,7354;1,19215;-1,75378;258;-165;3048;0;-0,0755713;-0,152287;-1,62823;0,0230999;-0,0616114;-0,457703;0,0695044;0,0413831;-0,246223;-0,00239092;0,263688;1,48156;0;0;0;0;0;0;0,066672;0,0403193;-0,259;0,3;0,11;1,477;-0,275817;-0,561482;-1,26193;-0,0779622;0,111401;-0,146669;0,0840792;-0,0503906;0,0500609;0,0846329;-0,143954;-0;0,0838825;-0,182527;2,49592;0,0657989;-0,0249582;0;-2,60456;-0,511588;-1080;1080;-300;1700;-10;10;-10;-0;0;-0;250;-1,2;0,2;177;-1,2;-1;2555;0,07;1901;3184;8;56579;
11,7453;1,19214;-1,75478;247;-164;3070;0;-0,0651671;-0,151982;-1,70201;0,0224508;-0,0631252;-0,474656;0,0695555;0,0414017;-0,245218;-0,0131917;0,262683;1,55502;0;0;0;0;0;0;0,066672;0,0403193;-0,259;0,3;0,11;1,551;-0,240094;-0,562113;-1,31824;-0,0783589;0,110701;-0,146987;0,0840599;-0,0503652;0,0500352;0,0846143;-0,143994;-0;0,0660149;-0,18126;2,49558;0,0682424;-0,0247837;0;-2,60469;-0,51148;-1080;1080;-300;1700;-10;10;-10;-0;0;-0;250;-1,2;0,2;177;-1,2;-1;2555;0,07;1901;3184;8;56579;
11,7554;1,19215;-1,75517;241;-165;3089;0;-0,0595558;-0,152399;-1,76584;0,0218499;-0,0646629;-0,492474;0,0695063;0,0413835;-0,244828;-0,0195843;0,262403;1,61875;0;0;0;0;0;0;0,066672;0,0403193;-0,259;0,3;0,11;1,615;-0,220879;-0,569034;-1,36687;-0,0791402;0,110004;-0,147092;0,0840449;-0,0503692;0,0500396;0,0845985;-0,144009;-0;0,0664979;-0,1813;2,44206;0,0682424;-0,0246091;0;-2,60457;-0,511582;-1080;1080;-300;1700;-10;10;-10;-0;0;-0;250;-1,2;0,2;177;-1,2;-1;2555;0,07;1901;3184;8;56579;
11,7655;1,19215;-1,75507;241;-165;3089;0;-0,0597288;-0,152527;-1,7658;0,0212468;-0,0662029;-0,510301;0,0694856;0,0413758;-0,244934;-0,0194195;0,26253;1,61871;0;0;0;0;0;0;0,066672;0,0403193;-0,259;0,3;0,11;1,615;-0,220879;-0,569034;-1,36687;-0,0791484;0,110003;-0,147088;0,0840453;-0,0503749;0,0500455;0,0845986;-0,144004;-0;0,0669165;-0,182442;2,39568;0,0682424;-0,0246091;0;-2,60452;-0,511624;-1080;1080;-300;1700;-10;10;-10;-0;0;-0;250;-1,2;0,2;177;-1,2;-1;2555;0,07;1901;3184;8;56579;
11,7755;1,19215;-1,75583;230;-163;3108;0;-0,0496964;-0,150612;-1,82779;0,0207536;-0,0676977;-0,528442;0,0695101;0,0413846;-0,244171;-0,0297956;0,260107;1,68051;0;0;0;0;0;0;0,066672;0,0403193;-0,259;0,3;0,11;1,677;-0,184048;-0,565606;-1,41551;-0,079492;0,109495;-0,147282;0,0840291;-0,0503585;0,0500289;0,0845827;-0,144035;-0;0,0488031;-0,18892;2,39529;0,0706858;-0,0254818;0;-2,60458;-0,511571;-1080;1080;-300;1700;-10;10;-10;-0;0;-0;250;-1,2;0,2;177;-1,2;-1;2555;0,07;1901;3184;8;56579;
11,7854;1,19215;-1,75576;230;-163;3108;0;-0,0498888;-0,150931;-1,82784;0,0202561;-0,0692029;-0,546671;0,0694976;0,0413799;-0,244236;-0,0296081;0,260425;1,68056;0;0;0;0;0;0;0,066672;0,0403193;-0,259;0,3;0,11;1,677;-0,184048;-0,565606;-1,41551;-0,0794969;0,109494;-0,147279;0,0840294;-0,0503619;0,0500324;0,0845828;-0,144032;-0;0,0490997;-0,190068;2,35022;0,0706858;-0,0254818;0;-2,60455;-0,511596;-1080;1080;-300;1700;-10;10;-10;-0;0;-0;250;-1,2;0,2;177;-1,2;-1;2555;0,07;1901;3184;8;56579;
11,7955;1,17877;-1,54991;180;-162;3121;0;0,00667723;-0,150002;-1,86862;0,0203233;-0,0707125;-0,565477;0,113803;0,068865;-0,450087;-0,0941722;0,263837;1,72939;0;0;0;0;0;0;0,11112;0,0671989;-0,464;0,27;0,16;1,73;-0,0104623;-0,564493;-1,44878;-0,087495;0,113835;-0,139234;0,0881825;-0,0543226;0,0533614;0,0897709;-0,135524;-0;0,0451967;-0,191382;2,34975;0,0712094;-0,0256563;0;-2,59741;-0,517716;-1080;1080;-300;1700;-10;10;-10;-0;0;-0;250;-1,2;0,2;177;-1,2;-1;2555;0,07;1913;3193;8;56579;
11,8054;1,17877;-1,55076;163;-160;3146;0;0,0120124;-0,148092;-1,9526;0,0204425;-0,0721829;-0,584864;0,113803;0,0688644;-0,449236;-0,1003;0,261381;1,81342;0;0;0;0;0;0;0,11112;0,0671989;-0,464;0,27;0,16;1,814;0,0492149;-0,562002;-1,51277;-0,0882877;0,113289;-0,139179;0,0881604;-0,0543087;0,0533478;0,0897484;-0,135564;-0;0,049299;-0,199987;2,31994;0,0706858;-0,0267035;0;-2,59742;-0,517714;-1080;1080;-300;1700;-10;10;-10;-0;0;-0;250;-1,2;0,2;177;-1,2;-1;2555;0,07;1913;3193;8;56579;
11,8153;1,17876;-1,55085;164;-161;3146;0;0,0116505;-0,148571;-1,95262;0,0205582;-0,0736578;-0,604248;0,113814;0,0688706;-0,449145;-0,099935;0,261858;1,81343;0;0;0;0;0;0;0,11112;0,0671989;-0,464;0,27;0,16;1,814;0,0456995;-0,565509;-1,51277;-0,0882845;0,113287;-0,139183;0,088158;-0,054307;0,0533459;0,0897462;-0,135568;-0;0,0497;-0,201614;2,25901;0,0706858;-0,0267035;0;-2,59742;-0,517711;-1080;1080;-300;1700;-10;10;-10;-0;0;-0;250;-1,2;0,2;177;-1,2;-1;2555;0,07;1913;3193;8;56579;
11,8253;1,17878;-1,55133;157;-158;3170;0;0,0174697;-0,146457;-2,03244;0,0207321;-0,0751155;-0,624477;0,113764;0,0688407;-0,448669;-0,106441;0,259211;1,89327;0;0;0;0;0;0;0,11112;0,0671989;-0,464;0,27;0,16;1,894;0,0708428;-0,559222;-1,57421;-0,0889709;0,112755;-0,139178;0,0881465;-0,0542992;0,0533391;0,0897331;-0,13559;-0;0,053657;-0,204262;2,25854;0,0701622;-0,0270526;0;-2,59742;-0,517712;-1080;1080;-300;1700;-10;10;-10;-0;0;-0;250;-1,2;0,2;177;-1,2;-1;2555;0,07;1913;3193;8;56579;
11,8354;1,17879;-1,55203;152;-158;3194;0;0,0223052;-0,146131;-2,11023;0,0209579;-0,0765951;-0,645843;0,11375;0,0688322;-0,447975;-0,112058;0,258193;1,971;0;0;0;0;0;0;0,11112;0,0671989;-0,464;0,27;0,16;1,972;0,0892233;-0,563456;-1,63564;-0,0897529;0,112062;-0,139235;0,0881287;-0,0542879;0,0533282;0,0897146;-0,135623;-0;0,0607091;-0,203174;2,20058;0,0692896;-0,0267035;0;-2,59742;-0,517711;-1080;1080;-300;1700;-10;10;-10;-0;0;-0;250;-1,2;0,2;177;-1,2;-1;2555;0,07;1913;3193;8;56579;
11,8454;1,17879;-1,552;152;-158;3194;0;0,0221503;-0,146252;-2,11019;0,0211791;-0,0780555;-0,666915;0,113744;0,0688283;-0,448003;-0,111904;0,258316;1,97096;0;0;0;0;0;0;0,11112;0,0671989;-0,464;0,27;0,16;1,972;0,0892233;-0,563456;-1,63564;-0,0897536;0,112063;-0,139234;0,0881297;-0,0542881;0,0533286;0,0897154;-0,135621;-0;0,0611599;-0,204683;2,14407;0,0692896;-0,0267035;0;-2,59742;-0,51771;-1080;1080;-300;1700;-10;10;-10;-0;0;-0;250;-1,2;0,2;177;-1,2;-1;2555;0,07;1913;3193;8;56579;
11,8554;1,17878;-1,55302;144;-158;3217;0;0,0296938;-0,146098;-2,18578;0,0214766;-0,0795193;-0,688814;0,113777;0,0688475;-0,446976;-0,119978;0,257468;2,04633;0;0;0;0;0;0;0,11112;0,0671989;-0,464;0,27;0,16;2,048;0,118621;-0,567513;-1,69451;-0,0902845;0,111369;-0,139447;0,0881025;-0,0542713;0,0533115;0,0896887;-0,13567;-0;0,0571497;-0,200683;2,1436;0,0698132;-0,0261799;0;-2,59743;-0,517705;-1080;1080;-300;1700;-10;10;-10;-0;0;-0;250;-1,2;0,2;177;-1,2;-1;2555;0,07;1913;3193;8;56579;
11,8654;1,1788;-1,55328;144;-157;3236;0;0,0296988;-0,144653;-2,24873;0,0217733;-0,0809644;-0,711279;0,113727;0,0688171;-0,446716;-0,120958;0,255464;2,10948;0;0;0;0;0;0;0,11112;0,0671989;-0,464;0,27;0,16;2,111;0,119322;-0,567258;-1,74315;-0,0912589;0,110811;-0,139257;0,0880967;-0,054267;0,0533082;0,0896813;-0,135682;-0;0,0764254;-0,204816;2,08865;0,0673697;-0,026529;0;-2,59742;-0,517707;-1080;1080;-300;1700;-10;10;-10;-0;0;-0;250;-1,2;0,2;177;-1,2;-1;2555;0,07;1913;3193;8;56579;
11,8754;1,1788;-1,55327;144;-157;3236;0;0,029678;-0,144652;-2,24872;0,0220703;-0,0824119;-0,733782;0,113722;0,0688142;-0,446733;-0,120937;0,255465;2,10946;0;0;0;0;0;0;0,11112;0,0671989;-0,464;0,27;0,16;2,111;0,119322;-0,567258;-1,74315;-0,0912593;0,110812;-0,139257;0,0880973;-0,0542671;0,0533083;0,0896818;-0,135681;-0;0,0768793;-0,206032;2,04279;0,0673697;-0,026529;0;-2,59743;-0,517705;-1080;1080;-300;1700;-10;10;-10;-0;0;-0;250;-1,2;0,2;177;-1,2;-1;2555;0,07;1913;3193;8;56579;
11,8854;1,17881;-1,55409;150;-154;3266;0;0,0243893;-0,14242;-2,34565;0,0223131;-0,0838297;-0,757133;0,113702;0,0688015;-0,445912;-0,117046;0,252621;2,20683;0;0;0;0;0;0;0,11112;0,0671989;-0,464;0,27;0,16;2,208;0,0985331;-0,561593;-1,81994;-0,0926569;0,110201;-0,138818;0,0880763;-0,0542537;0,0532955;0,0896599;-0,13572;-0;0,120264;-0,207401;2,04226;0,0617847;-0,0267035;0;-2,59743;-0,517704;-1080;1080;-300;1700;-10;10;-10;-0;0;-0;250;-1,2;0,2;177;-1,2;-1;2555;0,07;1913;3193;8;56579;
11,8968;1,17881;-1,5549;156;-149;3292;0;0,0187051;-0,137254;-2,4318;0,0225262;-0,0853933;-0,784836;0,113693;0,0687962;-0,445104;-0,112625;0,247063;2,29352;0;0;0;0;0;0;0,11112;0,0671989;-0,464;0,27;0,16;2,294;0,0772476;-0,547712;-1,88649;-0,0939198;0,109809;-0,138279;0,0880555;-0,0542406;0,0532827;0,0896384;-0,135757;-0;0,161019;-0,22022;1,97192;0,0567232;-0,0280998;0;-2,59743;-0,517703;-1080;1080;-300;1700;-10;10;-10;-0;0;-0;250;-1,2;0,2;177;-1,2;-1;2555;0,07;1913;3193;8;56579;
11,9053;1,17882;-1,55468;156;-148;3292;0;0,0189658;-0,137151;-2,43194;0,0226879;-0,0865632;-0,805581;0,113666;0,06878;-0,445317;-0,112892;0,246968;2,29367;0;0;0;0;0;0;0,11112;0,0671989;-0,464;0,27;0,16;2,294;0,0772476;-0,544041;-1,88649;-0,0939266;0,109816;-0,138268;0,0880616;-0,0542439;0,0532864;0,0896439;-0,135747;-0;0,162307;-0,221981;1,90924;0,0567232;-0,0280998;0;-2,59743;-0,517703;-1080;1080;-300;1700;-10;10;-10;-0;0;-0;250;-1,2;0,2;177;-1,2;-1;2555;0,07;1913;3193;8;56579;
11,9153;1,17868;-1,55867;160;-142;3313;0;0,0152823;-0,130676;-2,50155;0,0228407;-0,0878694;-0,830586;0,11404;0,0690009;-0,44133;-0,109927;0,240233;2,36357;0;0;0;0;0;0;0,11112;0,0671989;-0,464;0,27;0,16;2,364;0,062933;-0,525344;-1,94024;-0,0946445;0,109557;-0,137984;0,0879518;-0,0541786;0,053216;0,0895426;-0,135939;-0;0,187136;-0,237161;1,90864;0,0535816;-0,0300197;0;-2,59746;-0,517675;-1080;1080;-300;1700;-10;10;-10;-0;0;-0;250;-1,2;0,2;177;-1,2;-1;2555;0,07;1913;3193;8;56579;
11,9254;1,17897;-1,55181;158;-142;3314;0;0,0167784;-0,131045;-2,50287;0,0230105;-0,0891959;-0,85592;0,113255;0,0685353;-0,448192;-0,111647;0,24082;2,36522;0;0;0;0;0;0;0,11112;0,0671989;-0,464;0,27;0,16;2,364;0,070358;-0,525503;-1,9428;-0,0948689;0,109774;-0,137657;0,0881435;-0,0542908;0,0533394;0,0897157;-0,135607;-0;0,188337;-0,238683;1,85792;0,0535816;-0,0300197;0;-2,5974;-0,517727;-1080;1080;-300;1700;-10;10;-10;-0;0;-0;250;-1,2;0,2;177;-1,2;-1;2555;0,07;1913;3193;8;56579;
11,9353;1,17883;-1,5561;166;-135;3341;0;0,00944338;-0,124737;-2,5934;0,0231042;-0,0904334;-0,881649;0,11364;0,0687631;-0,443896;-0,10541;0,234044;2,45614;0;0;0;0;0;0;0,11112;0,0671989;-0,464;0,27;0,16;2,455;0,0410657;-0,503699;-2,01191;-0,0959664;0,109307;-0,137268;0,0880254;-0,0542205;0,0532639;0,0896062;-0,135814;-0;0,227229;-0,251217;1,85636;0,0486947;-0,0315905;0;-2,59743;-0,517699;-1080;1080;-300;1700;-10;10;-10;-0;0;-0;250;-1,2;0,2;177;-1,2;-1;2555;0,07;1913;3193;8;56579;
11,9453;1,17882;-1,55721;172;-133;3368;0;0,00422112;-0,12275;-2,68243;0,0231464;-0,0916593;-0,908439;0,113661;0,0687754;-0,442788;-0,101153;0,231558;2,54544;0;0;0;0;0;0;0,11112;0,0671989;-0,464;0,27;0,16;2,544;0,0188172;-0,500255;-2,08103;-0,096932;0,108808;-0,136985;0,0879962;-0,0542024;0,0532458;0,0895772;-0,135866;-0;0,261286;-0,251896;1,79057;0,0446804;-0,0314159;0;-2,59744;-0,517695;-1080;1080;-300;1700;-10;10;-10;-0;0;-0;250;-1,2;0,2;177;-1,2;-1;2555;0,07;1913;3193;8;56579;
11,9554;1,17885;-1,5566;171;-133;3369;0;0,00444336;-0,122605;-2,68252;0,0231911;-0,0928929;-0,93543;0,113594;0,0687354;-0,443404;-0,101395;0,231432;2,54557;0;0;0;0;0;0;0,11112;0,0671989;-0,464;0,27;0,16;2,544;0,0225873;-0,500404;-2,08359;-0,0969519;0,108827;-0,136956;0,0880135;-0,0542123;0,0532566;0,0895929;-0,135836;-0;0,263395;-0,25393;1,72584;0,0446804;-0,0314159;0;-2,59743;-0,517698;-1080;1080;-300;1700;-10;10;-10;-0;0;-0;250;-1,2;0,2;177;-1,2;-1;2555;0,07;1913;3193;8;56579;
11,9655;1,15792;-1,24194;144;-183;3391;0;0,0300682;-0,299702;-2,75554;0,0234948;-0,0959199;-0,963261;0,148301;0,114331;-0,758058;-0,151273;0,402727;2,63432;0;0;0;0;0;0;0,144456;0,111174;-0,778;0,39;0,3;2,629;0,125037;-0,692674;-2,1399;-0,121205;0,103024;-0,121225;0,0882094;-0,0704754;0,0680042;0,0914148;-0,119462;-0;0,297264;-0,259594;1,72512;0,0404916;-0,0321141;0;-2,48482;-0,610561;-1080;1080;-300;1700;-10;10;-10;-0;0;-0;250;-1,2;0,2;177;-1,2;-1;2555;0,07;1922;3201;8;56579;
11,9755;1,15792;-1,24287;145;-233;3416;0;0,0291161;-0,29291;-2,83704;0,0237853;-0,0988429;-0,991572;0,14831;0,114338;-0,757126;-0,15094;0,395478;2,71605;0;0;0;0;0;0;0,144456;0,111174;-0,778;0,39;0,3;2,712;0,122142;-0,887844;-2,20389;-0,121824;0,102568;-0,12099;0,0881858;-0,0704562;0,0679854;0,0913908;-0,119519;-0;0,310576;-0,274079;1,67189;0,0390954;-0,0336849;0;-2,48483;-0,610558;-1080;1080;-300;1700;-10;10;-10;-0;0;-0;250;-1,2;0,2;177;-1,2;-1;2555;0,07;1922;3201;8;56579;
11,9854;1,15792;-1,24287;147;-283;3415;0;0,0273497;-0,29191;-2,83508;0,0240561;-0,101733;-1,01964;0,148306;0,114333;-0,757129;-0,149174;0,394478;2,71409;0;0;0;0;0;0;0,144456;0,111174;-0,778;0,39;0,3;2,712;0,114475;-1,07717;-2,20133;-0,121824;0,102569;-0,12099;0,0881863;-0,0704558;0,0679852;0,0913911;-0,119519;-0;0,312841;-0,276078;1,61253;0,0390954;-0,0336849;0;-2,48483;-0,610554;-1080;1080;-300;1700;-10;10;-10;-0;0;-0;250;-1,2;0,2;177;-1,2;-1;2555;0,07;1922;3201;8;56579;
11,9955;1,15796;-1,24336;145;-308;3443;0;0,0291747;-0,284284;-2,92558;0,0243517;-0,104613;-1,04928;0,148239;0,114281;-0,756643;-0,151668;0,386257;2,80477;0;0;0;0;0;0;0,144456;0,111174;-0,778;0,39;0,3;2,804;0,123108;-1,18138;-2,273;-0,122494;0,101973;-0,120817;0,0881762;-0,0704449;0,0679769;0,0913777;-0,119548;-0;0,319961;-0,287491;1,61327;0,0382227;-0,0350811;0;-2,48484;-0,610551;-1080;1080;-300;1700;-10;10;-10;-0;0;-0;250;-1,2;0,2;177;-1,2;-1;2555;0,07;1922;3201;8;56579;
12,0054;1,15799;-1,24374;143;-303;3464;0;0,0306106;-0,279744;-2,99674;0,0246553;-0,107388;-1,07901;0,14819;0,114241;-0,75626;-0,15374;0,381079;2,87603;0;0;0;0;0;0;0,144456;0,111174;-0,778;0,39;0,3;2,876;0,131599;-1,16941;-2,32676;-0,123129;0,101335;-0,120708;0,0881683;-0,0704363;0,0679703;0,0913672;-0,119571;-0;0,329737;-0,295566;1,54741;0,03735;-0,0357792;0;-2,48484;-0,610548;-1080;1080;-300;1700;-10;10;-10;-0;0;-0;250;-1,2;0,2;177;-1,2;-1;2555;0,07;1922;3201;8;56579;
12,0153;1,15795;-1,2443;143;-303;3465;0;0,0304344;-0,279785;-2,99663;0,0249558;-0,11015;-1,10859;0,148262;0,114296;-0,755697;-0,153542;0,381103;2,87589;0;0;0;0;0;0;0,144456;0,111174;-0,778;0,39;0,3;2,876;0,131637;-1,16974;-2,32932;-0,123108;0,101319;-0,120743;0,0881522;-0,0704253;0,0679572;0,0913537;-0,119607;-0;0,331809;-0,297424;1,49547;0,03735;-0,0357792;0;-2,48484;-0,610545;-1080;1080;-300;1700;-10;10;-10;-0;0;-0;250;-1,2;0,2;177;-1,2;-1;2555;0,07;1922;3201;8;56579;
12,0253;1,158;-1,24443;128;-301;3491;0;0,0450276;-0,278414;-3,08247;0,0254084;-0,112949;-1,13958;0,14816;0,114217;-0,755567;-0,168421;0,378856;2,96129;0;0;0;0;0;0;0,144456;0,111174;-0,778;0,39;0,3;2,962;0,191128;-1,17079;-2,39587;-0,123393;0,100442;-0,121183;0,0881522;-0,0704212;0,0679567;0,0913491;-0,119613;-0;0,308631;-0,294546;1,49484;0,0401426;-0,0354302;0;-2,48485;-0,610542;-1080;1080;-300;1700;-10;10;-10;-0;0;-0;250;-1,2;0,2;177;-1,2;-1;2555;0,07;1922;3201;8;56579;
12,0353;1,15803;-1,24545;114;-290;3530;0;0,0573036;-0,267678;-3,21187;0,0259817;-0,115627;-1,17171;0,148123;0,114187;-0,754547;-0,181182;0,367436;3,09061;0;0;0;0;0;0;0,144456;0,111174;-0,778;0,39;0,3;3,091;0,248469;-1,14084;-2,49569;-0,123878;0,0997585;-0,121254;0,0881277;-0,0703998;0,0679373;0,0913221;-0,119675;-0;0,299263;-0,315757;1,43229;0,0415388;-0,0376991;0;-2,48485;-0,610539;-1080;1080;-300;1700;-10;10;-10;-0;0;-0;250;-1,2;0,2;177;-1,2;-1;2555;0,07;1922;3201;8;56579;
12,0454;1,158;-1,24589;115;-290;3530;0;0,057097;-0,26826;-3,21202;0,0265529;-0,118311;-1,20384;0,148175;0,114226;-0,754108;-0,180958;0,368006;3,09074;0;0;0;0;0;0;0,144456;0,111174;-0,778;0,39;0,3;3,091;0,244526;-1,14084;-2,49569;-0,123861;0,0997461;-0,121281;0,0881154;-0,0703911;0,0679272;0,0913116;-0,119703;-0;0,302618;-0,319297;1,33837;0,0415388;-0,0376991;0;-2,48486;-0,610535;-1080;1080;-300;1700;-10;10;-10;-0;0;-0;250;-1,2;0,2;177;-1,2;-1;2555;0,07;1922;3201;8;56579;
12,0555;1,15802;-1,24664;99;-265;3561;0;0,0719401;-0,244806;-3,31425;0,0272795;-0,120783;-1,23732;0,148138;0,114197;-0,753363;-0,196229;0,344274;3,19318;0;0;0;0;0;0;0,144456;0,111174;-0,778;0,39;0,3;3,192;0,310309;-1,05211;-2,57505;-0,124289;0,0994679;-0,121072;0,0880979;-0,0703753;0,0679131;0,0912918;-0,119749;-0;0,283438;-0,371043;1,33749;0,0438078;-0,0438078;0;-2,48486;-0,610532;-1080;1080;-300;1700;-10;10;-10;-0;0;-0;250;-1,2;0,2;177;-1,2;-1;2555;0,07;1922;3201;8;56579;
12,0654;1,15803;-1,24651;98;-266;3562;0;0,0724218;-0,245774;-3,31515;0,0280017;-0,123234;-1,27038;0,148119;0,114181;-0,753489;-0,196715;0,345246;3,19409;0;0;0;0;0;0;0,144456;0,111174;-0,778;0,39;0,3;3,192;0,314374;-1,05636;-2,5776;-0,124293;0,0994723;-0,121064;0,0881019;-0,0703772;0,0679157;0,0912951;-0,11974;-0;0,285927;-0,374301;1,26309;0,0438078;-0,0438078;0;-2,48486;-0,610529;-1080;1080;-300;1700;-10;10;-10;-0;0;-0;250;-1,2;0,2;177;-1,2;-1;2555;0,07;1922;3201;8;56579;
12,0754;1,15802;-1,24765;84;-228;3591;0;0,0850015;-0,210088;-3,41179;0,0288538;-0,12534;-1,30458;0,148137;0,114195;-0,75235;-0,209818;0,309617;3,29132;0;0;0;0;0;0;0,144456;0,111174;-0,778;0,39;0,3;3,287;0,373071;-0,913367;-2,65184;-0,124817;0,0995289;-0,120477;0,0880728;-0,070354;0,0678927;0,0912657;-0,119811;-0;0,272554;-0,454836;1,26165;0,0453786;-0,0532325;0;-2,48487;-0,610526;-1080;1080;-300;1700;-10;10;-10;-0;0;-0;250;-1,2;0,2;177;-1,2;-1;2555;0,07;1922;3201;8;56579;
12,0853;1,15806;-1,2483;72;-184;3628;0;0,0961536;-0,169667;-3,53486;0,0298016;-0,127012;-1,33942;0,14807;0,114142;-0,751695;-0,221673;0,26931;3,41521;0;0;0;0;0;0;0,144456;0,111174;-0,778;0,39;0,3;3,407;0,425517;-0,745127;-2,74654;-0,125519;0,0996432;-0,11965;0,0880585;-0,0703397;0,0678811;0,0912479;-0,11985;-0;0,271792;-0,545679;1,19125;0,0457276;-0,0633555;0;-2,48487;-0,610523;-1080;1080;-300;1700;-10;10;-10;-0;0;-0;250;-1,2;0,2;177;-1,2;-1;2555;0,07;1922;3201;8;56579;
12,0953;1,15806;-1,24835;71;-185;3629;0;0,097407;-0,170829;-3,53652;0,0307781;-0,128725;-1,37487;0,148072;0,114142;-0,751653;-0,222924;0,270472;3,41687;0;0;0;0;0;0;0,144456;0,111174;-0,778;0,39;0,3;3,407;0,429685;-0,749374;-2,7491;-0,125517;0,0996428;-0,119653;0,0880577;-0,0703385;0,0678799;0,0912471;-0,119853;-0;0,274612;-0,551341;1,10182;0,0457276;-0,0633555;0;-2,48488;-0,61052;-1080;1080;-300;1700;-10;10;-10;-0;0;-0;250;-1,2;0,2;177;-1,2;-1;2555;0,07;1922;3201;8;56579;
12,1054;1,1581;-1,24847;65;-135;3655;0;0,102646;-0,123766;-3,62098;0,0318117;-0,129971;-1,41134;0,147989;0,114078;-0,751534;-0,228971;0,223724;3,50245;0;0;0;0;0;0;0,144456;0,111174;-0,778;0,39;0,3;3,49;0,45724;-0,551038;-2,81566;-0,126325;0,0999581;-0,118534;0,0880573;-0,0703349;0,0678792;0,091243;-0,119858;-0;0,279235;-0,653082;1,09977;0,045204;-0,0750492;0;-2,48488;-0,610517;-1080;1080;-300;1700;-10;10;-10;-0;0;-0;250;-1,2;0,2;177;-1,2;-1;2555;0,07;1922;3201;8;56579;
12,1153;1,15808;-1,24992;55;-85;3686;0;0,112308;-0,0769375;-3,72352;0,0329278;-0,130736;-1,44834;0,148037;0,114113;-0,750078;-0,239376;0,176992;3,60586;0;0;0;0;0;0;0,144456;0,111174;-0,778;0,39;0,3;3,59;0,502252;-0,350015;-2,89501;-0,127068;0,100054;-0,117656;0,0880193;-0,0703056;0,0678493;0,0912058;-0,119949;-0;0,281212;-0,753845;1,03809;0,045204;-0,0860447;0;-2,48488;-0,610514;-1080;1080;-300;1700;-10;10;-10;-0;0;-0;250;-1,2;0,2;177;-1,2;-1;2555;0,07;1922;3201;8;56579;
12,1254;1,15808;-1,24994;53;-85;3687;0;0,113949;-0,0781152;-3,72556;0,0340744;-0,131522;-1,48583;0,148036;0,114112;-0,750057;-0,241015;0,17817;3,6079;0;0;0;0;0;0;0,144456;0,111174;-0,778;0,39;0,3;3,59;0,510617;-0,35011;-2,89757;-0,127067;0,100054;-0,117657;0,0880191;-0,0703048;0,0678486;0,0912055;-0,11995;-0;0,283607;-0,760265;0,963388;0,045204;-0,0860447;0;-2,48489;-0,610511;-1080;1080;-300;1700;-10;10;-10;-0;0;-0;250;-1,2;0,2;177;-1,2;-1;2555;0,07;1922;3201;8;56579;
12,1353;1,15812;-1,25028;46;-46;3716;0;0,120728;-0,0416388;-3,82151;0,0352714;-0,131935;-1,52372;0,147967;0,114058;-0,749716;-0,248485;0,141554;3,70448;0;0;0;0;0;0;0,144456;0,111174;-0,778;0,39;0,3;3,686;0,543654;-0,190993;-2,9718;-0,127757;0,099915;-0,117026;0,0880128;-0,0702968;0,0678432;0,0911958;-0,11997;-0;0,285227;-0,826612;0,961021;0,0450295;-0,0935496;0;-2,48489;-0,610508;-1080;1080;-300;1700;-10;10;-10;-0;0;-0;250;-1,2;0,2;177;-1,2;-1;2555;0,07;1922;3201;8;56579;
12,1453;1,1581;-1,25138;39;-21;3740;0;0,126592;-0,0186533;-3,90083;0,0365343;-0,132121;-1,56263;0,147998;0,114081;-0,748616;-0,255044;0,118031;3,78411;0;0;0;0;0;0;0,144456;0,111174;-0,778;0,39;0,3;3,764;0,576368;-0,0877601;-3,03323;-0,128453;0,0993781;-0,116722;0,0879843;-0,0702745;0,0678207;0,0911676;-0,120038;-0;0,29215;-0,871888;0,891036;0,0445059;-0,097913;0;-2,48489;-0,610505;-1080;1080;-300;1700;-10;10;-10;-0;0;-0;250;-1,2;0,2;177;-1,2;-1;2555;0,07;1922;3201;8;56579;
