time ;e1;e2;ctrlpitch;ctrlroll;ctrlthrust;ctrlyaw;edx;edy;edz;cumulx;cumuly;cumulz;x_pred;y_pred;z_pred;dxr_pred;dyr_pred;dzr_pred;dxrT;dyrT;dzrT;dxrUn;dyrUn;dzrUn;x;y;z;dx;dy;dz;ux;uy;uz;dxd;dyd;dzd;Perpx;Tangx;Perpy;Tangy;Perpz;Tanz;ax;ay;az;pitch;roll;yaw;yawd;eyaw;kpvx;kpvy;kpvz;kpyaw;kivx;kivy;kivz;kdvx;kdvy;kdvz;kdyaw;ktg;veld;pitchoff;ke1;ke2;gravity;thr_vel;gps_accuracy;height_accuracy;gps_sat_num;gps_status
9,88034;1,19919;-2,02797;50;-50;1450;0;0,0353165;-0,124574;-0,224689;0,000170967;-0,000603061;-0,00108772;-0,0254729;-0,00514456;0,0279725;-0,0390061;0,00113973;0,0673663;0;0;0;0;0;0;-0,022224;-0,00550139;-0;-0,03;0,02;0,069;0,205665;-0,0810057;2,82845;-0,0036896;-0,123434;-0,157323;-0,0889151;0,0179696;-0,0179575;-0,0889752;-0,153402;-0;0;-0;9,81;0,045204;-0,0286234;0;0,199281;0,197965;-1080;1080;-600;1700;-10;10;-10;-0;0;-0;250;-1,2;0,2;177;-1,2;-1;2555;0,07;1779;2273;8;56579;
9,88553;1,19917;-2,02866;100;-100;1500;0;0,0340796;-0,124436;-0,224763;0,000347977;-0,00124938;-0,00225514;-0,0257725;-0,00494486;0,0286615;-0,0390061;0,00113973;0,0673663;0;0;0;0;0;0;-0,022224;-0,00550139;-0;-0,03;0,02;0,069;0,129036;-0,167558;2,70047;-0,00492648;-0,123296;-0,157397;-0,0890666;0,0171006;-0,0170889;-0,089128;-0,153424;-0;0,206929;-0,184733;3,35521;0,045204;-0,0286234;0;0,189562;0,188429;-1080;1080;-600;1700;-10;10;-10;-0;0;-0;250;-1,2;0,2;177;-1,2;-1;2555;0,07;1779;2273;8;56579;
9,89557;1,19902;-2,02904;139;-129;1550;0;0,0345962;-0,119465;-0,229;0,000695011;-0,00244774;-0,00455223;-0,0254729;-0,013083;0,02904;-0,00319571;-0,00207193;0,073299;0;0;0;0;0;0;-0,022224;-0,0134398;-0;0;0;0,072;0,0658124;-0,223308;2,57249;0,0314005;-0,121537;-0,155701;-0,0806557;0,041459;-0,041425;-0,0807219;-0,15344;-0;0,20806;-0,18361;3,35508;0,0450295;-0,0284489;0;0,47447;0,456867;-1080;1080;-600;1700;-10;10;-10;-0;0;-0;250;-1,2;0,2;177;-1,2;-1;2555;0,07;1779;2273;8;56579;
9,90552;1,19902;-2,0295;139;-128;1600;0;0,0346695;-0,119259;-0,235288;0,00104004;-0,0036346;-0,00689382;-0,0254728;-0,013083;0,0294953;-0,00329791;-0,00228865;0,079589;0;0;0;0;0;0;-0,022224;-0,0134398;-0;0;0;0,076;0,0679354;-0,228726;2,4445;0,0313716;-0,121547;-0,155699;-0,080645;0,0414537;-0,0414197;-0,0807111;-0,153454;-0;0,209385;-0,182658;3,34892;0,044855;-0,0282743;0;0,474473;0,45687;-1080;1080;-600;1700;-10;10;-10;-0;0;-0;250;-1,2;0,2;177;-1,2;-1;2555;0,07;1779;2273;8;56579;
9,91543;1,19902;-2,03026;139;-128;1650;0;0,0345623;-0,118921;-0,239739;0,00138259;-0,00481323;-0,00926987;-0,0254724;-0,0130833;0,0302648;-0,00319298;-0,00259707;0,0840167;0;0;0;0;0;0;-0,022224;-0,0134398;-0;0;0;0,076;0,0700583;-0,235874;2,31652;0,0313693;-0,121518;-0,155722;-0,0806263;0,0414458;-0,0414118;-0,0806924;-0,153478;-0;0,20968;-0,182916;3,33981;0,044855;-0,0282743;0;0,474489;0,456884;-1080;1080;-600;1700;-10;10;-10;-0;0;-0;250;-1,2;0,2;177;-1,2;-1;2555;0,07;1779;2273;8;56579;
9,9255;1,19902;-2,0312;139;-127;1700;0;0,0345487;-0,118306;-0,249716;0,00173039;-0,00600422;-0,0117838;-0,0254713;-0,0130844;0,031202;-0,00320481;-0,00317514;0,0939607;0;0;0;0;0;0;-0,022224;-0,0134398;-0;0;0;0,08;0,0721813;-0,241125;2,18853;0,0313439;-0,121482;-0,155756;-0,0806022;0,0414387;-0,0414047;-0,0806684;-0,153507;-0;0,21102;-0,183099;3,33335;0,0446804;-0,0282743;0;0,474541;0,456931;-1080;1080;-600;1700;-10;10;-10;-0;0;-0;250;-1,2;0,2;177;-1,2;-1;2555;0,07;1779;2273;8;56579;
9,93536;1,19902;-2,03224;139;-126;1750;0;0,0345265;-0,117483;-0,261102;0,00207103;-0,0071633;-0,0143598;-0,025469;-0,0130871;0,0322401;-0,00317338;-0,00393017;0,105295;0;0;0;0;0;0;-0,022224;-0,0134398;-0;0;0;0,084;0,0743043;-0,246264;2,06055;0,0313531;-0,121413;-0,155807;-0,080573;0,041436;-0,041402;-0,0806391;-0,153539;-0;0,21149;-0,184639;3,31892;0,0446804;-0,0284489;0;0,474662;0,457038;-1080;1080;-600;1700;-10;10;-10;-0;0;-0;250;-1,2;0,2;177;-1,2;-1;2555;0,07;1779;2273;8;56579;
9,94551;1,19902;-2,03335;139;-125;1800;0;0,0344041;-0,116561;-0,272824;0,00242013;-0,00834605;-0,0171281;-0,0254651;-0,0130927;0,0333502;-0,00302771;-0,00480419;0,116985;0;0;0;0;0;0;-0,022224;-0,0134398;-0;0;0;0,087;0,0764273;-0,251292;1,93256;0,0313764;-0,121366;-0,155839;-0,0805373;0,0414416;-0,0414076;-0,0806034;-0,153574;-0;0,212026;-0,185107;3,30246;0,0446804;-0,0284489;0;0,474897;0,457247;-1080;1080;-600;1700;-10;10;-10;-0;0;-0;250;-1,2;0,2;177;-1,2;-1;2555;0,07;1779;2273;8;56579;
9,95555;1,19902;-2,03435;140;-124;1850;0;0,0340947;-0,115575;-0,282602;0,00276237;-0,00950619;-0,0199649;-0,0254591;-0,0131026;0,0343469;-0,00267337;-0,00574349;0,126735;0;0;0;0;0;0;-0,022224;-0,0134398;-0;0;0;0,087;0,0764833;-0,256208;1,80458;0,0314213;-0,121318;-0,155867;-0,0804973;0,0414621;-0,0414281;-0,0805634;-0,153604;-0;0,212578;-0,185589;3,28552;0,0446804;-0,0284489;0;0,475301;0,457606;-1080;1080;-600;1700;-10;10;-10;-0;0;-0;250;-1,2;0,2;177;-1,2;-1;2555;0,07;1779;2273;8;56579;
9,96549;1,19902;-2,03568;140;-123;1900;0;0,0339069;-0,114261;-0,296592;0,0030994;-0,0106419;-0,022913;-0,0254499;-0,0131188;0,0356841;-0,00238499;-0,0069643;0,140673;0;0;0;0;0;0;-0,022224;-0,0134398;-0;0;0;0,09;0,0785504;-0,261013;1,67659;0,0315219;-0,121226;-0,155919;-0,0804391;0,0414985;-0,0414645;-0,0805051;-0,153646;-0;0,211898;-0,187132;3,27137;0,044855;-0,0286234;0;0,475952;0,458185;-1080;1080;-600;1700;-10;10;-10;-0;0;-0;250;-1,2;0,2;177;-1,2;-1;2555;0,07;1779;2273;8;56579;
9,97554;1,19902;-2,03717;140;-121;1950;0;0,0335659;-0,112827;-0,311425;0,00343698;-0,0117766;-0,026045;-0,0254369;-0,0131434;0,0371657;-0,00195697;-0,00831955;0,155462;0;0;0;0;0;0;-0,022224;-0,0134398;-0;0;0;0,093;0,0806176;-0,26353;1,54861;0,0316089;-0,121146;-0,155963;-0,0803642;0,041559;-0,0415249;-0,0804302;-0,153692;-0;0,213698;-0,187711;3,25116;0,0446804;-0,0286234;0;0,476925;0,459049;-1080;1080;-600;1700;-10;10;-10;-0;0;-0;250;-1,2;0,2;177;-1,2;-1;2555;0,07;1779;2273;8;56579;
9,98551;1,19902;-2,03851;141;-120;2000;0;0,033091;-0,111321;-0,323957;0,0037667;-0,0128858;-0,0292729;-0,0254191;-0,013179;0,0385128;-0,00131609;-0,00974081;0,167962;0;0;0;0;0;0;-0,022224;-0,0134398;-0;0;0;0,093;0,0804501;-0,268056;1,42063;0,0317749;-0,121062;-0,155995;-0,0802752;0,0416542;-0,04162;-0,0803411;-0,153733;-0;0,214396;-0,188324;3,22973;0,0446804;-0,0286234;0;0,478312;0,460281;-1080;1080;-600;1700;-10;10;-10;-0;0;-0;250;-1,2;0,2;177;-1,2;-1;2555;0,07;1779;2273;8;56579;
9,99547;1,19902;-2,04023;141;-118;2050;0;0,0325968;-0,109513;-0,339257;0,00409155;-0,0139773;-0,032654;-0,0253955;-0,0132288;0,0402338;-0,000617485;-0,0114098;0,183196;0;0;0;0;0;0;-0,022224;-0,0134398;-0;0;0;0,095;0,0824614;-0,270182;1,29264;0,0319793;-0,120923;-0,156061;-0,080155;0,0417878;-0,0417536;-0,0802208;-0,153786;-0;0,216137;-0,189994;3,21161;0,0445059;-0,0287979;0;0,480236;0,461988;-1080;1080;-600;1700;-10;10;-10;-0;0;-0;250;-1,2;0,2;177;-1,2;-1;2555;0,07;1779;2273;8;56579;
10,0054;1,19902;-2,04227;142;-116;2100;0;0,0321879;-0,107549;-0,355982;0,00441009;-0,0150416;-0,0361768;-0,0253648;-0,0132957;0,0422679;0,000122219;-0,0132289;0,199878;0;0;0;0;0;0;-0,022224;-0,0134398;-0;0;0;0,098;0,0821264;-0,272085;1,16466;0,0323102;-0,120778;-0,156105;-0,0800004;0,0419688;-0,0419343;-0,0800661;-0,153849;-0;0,216862;-0,19063;3,1895;0,0445059;-0,0287979;0;0,482801;0,464262;-1080;1080;-600;1700;-10;10;-10;-0;0;-0;250;-1,2;0,2;177;-1,2;-1;2555;0,07;1779;2273;8;56579;
10,0154;1,19902;-2,04416;142;-114;2150;0;0,0315957;-0,105514;-0,370097;0,00472803;-0,0161033;-0,0399011;-0,0253259;-0,0133836;0,0441617;0,00112168;-0,0151085;0,213957;0;0;0;0;0;0;-0,022224;-0,0134398;-0;0;0;0,098;0,0840818;-0,273764;1,03667;0,0327174;-0,120622;-0,156141;-0,0798157;0,0422135;-0,0421789;-0,0798812;-0,153907;-0;0,217653;-0,191326;3,16533;0,0445059;-0,0287979;0;0,48615;0,467226;-1080;1080;-600;1700;-10;10;-10;-0;0;-0;250;-1,2;0,2;177;-1,2;-1;2555;0,07;1779;2273;8;56579;
10,0254;1,19901;-2,04654;143;-111;2200;0;0,0310136;-0,10317;-0,38644;0,00503848;-0,0171361;-0,0437693;-0,0252775;-0,0134962;0,0465393;0,00219476;-0,0172258;0,230228;0;0;0;0;0;0;-0,022224;-0,0134398;-0;0;0;0,1;0,0835791;-0,272765;0,908689;0,0332084;-0,120396;-0,156212;-0,0795802;0,0425245;-0,0424895;-0,0796456;-0,15398;-0;0,219484;-0,193077;3,14492;0,0443314;-0,0289725;0;0,490415;0,470992;-1080;1080;-600;1700;-10;10;-10;-0;0;-0;250;-1,2;0,2;177;-1,2;-1;2555;0,07;1779;2273;8;56579;
10,0361;1,19901;-2,04923;144;-108;2250;0;0,0304137;-0,100621;-0,403076;0,00536315;-0,0182102;-0,0480722;-0,0252173;-0,0136393;0,0492265;0,00342311;-0,0195049;0,246792;0;0;0;0;0;0;-0,022224;-0,0134398;-0;0;0;0,102;0,0829647;-0,27143;0,780705;0,0338368;-0,120126;-0,156285;-0,0792881;0,04292;-0,0428847;-0,0793534;-0,154062;-0;0,221429;-0,194928;3,12129;0,0441568;-0,029147;0;0,495808;0,475743;-1080;1080;-600;1700;-10;10;-10;-0;0;-0;250;-1,2;0,2;177;-1,2;-1;2555;0,07;1779;2273;8;56579;
10,0455;1,19901;-2,05189;144;-106;2300;0;0,0298174;-0,0980354;-0,417646;0,00564272;-0,0191294;-0,051988;-0,0251443;-0,0138167;0,0518941;0,00482873;-0,0218101;0,261323;0;0;0;0;0;0;-0,022224;-0,0134398;-0;0;0;0,102;0,0848084;-0,272327;0,65272;0,0346461;-0,119846;-0,156322;-0,0789402;0,0434131;-0,0433773;-0,0790053;-0,154144;-0;0,222226;-0,195629;3,09724;0,0441568;-0,029147;0;0,502456;0,481579;-1080;1080;-600;1700;-10;10;-10;-0;0;-0;250;-1,2;0,2;177;-1,2;-1;2555;0,07;1779;2273;8;56579;
10,0555;1,19901;-2,05534;145;-102;2350;0;0,029338;-0,0951012;-0,434789;0,00593492;-0,0200766;-0,0563185;-0,0250534;-0,0140412;0,0553407;0,00632364;-0,0243811;0,278417;0;0;0;0;0;0;-0,022224;-0,0134398;-0;0;0;0,104;0,0840264;-0,267754;0,524736;0,0356616;-0,119482;-0,156372;-0,0784957;0,0440294;-0,043993;-0,0785605;-0,154249;-0;0,222923;-0,196243;3,07617;0,0441568;-0,029147;0;0,510832;0,488903;-1080;1080;-600;1700;-10;10;-10;-0;0;-0;250;-1,2;0,2;177;-1,2;-1;2555;0,07;1779;2273;8;56579;
10,0656;1,19823;-2,05887;169;-103;2400;0;0,00724788;-0,0953442;-0,451442;0,0060083;-0,0210419;-0,0608889;-0,0360643;-0,0130779;0,058867;0,0079459;-0,0269654;0,293932;0;0;0;0;0;0;-0,033336;-0,0122213;-0;0;0;0,106;0,0214542;-0,27613;0,396751;0,0151938;-0,12231;-0,15751;-0,0844629;0,0306738;-0,0306287;-0,0845874;-0,154376;-0;0,224923;-0,198145;3,05138;0,0439823;-0,0293215;0;0,347881;0,340906;-1080;1080;-600;1700;-10;10;-10;-0;0;-0;250;-1,2;0,2;177;-1,2;-1;2555;0,07;1779;2272;8;56579;
10,0755;1,19823;-2,06252;169;-100;2450;0;0,00651799;-0,0924823;-0,465244;0,00607309;-0,0219611;-0,0655134;-0,0359419;-0,0133906;0,0625227;0,00977953;-0,0296131;0,307678;0;0;0;0;0;0;-0,033336;-0,0122213;-0;0;0;0,106;0,0219012;-0,273678;0,268767;0,0162975;-0,122095;-0,157566;-0,0841027;0,0313797;-0,0313335;-0,0842266;-0,154487;-0;0,225724;-0,198851;3,02729;0,0439823;-0,0293215;0;0,356632;0,34912;-1080;1080;-600;1700;-10;10;-10;-0;0;-0;250;-1,2;0,2;177;-1,2;-1;2555;0,07;1779;2272;8;56579;
10,0855;1,19823;-2,06699;170;-96;2500;0;0,00616697;-0,0891167;-0,480711;0,0061348;-0,0228529;-0,0703239;-0,0357976;-0,0137633;0,0669905;0,0114135;-0,032707;0,323072;0;0;0;0;0;0;-0,033336;-0,0122213;-0;0;0;0,108;0,0195546;-0,2681;0,140783;0,0175805;-0,121824;-0,157639;-0,0836635;0,0322139;-0,0321665;-0,0837867;-0,154621;-0;0,227576;-0,199437;3,00731;0,0438078;-0,0293215;0;0,367052;0,358865;-1080;1080;-600;1700;-10;10;-10;-0;0;-0;250;-1,2;0,2;177;-1,2;-1;2555;0,07;1779;2272;8;56579;
10,0961;1,19823;-2,07205;170;-92;2550;0;0,00603383;-0,085574;-0,496354;0,00619856;-0,0237572;-0,0755689;-0,0356349;-0,0141968;0,0720475;0,0130586;-0,0359231;0,338639;0;0;0;0;0;0;-0,033336;-0,0122213;-0;0;0;0,111;0,0199457;-0,262074;0,0127984;0,0190925;-0,121497;-0,157715;-0,0831475;0,0331744;-0,0331255;-0,08327;-0,154773;-0;0,228325;-0,200093;2,98492;0,0438078;-0,0293215;0;0,379122;0,370105;-1080;1080;-600;1700;-10;10;-10;-0;0;-0;250;-1,2;0,2;177;-1,2;-1;2555;0,07;1779;2272;8;56579;
10,1055;1,19823;-2,07693;170;-88;2600;0;0,00590427;-0,0819679;-0,508297;0,006254;-0,0245269;-0,0803418;-0,0354506;-0,0147026;0,0769334;0,0149398;-0,0391644;0,350523;0;0;0;0;0;0;-0,033336;-0,0122213;-0;0;0;0,111;0,0203368;-0,2556;-0,115186;0,020844;-0,121132;-0,157774;-0,082558;0,0342903;-0,0342398;-0,0826798;-0,154919;-0;0,229082;-0,200757;2,96227;0,0438078;-0,0293215;0;0,393145;0,383096;-1080;1080;-600;1700;-10;10;-10;-0;0;-0;250;-1,2;0,2;177;-1,2;-1;2555;0,07;1779;2272;8;56579;
10,1154;1,19823;-2,08268;170;-84;2650;0;0,00586668;-0,0781493;-0,520959;0,00631228;-0,0253032;-0,085517;-0,0352371;-0,0153033;0,0826802;0,0170105;-0,0425496;0,363135;0;0;0;0;0;0;-0,033336;-0,0122213;-0;0;0;0,112;0,0207279;-0,24868;-0,24317;0,0228772;-0,120699;-0,157824;-0,0818432;0,0355966;-0,0355441;-0,0819641;-0,155091;-0;0,230859;-0,200067;2,94496;0,0436332;-0,029147;0;0,409717;0,39835;-1080;1080;-600;1700;-10;10;-10;-0;0;-0;250;-1,2;0,2;177;-1,2;-1;2555;0,07;1779;2272;8;56579;
10,1255;1,19822;-2,0887;170;-80;2700;0;0,00609947;-0,0742775;-0,532336;0,00637351;-0,0260489;-0,0908611;-0,0350135;-0,0159541;0,0887028;0,0189822;-0,0458945;0,374445;0;0;0;0;0;0;-0,033336;-0,0122213;-0;0;0;0,114;0,021119;-0,241311;-0,371155;0,0250816;-0,120172;-0,157891;-0,0810551;0,0369879;-0,0369332;-0,0811753;-0,155269;-0;0,231476;-0,200602;2,92661;0,0436332;-0,029147;0;0,427547;0,414639;-1080;1080;-600;1700;-10;10;-10;-0;0;-0;250;-1,2;0,2;177;-1,2;-1;2555;0,07;1779;2272;8;56579;
10,1356;1,19822;-2,09491;170;-76;2750;0;0,00641161;-0,0702116;-0,541155;0,00643825;-0,0267578;-0,0963251;-0,0347582;-0,0167132;0,0949149;0,021211;-0,0493305;0,38321;0;0;0;0;0;0;-0,033336;-0,0122213;-0;0;0;0,114;0,0215101;-0,233496;-0,499139;0,0276226;-0,119542;-0,157945;-0,0801308;0,0385877;-0,0385303;-0,0802501;-0,155452;-0;0,232031;-0,201083;2,9101;0,0436332;-0,029147;0;0,448204;0,433348;-1080;1080;-600;1700;-10;10;-10;-0;0;-0;250;-1,2;0,2;177;-1,2;-1;2555;0,07;1779;2272;8;56579;
10,1455;1,1982;-2,10216;169;-71;2800;0;0,00707723;-0,0659705;-0,550815;0,0065085;-0,0274126;-0,101793;-0,0344745;-0,0175767;0,102157;0,0234142;-0,0528195;0,39283;0;0;0;0;0;0;-0,033336;-0,0122213;-0;0;0;0,116;0,0250299;-0,222105;-0,627123;0,0304914;-0,11879;-0,157985;-0,0790459;0,0403618;-0,0403014;-0,0791644;-0,155665;-0;0,231257;-0,200251;2,89727;0,0438078;-0,0289725;0;0,471495;0,454218;-1080;1080;-600;1700;-10;10;-10;-0;0;-0;250;-1,2;0,2;177;-1,2;-1;2555;0,07;1779;2272;8;56579;
10,1555;1,19819;-2,10994;168;-66;2850;0;0,0078261;-0,0613391;-0,559159;0,00658714;-0,0280289;-0,107411;-0,0341609;-0,0185517;0,109944;0,0258119;-0,0564875;0,401091;0;0;0;0;0;0;-0,033336;-0,0122213;-0;0;0;0,118;0,0286615;-0,210156;-0,755108;0,033638;-0,117827;-0,158068;-0,0777955;0,0423121;-0,0422482;-0,0779132;-0,155892;-0;0,231727;-0,201866;2,88323;0,0438078;-0,029147;0;0,497505;0,477235;-1080;1080;-600;1700;-10;10;-10;-0;0;-0;250;-1,2;0,2;177;-1,2;-1;2555;0,07;1779;2272;8;56579;
10,1655;1,19816;-2,11747;167;-61;2894;0;0,008677;-0,0567674;-0,563765;0,00667394;-0,0285968;-0,113051;-0,033857;-0,0196674;0,117474;0,0284096;-0,0599713;0,405662;0;0;0;0;0;0;-0,033336;-0,0122213;-0;0;0;0,118;0,0323377;-0,197237;-0,867734;0,0370866;-0,116739;-0,158103;-0,0763818;0,0444381;-0,04437;-0,076499;-0,15611;-0;0,232133;-0,20222;2,87108;0,0438078;-0,029147;0;0,526255;0,502299;-1080;1080;-600;1700;-10;10;-10;-0;0;-0;250;-1,2;0,2;177;-1,2;-1;2555;0,07;1779;2272;8;56579;
10,1755;1,19816;-2,12561;167;-56;2896;0;0,00904226;-0,0518409;-0,567083;0,00676426;-0,0291146;-0,118715;-0,0329609;-0,0211352;0,125607;0,0332631;-0,063172;0,409025;0;0;0;0;0;0;-0,033336;-0,0122213;-0;0;0;0,119;0,0323601;-0,181199;-0,872853;0,0423054;-0,115013;-0,158058;-0,0741861;0,0476426;-0,0475696;-0,0743001;-0,156343;-0;0,23236;-0,202417;2,86431;0,0438078;-0,029147;0;0,570177;0,539781;-1080;1080;-600;1700;-10;10;-10;-0;0;-0;250;-1,2;0,2;177;-1,2;-1;2555;0,07;1779;2272;8;56579;
10,1855;1,19808;-2,12068;166;-54;2874;0;0,00929966;-0,0500487;-0,531266;0,00685743;-0,0296161;-0,124038;-0,0335877;-0,0218123;0,120677;0,0337179;-0,0649547;0,373394;0;0;0;0;0;0;-0,033336;-0,0122213;-0;0;0;0,12;0,0353256;-0,173401;-0,81654;0,0430175;-0,115003;-0,157872;-0,0740104;0,0481405;-0,0480633;-0,0741293;-0,156204;-0;0,233736;-0,201348;2,8594;0,0436332;-0,0289725;0;0,575962;0,544642;-1080;1080;-600;1700;-10;10;-10;-0;0;-0;250;-1,2;0,2;177;-1,2;-1;2555;0,07;1779;2272;8;56579;
10,1956;1,19801;-2,11805;166;-52;2856;0;0,00945303;-0,0483168;-0,49988;0,00695223;-0,0301006;-0,129051;-0,0338895;-0,0225482;0,118052;0,0349184;-0,0663671;0,34215;0;0;0;0;0;0;-0,033336;-0,0122213;-0;0;0;0,12;0,0351044;-0,165934;-0,770466;0,0443714;-0,114684;-0,15773;-0,0735235;0,0489997;-0,0489185;-0,0736455;-0,15613;-0;0,232006;-0,199858;2,91084;0,0436332;-0,0289725;0;0,587087;0,553938;-1080;1080;-600;1700;-10;10;-10;-0;0;-0;250;-1,2;0,2;177;-1,2;-1;2555;0,07;1779;2272;8;56579;
10,2055;1,19799;-2,1157;167;-52;2839;0;0,00891856;-0,0482755;-0,471469;0,00704094;-0,0305808;-0,13374;-0,0338585;-0,0229867;0,115702;0,0365607;-0,0661622;0,313875;0;0;0;0;0;0;-0,033336;-0,0122213;-0;0;0;0,122;0,0317231;-0,164947;-0,726951;0,0454792;-0,114438;-0,157593;-0,0731117;0,0497191;-0,0496359;-0,0732344;-0,156063;-0;0,231686;-0,197356;2,95591;0,0434587;-0,0287979;0;0,596427;0,56169;-1080;1080;-600;1700;-10;10;-10;-0;0;-0;250;-1,2;0,2;177;-1,2;-1;2555;0,07;1779;2272;8;56579;
10,2154;1,19798;-2,11098;168;-53;2821;0;0,00824637;-0,0496323;-0,441137;0,00712271;-0,0310729;-0,138114;-0,0339306;-0,0230592;0,110976;0,0373366;-0,0649524;0,28368;0;0;0;0;0;0;-0,033336;-0,0122213;-0;0;0;0,124;0,0283698;-0,167052;-0,680877;0,045583;-0,114585;-0,157456;-0,0731871;0,0498218;-0,0497379;-0,0733105;-0,155927;-0;0,230307;-0,196182;2,99671;0,0434587;-0,0287979;0;0,596903;0,562083;-1080;1080;-600;1700;-10;10;-10;-0;0;-0;250;-1,2;0,2;177;-1,2;-1;2555;0,07;1779;2272;8;56579;
10,2255;1,19797;-2,1057;168;-55;2802;0;0,00757094;-0,0511094;-0,410524;0,00719903;-0,0315882;-0,142253;-0,0340122;-0,0230989;0,105698;0,038027;-0,0636727;0,253216;0;0;0;0;0;0;-0,033336;-0,0122213;-0;0;0;0,124;0,0281787;-0,172187;-0,632243;0,0455979;-0,114782;-0,157308;-0,0733138;0,0498743;-0,04979;-0,073438;-0,155774;-0;0,228835;-0,194927;3,04028;0,0434587;-0,0287979;0;0,596585;0,561821;-1080;1080;-600;1700;-10;10;-10;-0;0;-0;250;-1,2;0,2;177;-1,2;-1;2555;0,07;1779;2272;8;56579;
10,2355;1,19796;-2,10109;169;-57;2786;0;0,00697862;-0,0525448;-0,383665;0,00726909;-0,0321157;-0,146105;-0,0341036;-0,0231168;0,101087;0,0385326;-0,0624609;0,226495;0;0;0;0;0;0;-0,033336;-0,0122213;-0;0;0;0,126;0,0249048;-0,177428;-0,591288;0,0455112;-0,115006;-0,15717;-0,0734552;0,0498754;-0,0497907;-0,0735801;-0,155639;-0;0,228521;-0,192487;3,08425;0,0432842;-0,0286234;0;0,595697;0,561086;-1080;1080;-600;1700;-10;10;-10;-0;0;-0;250;-1,2;0,2;177;-1,2;-1;2555;0,07;1779;2272;8;56579;
10,2454;1,19795;-2,09626;170;-58;2771;0;0,00638087;-0,0539052;-0,357577;0,00733185;-0,0326458;-0,149621;-0,0342055;-0,0231126;0,0962573;0,0389763;-0,061327;0,200528;0;0;0;0;0;0;-0,033336;-0,0122213;-0;0;0;0,127;0,0216743;-0,179569;-0,552892;0,0453572;-0,115232;-0,157049;-0,0736302;0,0498368;-0,0497518;-0,0737559;-0,155498;-0;0,228377;-0,191383;3,12283;0,0431096;-0,0286234;0;0,59423;0,559871;-1080;1080;-600;1700;-10;10;-10;-0;0;-0;250;-1,2;0,2;177;-1,2;-1;2555;0,07;1779;2272;8;56579;
10,2554;1,19795;-2,09157;170;-59;2756;0;0,00591453;-0,0551028;-0,333211;0,00739104;-0,0331973;-0,152956;-0,0343213;-0,0230979;0,0915711;0,0392663;-0,0603391;0,176266;0;0;0;0;0;0;-0,033336;-0,0122213;-0;0;0;0,128;0,021557;-0,181675;-0,514497;0,0451808;-0,115442;-0,156945;-0,073822;0,0497666;-0,0496814;-0,0739486;-0,155361;-0;0,227097;-0,191471;3,16031;0,0431096;-0,0287979;0;0,592367;0,558326;-1080;1080;-600;1700;-10;10;-10;-0;0;-0;250;-1,2;0,2;177;-1,2;-1;2555;0,07;1779;2272;8;56579;
10,2655;1,19794;-2,08655;171;-61;2742;0;0,00542475;-0,0565141;-0,30943;0,00744584;-0,0337683;-0,156082;-0,0344452;-0,023025;0,0865527;0,0394301;-0,0592252;0,15261;0;0;0;0;0;0;-0,033336;-0,0122213;-0;0;0;0,128;0,0183836;-0,186878;-0,478661;0,0448548;-0,115739;-0,15682;-0,074084;0,0496068;-0,0495216;-0,0742114;-0,155213;-0;0,225902;-0,190463;3,19531;0,0431096;-0,0287979;0;0,589238;0,555727;-1080;1080;-600;1700;-10;10;-10;-0;0;-0;250;-1,2;0,2;177;-1,2;-1;2555;0,07;1779;2272;8;56579;
10,2755;1,19793;-2,08206;171;-62;2729;0;0,0049683;-0,0578173;-0,288398;0,00749555;-0,0343467;-0,158968;-0,0345756;-0,0229447;0,0820575;0,0395003;-0,0582085;0,13168;0;0;0;0;0;0;-0,033336;-0,0122213;-0;0;0;0,129;0,0182964;-0,18904;-0,445386;0,0444686;-0,116026;-0,156718;-0,0743458;0,0494217;-0,0493366;-0,0744741;-0,15508;-0;0,225883;-0,189479;3,22948;0,0429351;-0,0287979;0;0,585883;0,552936;-1080;1080;-600;1700;-10;10;-10;-0;0;-0;250;-1,2;0,2;177;-1,2;-1;2555;0,07;1779;2272;8;56579;
10,2856;1,19943;-2,07744;199;-103;2718;0;-0,0206554;-0,0956218;-0,270073;0,00728712;-0,0353116;-0,161693;-0,0205536;-0,00711526;0,0774431;0,0337885;-0,0262228;0,112018;0;0;0;0;0;0;-0,022224;-0,00550139;-0;0,01;0,03;0,129;-0,0668156;-0,312718;-0,417229;0,013133;-0,121845;-0,158055;-0,0845143;0,0292711;-0,0292572;-0,0845543;-0,154904;-0;0,223703;-0,188609;3,25969;0,0431096;-0,0287979;0;0,333269;0,327134;-1080;1080;-600;1700;-10;10;-10;-0;0;-0;250;-1,2;0,2;177;-1,2;-1;2555;0,07;1779;2272;8;56579;
10,2962;1,19943;-2,07294;200;-104;2707;0;-0,0215624;-0,0967674;-0,25131;0,00705769;-0,0363413;-0,164367;-0,0206472;-0,0069636;0,0729444;0,033689;-0,0252915;0,0933399;0;0;0;0;0;0;-0,022224;-0,00550139;-0;0,01;0,03;0,129;-0,0695698;-0,314474;-0,389072;0,0121266;-0,122059;-0,15797;-0,0848552;0,0286324;-0,0286188;-0,0848955;-0,154769;-0;0,222804;-0,187851;3,28601;0,0431096;-0,0287979;0;0,325286;0,31958;-1080;1080;-600;1700;-10;10;-10;-0;0;-0;250;-1,2;0,2;177;-1,2;-1;2555;0,07;1779;2272;8;56579;
10,3054;1,19943;-2,06895;200;-104;2697;0;-0,0222139;-0,0962896;-0,235051;0,00685453;-0,0372219;-0,166517;-0,0207554;-0,00680432;0,0689527;0,0332934;-0,0259593;0,0771504;0;0;0;0;0;0;-0,022224;-0,00550139;-0;0,01;0,03;0,13;-0,0693128;-0,313312;-0,363476;0,0110795;-0,122249;-0,1579;-0,0851932;0,0279425;-0,0279292;-0,0852339;-0,15465;-0;0,22075;-0,187075;3,31296;0,0432842;-0,0287979;0;0,316793;0,31152;-1080;1080;-600;1700;-10;10;-10;-0;0;-0;250;-1,2;0,2;177;-1,2;-1;2555;0,07;1779;2272;8;56579;
10,3154;1,19942;-2,06492;201;-103;2688;0;-0,0228423;-0,0956892;-0,219204;0,00662471;-0,0381846;-0,168722;-0,0208586;-0,00666465;0,0649163;0,0329671;-0,0267394;0,0613787;0;0;0;0;0;0;-0,022224;-0,00550139;-0;0,01;0,03;0,13;-0,072085;-0,309266;-0,340438;0,0101249;-0,122429;-0,157825;-0,0855006;0,0273319;-0,0273188;-0,0855416;-0,154528;-0;0,219957;-0,186403;3,33632;0,0432842;-0,0287979;0;0,309263;0,304357;-1080;1080;-600;1700;-10;10;-10;-0;0;-0;250;-1,2;0,2;177;-1,2;-1;2555;0,07;1779;2272;8;56579;
10,3255;1,19942;-2,0609;202;-103;2679;0;-0,0236038;-0,0953284;-0,205268;0,00638737;-0,0391432;-0,170786;-0,0210233;-0,00645777;0,0609014;0,0323006;-0,0272797;0,0474968;0;0;0;0;0;0;-0,022224;-0,00550139;-0;0,01;0,03;0,13;-0,074837;-0,308231;-0,317401;0,0086968;-0,122608;-0,157771;-0,0859017;0,0263994;-0,0263866;-0,0859432;-0,154407;-0;0,219183;-0,185747;3,35909;0,0432842;-0,0287979;0;0,298024;0,293631;-1080;1080;-600;1700;-10;10;-10;-0;0;-0;250;-1,2;0,2;177;-1,2;-1;2555;0,07;1779;2272;8;56579;
10,3356;1,19941;-2,05751;202;-102;2672;0;-0,0240856;-0,0947727;-0,193665;0,00614278;-0,0401056;-0,172753;-0,0211851;-0,00628649;0,0575058;0,031592;-0,0280026;0,0359627;0;0;0;0;0;0;-0,022224;-0,00550139;-0;0,01;0,03;0,131;-0,0746414;-0,304442;-0,299483;0,00750641;-0,122775;-0,157702;-0,0862343;0,0256018;-0,0255893;-0,0862764;-0,154304;-0;0,217381;-0,184049;3,3791;0,0434587;-0,0286234;0;0,288464;0,28448;-1080;1080;-600;1700;-10;10;-10;-0;0;-0;250;-1,2;0,2;177;-1,2;-1;2555;0,07;1779;2272;8;56579;
10,3455;1,19941;-2,05404;203;-102;2666;0;-0,024523;-0,0941615;-0,182522;0,0059004;-0,0410363;-0,174557;-0,0213531;-0,00612987;0,0540359;0,0308923;-0,0287726;0,024894;0;0;0;0;0;0;-0,022224;-0,00550139;-0;0,01;0,03;0,131;-0,0774527;-0,303759;-0,284125;0,00636925;-0,122934;-0,157628;-0,0865454;0,024857;-0,0248448;-0,0865881;-0,154199;-0;0,216818;-0,182453;3,39576;0,0434587;-0,0284489;0;0,279555;0,275928;-1080;1080;-600;1700;-10;10;-10;-0;0;-0;250;-1,2;0,2;177;-1,2;-1;2555;0,07;1779;2272;8;56579;
10,3554;1,1994;-2,0508;203;-101;2660;0;-0,0248671;-0,0936283;-0,173134;0,00565431;-0,0419628;-0,17627;-0,0215054;-0,00594217;0,0507977;0,0299621;-0,0294166;0,0155461;0;0;0;0;0;0;-0,022224;-0,00550139;-0;0,01;0,03;0,131;-0,0772783;-0,300106;-0,268767;0,00509509;-0,123045;-0,157588;-0,0868699;0,024015;-0,0240031;-0,0869131;-0,1541;-0;0,216278;-0,181998;3,41176;0,0434587;-0,0284489;0;0,269584;0,266331;-1080;1080;-600;1700;-10;10;-10;-0;0;-0;250;-1,2;0,2;177;-1,2;-1;2555;0,07;1779;2272;8;56579;
10,3655;1,19939;-2,04813;203;-100;2656;0;-0,0245509;-0,0923519;-0,165617;0,00540689;-0,0428936;-0,177939;-0,0218321;-0,00584528;0,0481278;0,0285979;-0,0307752;0,00806311;0;0;0;0;0;0;-0,022224;-0,00550139;-0;0,01;0,03;0,132;-0,0771621;-0,29669;-0,258528;0,00404696;-0,123127;-0,157554;-0,0871251;0,0233386;-0,0233267;-0,0871696;-0,154019;-0;0,216936;-0,181615;3,42524;0,0432842;-0,0284489;0;0,261602;0,258629;-1080;1080;-600;1700;-10;10;-10;-0;0;-0;250;-1,2;0,2;177;-1,2;-1;2555;0,07;1779;2272;8;56579;
10,3764;1,19939;-2,04543;203;-99;2652;0;-0,0250038;-0,0919979;-0,158915;0,00513337;-0,0438999;-0,179678;-0,0218218;-0,00567316;0,0454326;0,0281196;-0,0312353;0,00142232;0;0;0;0;0;0;-0,022224;-0,00550139;-0;0,01;0,03;0,132;-0,0770459;-0,293282;-0,24829;0,00311583;-0,123233;-0,157493;-0,0873604;0,0227232;-0,0227117;-0,0874048;-0,153936;-0;0,216569;-0,180196;3,43602;0,0432842;-0,0282743;0;0,254346;0,251613;-1080;1080;-600;1700;-10;10;-10;-0;0;-0;250;-1,2;0,2;177;-1,2;-1;2555;0,07;1779;2272;8;56579;
10,3854;1,19939;-2,04303;204;-99;2648;0;-0,0253886;-0,0915734;-0,153643;0,00490559;-0,0447215;-0,181056;-0,0218312;-0,00550006;0,0430277;0,0275358;-0,0317191;-0,00381943;0;0;0;0;0;0;-0,022224;-0,00550139;-0;0,01;0,03;0,132;-0,0798884;-0,29284;-0,238051;0,00214713;-0,123293;-0,157462;-0,0875904;0,0220783;-0,0220671;-0,0876348;-0,153862;-0;0,216243;-0,179924;3,44563;0,0432842;-0,0282743;0;0,246799;0,244301;-1080;1080;-600;1700;-10;10;-10;-0;0;-0;250;-1,2;0,2;177;-1,2;-1;2555;0,07;1779;2272;8;56579;
10,3955;1,19939;-2,04091;204;-98;2646;0;-0,0256245;-0,0909073;-0,149262;0,00464591;-0,0456428;-0,182569;-0,0218215;-0,00537761;0,0409064;0,0270783;-0,0324397;-0,0081657;0;0;0;0;0;0;-0,022224;-0,00550139;-0;0,01;0,03;0,132;-0,0798281;-0,289665;-0,232932;0,00145375;-0,123347;-0,157427;-0,0877575;0,0216376;-0,0216267;-0,0878019;-0,153797;-0;0,217095;-0,179711;3,45319;0,0431096;-0,0282743;0;0,241622;0,239278;-1080;1080;-600;1700;-10;10;-10;-0;0;-0;250;-1,2;0,2;177;-1,2;-1;2555;0,07;1779;2272;8;56579;
10,4055;1,19939;-2,03911;204;-98;2645;0;-0,025877;-0,0905183;-0,147238;0,00438828;-0,046544;-0,184035;-0,021853;-0,00520078;0,0391135;0,0263022;-0,0328511;-0,0101779;0;0;0;0;0;0;-0,022224;-0,00550139;-0;0,01;0,03;0,132;-0,0797979;-0,289555;-0,230372;0,00042528;-0,123369;-0,157416;-0,087973;0,0209472;-0,0209366;-0,0880174;-0,153742;-0;0,217988;-0,179533;3,45946;0,0429351;-0,0282743;0;0,233642;0,231522;-1080;1080;-600;1700;-10;10;-10;-0;0;-0;250;-1,2;0,2;177;-1,2;-1;2555;0,07;1779;2272;8;56579;
10,4154;1,19939;-2,03764;204;-97;2644;0;-0,025943;-0,0899332;-0,146277;0,00413209;-0,0474321;-0,185479;-0,0218878;-0,00506264;0,0376386;0,0255542;-0,0334494;-0,0111289;0;0;0;0;0;0;-0,022224;-0,00550139;-0;0,01;0,03;0,132;-0,0797677;-0,286494;-0,227812;-0,000388801;-0,123383;-0,157406;-0,0881416;0,0203975;-0,0203872;-0,0881861;-0,153696;-0;0,21789;-0,179452;3,46234;0,0429351;-0,0282743;0;0,227303;0,22535;-1080;1080;-600;1700;-10;10;-10;-0;0;-0;250;-1,2;0,2;177;-1,2;-1;2555;0,07;1779;2272;8;56579;
10,4255;1,19939;-2,03676;204;-96;2645;0;-0,0257557;-0,0889917;-0,147164;0,00387157;-0,0483322;-0,186968;-0,0219217;-0,00497599;0,0367649;0,0248634;-0,0343675;-0,0102584;0;0;0;0;0;0;-0,022224;-0,00550139;-0;0,01;0,03;0,133;-0,0797979;-0,283649;-0,230372;-0,000892331;-0,123359;-0,157422;-0,0882467;0,0200412;-0,0200311;-0,0882913;-0,153669;-0;0,217843;-0,180521;3,46369;0,0429351;-0,0284489;0;0,223207;0,221358;-1080;1080;-600;1700;-10;10;-10;-0;0;-0;250;-1,2;0,2;177;-1,2;-1;2555;0,07;1779;2272;8;56579;
10,4354;1,19939;-2,03595;204;-95;2646;0;-0,0255335;-0,088132;-0,148657;0,00361858;-0,0492054;-0,188441;-0,0219764;-0,0048884;0,035946;0,024103;-0,0351992;-0,00878349;0;0;0;0;0;0;-0,022224;-0,00550139;-0;0,01;0,03;0,133;-0,0798281;-0,280803;-0,232932;-0,00143045;-0,123331;-0,15744;-0,0883535;0,0196632;-0,0196533;-0,0883983;-0,153644;-0;0,218996;-0,181666;3,46237;0,0427606;-0,0286234;0;0,218876;0,217132;-1080;1080;-600;1700;-10;10;-10;-0;0;-0;250;-1,2;0,2;177;-1,2;-1;2555;0,07;1779;2272;8;56579;
10,4462;1,19939;-2,03548;204;-94;2647;0;-0,0252189;-0,0872128;-0,151372;0,00334584;-0,0501486;-0,190078;-0,0220332;-0,00481718;0,0354795;0,0233234;-0,0361056;-0,00607312;0;0;0;0;0;0;-0,022224;-0,00550139;-0;0,01;0,03;0,133;-0,0798583;-0,277953;-0,235491;-0,00189543;-0,123318;-0,157445;-0,0884361;0,0193449;-0,019335;-0,0884811;-0,15363;-0;0,219071;-0,181728;3,46019;0,0427606;-0,0286234;0;0,215246;0,213588;-1080;1080;-600;1700;-10;10;-10;-0;0;-0;250;-1,2;0,2;177;-1,2;-1;2555;0,07;1779;2272;8;56579;
10,4555;1,19939;-2,03568;203;-93;2650;0;-0,0246722;-0,0861839;-0,156479;0,00311573;-0,0509525;-0,191537;-0,0221144;-0,00476813;0,0356832;0,0224318;-0,0371028;-0,000986024;0;0;0;0;0;0;-0,022224;-0,00550139;-0;0,01;0,03;0,134;-0,0769878;-0,27531;-0,24317;-0,00224038;-0,123287;-0,157465;-0,088486;0,0190884;-0,0190787;-0,0885314;-0,153636;-0;0,219207;-0,181841;3,45624;0,0427606;-0,0286234;0;0,212361;0,210769;-1080;1080;-600;1700;-10;10;-10;-0;0;-0;250;-1,2;0,2;177;-1,2;-1;2555;0,07;1779;2272;8;56579;
10,4672;1,19842;-2,03593;153;-43;2650;0;0,0327579;-0,00463001;-0,156666;0,0034967;-0,0510063;-0,193359;-0,0192033;-0,0308078;0,0359321;0,059372;-0,0861557;0,00412085;0;0;0;0;0;0;-0,022224;-0,0134398;-0;0,02;-0,03;0,134;0,0710659;-0,127321;-0,24317;0,0921299;-0,0907857;-0,152545;-0,0478485;0,0768646;-0,0767633;-0,0479116;-0,153669;-0;0,219462;-0,183163;3,44885;0,0427606;-0,0287979;0;1,0134;0,848637;-1080;1080;-600;1700;-10;10;-10;-0;0;-0;250;-1,2;0,2;177;-1,2;-1;2555;0,07;1779;2272;8;56579;
10,4756;1,19841;-2,03663;140;-4;2654;0;0,0334129;-0,00381637;-0,163363;0,00377687;-0,0510383;-0,194729;-0,0193506;-0,0307994;0,0366311;0,058362;-0,0872526;0,0107729;0;0;0;0;0;0;-0,022224;-0,0134398;-0;0,02;-0,03;0,134;0,109723;-0,0118624;-0,253409;0,0917749;-0,091069;-0,15259;-0,0481114;0,0766782;-0,0765767;-0,0481751;-0,153691;-0;0,219473;-0,183172;3,44854;0,0427606;-0,0287979;0;1,00984;0,846749;-1080;1080;-600;1700;-10;10;-10;-0;0;-0;250;-1,2;0,2;177;-1,2;-1;2555;0,07;1779;2272;8;56579;
10,4856;1,19839;-2,03767;140;-4;2659;0;0,0336284;-0,00380532;-0,170138;0,00411302;-0,0510763;-0,19643;-0,0194581;-0,031088;0,0376717;0,0583015;-0,0870723;0,0175265;0;0;0;0;0;0;-0,022224;-0,0134398;-0;0,02;-0,03;0,135;0,109929;-0,0118848;-0,266207;0,09193;-0,0908776;-0,152611;-0,0479655;0,0767374;-0,0766341;-0,0480301;-0,153724;-0;0,219807;-0,18345;3,43886;0,0427606;-0,0287979;0;1,01155;0,847654;-1080;1080;-600;1700;-10;10;-10;-0;0;-0;250;-1,2;0,2;177;-1,2;-1;2555;0,07;1779;2272;8;56579;
10,4954;1,19838;-2,03894;140;-7;2664;0;0,0338457;-0,00611705;-0,178579;0,00444758;-0,0511368;-0,198195;-0,0196331;-0,0310845;0,0389379;0,0576392;-0,0850977;0,0259016;0;0;0;0;0;0;-0,022224;-0,0134398;-0;0,02;-0,03;0,137;0,110136;-0,0208374;-0,279006;0,091485;-0,0912148;-0,152677;-0,0482603;0,0765125;-0,0764091;-0,0483256;-0,153763;-0;0,221258;-0,182619;3,42907;0,042586;-0,0286234;0;1,00746;0,845479;-1080;1080;-600;1700;-10;10;-10;-0;0;-0;250;-1,2;0,2;177;-1,2;-1;2555;0,07;1779;2272;8;56579;
10,5055;1,19836;-2,03953;140;-8;2667;0;0,034083;-0,00774224;-0,183702;0,00478995;-0,0512146;-0,20004;-0,0197829;-0,0312558;0,0395254;0,057298;-0,0835351;0,0309998;0;0;0;0;0;0;-0,022224;-0,0134398;-0;0,02;-0,03;0,137;0,11026;-0,023841;-0,286685;0,091381;-0,0912774;-0,152702;-0,048324;0,0764538;-0,0763492;-0,0483902;-0,153782;-0;0,221681;-0,182968;3,41687;0,042586;-0,0286234;0;1,00651;0,844972;-1080;1080;-600;1700;-10;10;-10;-0;0;-0;250;-1,2;0,2;177;-1,2;-1;2555;0,07;1779;2272;8;56579;
10,5154;1,19834;-2,04035;139;-10;2670;0;0,0342644;-0,00926386;-0,189279;0,00513091;-0,0513068;-0,201924;-0,0199163;-0,0314112;0,0403518;0,0570216;-0,0820563;0,0365451;0;0;0;0;0;0;-0,022224;-0,0134398;-0;0,02;-0,03;0,138;0,113367;-0,0298347;-0,294364;0,091286;-0,0913201;-0,152733;-0,0483726;0,0763971;-0,0762915;-0,0484396;-0,153808;-0;0,221938;-0,18318;3,40945;0,042586;-0,0286234;0;1,00572;0,844545;-1080;1080;-600;1700;-10;10;-10;-0;0;-0;250;-1,2;0,2;177;-1,2;-1;2555;0,07;1779;2272;8;56579;
10,5255;1,19832;-2,04081;139;-12;2672;0;0,034405;-0,0107442;-0,193184;0,00547651;-0,0514147;-0,203864;-0,0200194;-0,0315789;0,0408085;0,0569205;-0,080568;0,0404693;0;0;0;0;0;0;-0,022224;-0,0134398;-0;0,02;-0,03;0,138;0,113452;-0,0358284;-0,299483;0,0913255;-0,0913122;-0,152715;-0,0483601;0,0763907;-0,0762839;-0,0484278;-0,153822;-0;0,2211;-0,182293;3,40138;0,0427606;-0,0284489;0;1,00579;0,844584;-1080;1080;-600;1700;-10;10;-10;-0;0;-0;250;-1,2;0,2;177;-1,2;-1;2555;0,07;1779;2272;8;56579;
10,5354;1,19831;-2,04119;139;-13;2674;0;0,0344386;-0,012264;-0,196557;0,00581804;-0,0515363;-0,205814;-0,0201231;-0,0317115;0,0411865;0,0568361;-0,0790739;0,0438277;0;0;0;0;0;0;-0,022224;-0,0134398;-0;0,02;-0,03;0,138;0,113537;-0,0388432;-0,304603;0,0912747;-0,091338;-0,15273;-0,0483881;0,0763611;-0,0762534;-0,0484565;-0,153834;-0;0,221296;-0,182455;3,39571;0,0427606;-0,0284489;0;1,00534;0,844347;-1080;1080;-600;1700;-10;10;-10;-0;0;-0;250;-1,2;0,2;177;-1,2;-1;2555;0,07;1779;2272;8;56579;
10,5454;1,1983;-2,04151;139;-15;2676;0;0,0344243;-0,0138646;-0,199525;0,00616128;-0,0516746;-0,207803;-0,0202089;-0,0317984;0,0415095;0,0567944;-0,0775066;0,0467821;0;0;0;0;0;0;-0,022224;-0,0134398;-0;0,02;-0,03;0,138;0,113622;-0,0448525;-0,309722;0,0912187;-0,0913712;-0,152743;-0,0484354;0,0763209;-0,0762126;-0,0485043;-0,153844;-0;0,221465;-0,182594;3,3908;0,0427606;-0,0284489;0;1,00466;0,84398;-1080;1080;-600;1700;-10;10;-10;-0;0;-0;250;-1,2;0,2;177;-1,2;-1;2555;0,07;1779;2272;8;56579;
10,5554;1,19829;-2,04177;139;-17;2678;0;0,0343959;-0,0155021;-0,202078;0,0065062;-0,05183;-0,209829;-0,0202674;-0,0318563;0,0417714;0,0568132;-0,075888;0,0493404;0;0;0;0;0;0;-0,022224;-0,0134398;-0;0,02;-0,03;0,138;0,113707;-0,0508707;-0,314841;0,0912091;-0,0913901;-0,152737;-0,0484686;0,0762916;-0,0761829;-0,0485378;-0,153853;-0;0,220493;-0,182717;3,38648;0,0429351;-0,0284489;0;1,00417;0,843719;-1080;1080;-600;1700;-10;10;-10;-0;0;-0;250;-1,2;0,2;177;-1,2;-1;2555;0,07;1779;2272;8;56579;
10,5655;1,19828;-2,04197;139;-18;2679;0;0,0343048;-0,0170102;-0,204089;0,006852;-0,0520015;-0,211887;-0,0203224;-0,0319302;0,0419718;0,0568827;-0,0743888;0,0513439;0;0;0;0;0;0;-0,022224;-0,0134398;-0;0,02;-0,03;0,138;0,113749;-0,0538831;-0,317401;0,0911875;-0,091399;-0,152745;-0,0484791;0,0762786;-0,0761693;-0,0485487;-0,153859;-0;0,220621;-0,182823;3,38276;0,0429351;-0,0284489;0;1,00399;0,843623;-1080;1080;-600;1700;-10;10;-10;-0;0;-0;250;-1,2;0,2;177;-1,2;-1;2555;0,07;1779;2272;8;56579;
10,5756;1,19827;-2,04242;140;-20;2681;0;0,0341491;-0,018612;-0,206769;0,00719632;-0,0521891;-0,213971;-0,0204212;-0,0320336;0,0424156;0,0569583;-0,0728355;0,0540056;0;0;0;0;0;0;-0,022224;-0,0134398;-0;0,02;-0,03;0,139;0,110839;-0,0599147;-0,322521;0,0911074;-0,0914474;-0,152764;-0,0485282;0,0762334;-0,0761234;-0,0485984;-0,153873;-0;0,220722;-0,182907;3,37981;0,0429351;-0,0284489;0;1,00326;0,843229;-1080;1080;-600;1700;-10;10;-10;-0;0;-0;250;-1,2;0,2;177;-1,2;-1;2555;0,07;1779;2272;8;56579;
10,5855;1,19822;-2,04245;140;-20;2681;0;0,0340723;-0,0188436;-0,207828;0,00753561;-0,0523768;-0,216041;-0,0207566;-0,0324657;0,0424471;0,0569361;-0,072711;0,0550696;0;0;0;0;0;0;-0,022224;-0,0134398;-0;0,02;-0,03;0,14;0,110839;-0,0599147;-0,322521;0,0910084;-0,0915546;-0,152759;-0,0486259;0,0761696;-0,0760565;-0,0486982;-0,153875;-0;0,219734;-0,183018;3,3759;0,0431096;-0,0284489;0;1,00195;0,842524;-1080;1080;-600;1700;-10;10;-10;-0;0;-0;250;-1,2;0,2;177;-1,2;-1;2555;0,07;1779;2272;8;56579;
10,5956;1,19825;-2,04279;140;-24;2683;0;0,0338183;-0,0218091;-0,209844;0,00787816;-0,0525977;-0,218167;-0,0205957;-0,0321836;0,042789;0,0571668;-0,0697474;0,0570725;0;0;0;0;0;0;-0,022224;-0,0134398;-0;0,02;-0,03;0,141;0,110921;-0,0719509;-0,32764;0,0909851;-0,0915564;-0,152771;-0,0486546;0,0761408;-0,0760296;-0,0487258;-0,153885;-0;0,218665;-0,184186;3,37433;0,0432842;-0,0286234;0;1,00152;0,842293;-1080;1080;-600;1700;-10;10;-10;-0;0;-0;250;-1,2;0,2;177;-1,2;-1;2555;0,07;1779;2272;8;56579;
10,6054;1,19828;-2,04277;140;-27;2683;0;0,033465;-0,0249696;-0,210664;0,00820374;-0,0528406;-0,220216;-0,0204011;-0,0318412;0,042775;0,0574675;-0,0666353;0,05789;0;0;0;0;0;0;-0,022224;-0,0134398;-0;0,02;-0,03;0,141;0,110921;-0,0809444;-0,32764;0,0909324;-0,0916049;-0,152774;-0,0486975;0,076114;-0,0760052;-0,0487672;-0,153884;-0;0,218766;-0,18427;3,37138;0,0432842;-0,0286234;0;1,00098;0,841999;-1080;1080;-600;1700;-10;10;-10;-0;0;-0;250;-1,2;0,2;177;-1,2;-1;2555;0,07;1779;2272;8;56579;
10,6155;1,19832;-2,043;141;-30;2684;0;0,0330746;-0,0281201;-0,21232;0,00853713;-0,0531241;-0,222356;-0,0202008;-0,0314321;0,0429977;0,0577181;-0,0635982;0,0595306;0;0;0;0;0;0;-0,022224;-0,0134398;-0;0,02;-0,03;0,142;0,107964;-0,0899712;-0,3302;0,0907927;-0,0917182;-0,152789;-0,0488016;0,0760405;-0,0759344;-0,0488698;-0,153889;-0;0,218808;-0,184305;3,37015;0,0432842;-0,0286234;0;0,999584;0,841246;-1080;1080;-600;1700;-10;10;-10;-0;0;-0;250;-1,2;0,2;177;-1,2;-1;2555;0,07;1779;2272;8;56579;
10,6255;1,19836;-2,04323;141;-33;2685;0;0,0327181;-0,0307953;-0,213391;0,00886605;-0,0534337;-0,224502;-0,0199639;-0,0311299;0,0432345;0,0581877;-0,060837;0,0606183;0;0;0;0;0;0;-0,022224;-0,0134398;-0;0,02;-0,03;0,143;0,108004;-0,0990046;-0,332759;0,0909059;-0,0916323;-0,152773;-0,0487256;0,0760823;-0,0759782;-0,0487923;-0,153896;-0;0,217767;-0,184375;3,36771;0,0434587;-0,0286234;0;1,00055;0,84177;-1080;1080;-600;1700;-10;10;-10;-0;0;-0;250;-1,2;0,2;177;-1,2;-1;2555;0,07;1779;2272;8;56579;
10,6355;1,1984;-2,0431;142;-36;2685;0;0,032232;-0,0335897;-0,213392;0,00918804;-0,0537692;-0,226633;-0,0196963;-0,0307439;0,0430953;0,0587207;-0,05801;0,0606269;0;0;0;0;0;0;-0,022224;-0,0134398;-0;0,02;-0,03;0,143;0,105004;-0,108004;-0,332759;0,0909527;-0,0915997;-0,152765;-0,0486936;0,0761074;-0,076006;-0,0487586;-0,15389;-0;0,21782;-0,184421;3,36612;0,0434587;-0,0286234;0;1,00102;0,842021;-1080;1080;-600;1700;-10;10;-10;-0;0;-0;250;-1,2;0,2;177;-1,2;-1;2555;0,07;1779;2272;8;56579;
10,6456;1,19844;-2,04351;142;-39;2686;0;0,0318184;-0,0361876;-0,215161;0,00950788;-0,054133;-0,228796;-0,0194191;-0,030355;0,0435087;0,0592129;-0,0553747;0,0624208;0;0;0;0;0;0;-0,022224;-0,0134398;-0;0,02;-0,03;0,145;0,105044;-0,117047;-0,335319;0,0910313;-0,0915622;-0,15274;-0,0486393;0,0761297;-0,0760309;-0,0487026;-0,153902;-0;0,216698;-0,183298;3,36606;0,0436332;-0,0284489;0;1,00167;0,842374;-1080;1080;-600;1700;-10;10;-10;-0;0;-0;250;-1,2;0,2;177;-1,2;-1;2555;0,07;1779;2272;8;56579;
10,6555;1,19849;-2,04358;143;-42;2686;0;0,0313073;-0,0387449;-0,215855;0,00981817;-0,054517;-0,230935;-0,0191078;-0,0299249;0,0435849;0,0598034;-0,0527457;0,0631187;0;0;0;0;0;0;-0,022224;-0,0134398;-0;0,02;-0,03;0,146;0,102043;-0,12605;-0,335319;0,0911106;-0,0914906;-0,152736;-0,0485746;0,0761691;-0,0760731;-0,0486359;-0,153903;-0;0,216786;-0,183372;3,36347;0,0436332;-0,0284489;0;1,00253;0,842835;-1080;1080;-600;1700;-10;10;-10;-0;0;-0;250;-1,2;0,2;177;-1,2;-1;2555;0,07;1779;2272;8;56579;
10,6654;1,19853;-2,04335;143;-44;2686;0;0,030741;-0,0411173;-0,215259;0,0101246;-0,0549269;-0,233081;-0,0187736;-0,029517;0,0433477;0,0605441;-0,0502328;0,0625431;0;0;0;0;0;0;-0,022224;-0,0134398;-0;0,02;-0,03;0,146;0,102043;-0,132052;-0,335319;0,0912851;-0,0913501;-0,152716;-0,0484441;0,0762601;-0,0761668;-0,0485035;-0,153895;-0;0,216821;-0,183402;3,36242;0,0436332;-0,0284489;0;1,00431;0,84379;-1080;1080;-600;1700;-10;10;-10;-0;0;-0;250;-1,2;0,2;177;-1,2;-1;2555;0,07;1779;2272;8;56579;
10,6754;1,19858;-2,04338;144;-47;2686;0;0,0302395;-0,0433027;-0,21561;0,010426;-0,0553584;-0,23523;-0,0184239;-0,0290879;0,0433754;0,0612499;-0,047864;0,0629067;0;0;0;0;0;0;-0,022224;-0,0134398;-0;0,02;-0,03;0,147;0,0990415;-0,141054;-0,335319;0,0914894;-0,0911666;-0,152703;-0,0483018;0,07635;-0,0762595;-0,0483591;-0,153894;-0;0,215669;-0,184504;3,36322;0,0438078;-0,0286234;0;1,00619;0,844798;-1080;1080;-600;1700;-10;10;-10;-0;0;-0;250;-1,2;0,2;177;-1,2;-1;2555;0,07;1779;2272;8;56579;
10,6855;1,19755;-2,04306;163;-90;2687;0;0,0120911;-0,0834224;-0,216736;0,0105482;-0,0562016;-0,237421;-0,0412327;-0,0184284;0,0430591;0,0125613;-0,0385983;0,060201;0;0;0;0;0;0;-0,033336;-0,0122213;-0;-0,02;0;0,147;0,0420344;-0,270154;-0,337879;0,0246524;-0,122021;-0,156535;-0,0823643;0,0368868;-0,0368115;-0,0825327;-0,153912;-0;0,215688;-0,184519;3,36266;0,0438078;-0,0286234;0;0,420303;0,408037;-1080;1080;-600;1700;-10;10;-10;-0;0;-0;250;-1,2;0,2;177;-1,2;-1;2555;0,07;1780;2272;8;56579;
10,696;1,19761;-2,04266;165;-93;2687;0;0,0104638;-0,0858811;-0,216206;0,010658;-0,0571034;-0,239691;-0,0408813;-0,017927;0,0426623;0,0132971;-0,0362787;0,0596415;0;0;0;0;0;0;-0,033336;-0,0122213;-0;-0,02;0;0,147;0,0360296;-0,279154;-0,337879;0,0237609;-0,12216;-0,156564;-0,0826341;0,0363085;-0,0362361;-0,0827991;-0,153898;-0;0,215744;-0,184567;3,36099;0,0438078;-0,0286234;0;0,413261;0,401597;-1080;1080;-600;1700;-10;10;-10;-0;0;-0;250;-1,2;0,2;177;-1,2;-1;2555;0,07;1780;2272;8;56579;
10,7055;1,19766;-2,04268;167;-94;2686;0;0,00872426;-0,086607;-0,215939;0,0107406;-0,0579229;-0,241734;-0,040542;-0,0175269;0,0426844;0,0144014;-0,0356129;0,0593263;0;0;0;0;0;0;-0,033336;-0,0122213;-0;-0,02;0;0,148;0,0300135;-0,282049;-0,335319;0,0231257;-0,12222;-0,156613;-0,0828241;0,035876;-0,035806;-0,082986;-0,153897;-0;0,214595;-0,185672;3,3617;0,0439823;-0,0287979;0;0,408049;0,396819;-1080;1080;-600;1700;-10;10;-10;-0;0;-0;250;-1,2;0,2;177;-1,2;-1;2555;0,07;1780;2272;8;56579;
10,7155;1,19771;-2,04265;169;-94;2686;0;0,00695039;-0,0873221;-0,215897;0,0108101;-0,0587957;-0,243892;-0,0401775;-0,0170789;0,0426479;0,0153997;-0,0349706;0,0592289;0;0;0;0;0;0;-0,033336;-0,0122213;-0;-0,02;0;0,149;0,0240108;-0,282049;-0,335319;0,0223501;-0,122293;-0,156668;-0,083045;0,0353686;-0,0353012;-0,0832036;-0,153895;-0;0,214584;-0,186787;3,36204;0,0439823;-0,0289725;0;0,401943;0,391207;-1080;1080;-600;1700;-10;10;-10;-0;0;-0;250;-1,2;0,2;177;-1,2;-1;2555;0,07;1780;2272;8;56579;
10,7254;1,19777;-2,04224;171;-95;2686;0;0,0052045;-0,088097;-0,215082;0,0108619;-0,0596728;-0,246034;-0,0397941;-0,0166057;0,0422381;0,0163051;-0,0343125;0,0583873;0;0;0;0;0;0;-0,033336;-0,0122213;-0;-0,02;0;0,149;0,0180081;-0,285048;-0,335319;0,0215096;-0,12241;-0,156695;-0,0832899;0,0348209;-0,0347561;-0,083445;-0,153881;-0;0,214584;-0,186787;3,36204;0,0439823;-0,0289725;0;0,395323;0,385106;-1080;1080;-600;1700;-10;10;-10;-0;0;-0;250;-1,2;0,2;177;-1,2;-1;2555;0,07;1780;2272;8;56579;
10,7355;1,19782;-2,04217;173;-96;2686;0;0,00358717;-0,0887206;-0,215111;0,0108982;-0,0605703;-0,24821;-0,0394041;-0,0161646;0,0421692;0,0172037;-0,033777;0,058388;0;0;0;0;0;0;-0,033336;-0,0122213;-0;-0,02;0;0,15;0,0120054;-0,288046;-0,335319;0,0207909;-0,122498;-0,156723;-0,0835027;0,0343172;-0,034255;-0,0836544;-0,153877;-0;0,213422;-0,186755;3,36317;0,0441568;-0,0289725;0;0,389291;0,379532;-1080;1080;-600;1700;-10;10;-10;-0;0;-0;250;-1,2;0,2;177;-1,2;-1;2555;0,07;1780;2272;8;56579;
10,7455;1,19788;-2,04178;174;-97;2686;0;0,00196427;-0,0893559;-0,214224;0,0109178;-0,0614611;-0,250345;-0,0390025;-0,0157225;0,0417776;0,0180772;-0,0332682;0,0575025;0;0;0;0;0;0;-0,033336;-0,0122213;-0;-0,02;0;0,15;0,00900408;-0,291045;-0,335319;0,0200415;-0,122624;-0,156722;-0,0837227;0,0338097;-0,0337499;-0,083871;-0,153864;-0;0,2123;-0,185633;3,36307;0,0443314;-0,0287979;0;0,383189;0,37388;-1080;1080;-600;1700;-10;10;-10;-0;0;-0;250;-1,2;0,2;177;-1,2;-1;2555;0,07;1780;2272;8;56579;
10,7555;1,19794;-2,04141;176;-97;2685;0;-7,87347e-05;-0,0898875;-0,213279;0,010917;-0,0623614;-0,252481;-0,038597;-0,0151704;0,0414053;0,0190142;-0,0328615;0,056518;0;0;0;0;0;0;-0,033336;-0,0122213;-0;-0,02;0;0,15;0,00300024;-0,290937;-0,332759;0,0189354;-0,122749;-0,156761;-0,0840252;0,0330827;-0,0330259;-0,0841699;-0,153851;-0;0,21226;-0,185597;3,3643;0,0443314;-0,0287979;0;0,374498;0,365806;-1080;1080;-600;1700;-10;10;-10;-0;0;-0;250;-1,2;0,2;177;-1,2;-1;2555;0,07;1780;2272;8;56579;
10,7654;1,19805;-2,04139;180;-100;2686;0;-0,00329736;-0,0923798;-0,214312;0,0108845;-0,0632714;-0,254593;-0,0377762;-0,0141811;0,0413947;0,0202714;-0,0305425;0,0574622;0;0;0;0;0;0;-0,033336;-0,0122213;-0;-0,02;0;0,15;-0,00900408;-0,300041;-0,335319;0,016974;-0,122922;-0,15685;-0,0845295;0,031784;-0,0317322;-0,0846674;-0,153847;-0;0,212217;-0,18556;3,36561;0,0443314;-0,0287979;0;0,35912;0,35145;-1080;1080;-600;1700;-10;10;-10;-0;0;-0;250;-1,2;0,2;177;-1,2;-1;2555;0,07;1780;2272;8;56579;
10,7755;1,19807;-2,04138;181;-99;2686;0;-0,0045048;-0,0918967;-0,214382;0,010839;-0,0641991;-0,256757;-0,0376795;-0,0137488;0,0413759;0,0203276;-0,0311416;0,0575021;0;0;0;0;0;0;-0,033336;-0,0122213;-0;-0,02;0;0,15;-0,0120054;-0,297042;-0,335319;0,0158228;-0,123038;-0,15688;-0,084821;0,0310001;-0,0309502;-0,0849577;-0,153846;-0;0,211143;-0,184479;3,36407;0,0445059;-0,0286234;0;0,349876;0,342782;-1080;1080;-600;1700;-10;10;-10;-0;0;-0;250;-1,2;0,2;177;-1,2;-1;2555;0,07;1780;2272;8;56579;
10,7855;1,19805;-2,04088;181;-96;2685;0;-0,0042008;-0,0889335;-0,214003;0,0107967;-0,0650943;-0,258911;-0,037836;-0,0139507;0,0408758;0,0204549;-0,0340925;0,0571576;0;0;0;0;0;0;-0,033336;-0,0122213;-0;-0,02;0;0,15;-0,012001;-0,287939;-0,332759;0,0162541;-0,123026;-0,156845;-0,0847272;0,0312911;-0,0312402;-0,0848652;-0,153831;-0;0,211148;-0,184484;3,36392;0,0445059;-0,0286234;0;0,35325;0,345949;-1080;1080;-600;1700;-10;10;-10;-0;0;-0;250;-1,2;0,2;177;-1,2;-1;2555;0,07;1780;2272;8;56579;
10,7955;1,19803;-2,0403;181;-93;2684;0;-0,00406847;-0,085703;-0,211555;0,0107561;-0,0659497;-0,261022;-0,03797;-0,0142795;0,0403036;0,0211474;-0,0373086;0,0547865;0;0;0;0;0;0;-0,033336;-0,0122213;-0;-0,02;0;0,149;-0,0119965;-0,278842;-0,3302;0,0170789;-0,123012;-0,156769;-0,0845363;0,0318443;-0,0317919;-0,0846756;-0,153814;-0;0,211132;-0,183345;3,36441;0,0445059;-0,0284489;0;0,359712;0,352005;-1080;1080;-600;1700;-10;10;-10;-0;0;-0;250;-1,2;0,2;177;-1,2;-1;2555;0,07;1780;2272;8;56579;
10,8055;1,198;-2,03967;180;-90;2683;0;-0,0037135;-0,0827237;-0,209862;0,0107191;-0,0667743;-0,263114;-0,0381327;-0,0145585;0,0396668;0,0214571;-0,0402319;0,0531231;0;0;0;0;0;0;-0,033336;-0,0122213;-0;-0,02;0;0,148;-0,00899402;-0,269751;-0,32764;0,0177436;-0,122956;-0,156739;-0,0843907;0,0322728;-0,0322191;-0,0845315;-0,153795;-0;0,209895;-0,18437;3,36788;0,0446804;-0,0286234;0;0,364705;0,356674;-1080;1080;-600;1700;-10;10;-10;-0;0;-0;250;-1,2;0,2;177;-1,2;-1;2555;0,07;1780;2272;8;56579;
10,8154;1,19797;-2,03934;180;-86;2683;0;-0,00326666;-0,0798194;-0,209223;0,0106868;-0,0675646;-0,265186;-0,0382987;-0,0148644;0,0393373;0,021714;-0,0430867;0,0525263;0;0;0;0;0;0;-0,033336;-0,0122213;-0;-0,02;0;0,148;-0,00899402;-0,257768;-0,32764;0,0184473;-0,122906;-0,156696;-0,0842183;0,0327418;-0,0326866;-0,0843607;-0,153786;-0;0,209817;-0,184302;3,37027;0,0446804;-0,0286234;0;0,370221;0,361821;-1080;1080;-600;1700;-10;10;-10;-0;0;-0;250;-1,2;0,2;177;-1,2;-1;2555;0,07;1780;2272;8;56579;
10,8255;1,19795;-2,03841;179;-84;2681;0;-0,00281327;-0,0771611;-0,206713;0,0106584;-0,0683423;-0,267269;-0,0384956;-0,0151728;0,0384133;0,0219289;-0,0457447;0,050096;0;0;0;0;0;0;-0,033336;-0,0122213;-0;-0,02;0;0,146;-0,00599155;-0,251589;-0,322521;0,0191156;-0,122906;-0,156617;-0,0840672;0,0331914;-0,0331346;-0,0842114;-0,153758;-0;0,209788;-0,183153;3,37114;0,0446804;-0,0284489;0;0,375448;0,366689;-1080;1080;-600;1700;-10;10;-10;-0;0;-0;250;-1,2;0,2;177;-1,2;-1;2555;0,07;1780;2272;8;56579;
10,8354;1,19791;-2,03751;179;-81;2680;0;-0,00225123;-0,0746437;-0,204292;0,010636;-0,0690861;-0,269305;-0,0387042;-0,0154793;0,0375099;0,0220336;-0,0482331;0,0477351;0;0;0;0;0;0;-0,033336;-0,0122213;-0;-0,02;0;0,144;-0,00598931;-0,242517;-0,319961;0,0197824;-0,122877;-0,156557;-0,0839206;0,0336214;-0,033563;-0,0840666;-0,153731;-0;0,20855;-0,183052;3,37471;0,044855;-0,0284489;0;0,380452;0,371341;-1080;1080;-600;1700;-10;10;-10;-0;0;-0;250;-1,2;0,2;177;-1,2;-1;2555;0,07;1780;2272;8;56579;
10,8455;1,19788;-2,03721;178;-78;2680;0;-0,00159513;-0,0720953;-0,203931;0,0106199;-0,0698138;-0,271363;-0,0389245;-0,0158104;0,037213;0,0220626;-0,0507212;0,0474155;0;0;0;0;0;0;-0,033336;-0,0122213;-0;-0,02;0;0,144;-0,00299466;-0,233538;-0,319961;0,0204675;-0,122817;-0,156516;-0,0837445;0,0340755;-0,0340154;-0,0838926;-0,153723;-0;0,208438;-0,182954;3,37814;0,044855;-0,0284489;0;0,385823;0,376322;-1080;1080;-600;1700;-10;10;-10;-0;0;-0;250;-1,2;0,2;177;-1,2;-1;2555;0,07;1780;2272;8;56579;
10,8555;1,19785;-2,03633;177;-76;2678;0;-0,000964952;-0,0697855;-0,201617;0,0106102;-0,0705108;-0,273377;-0,0391567;-0,0161458;0,0363288;0,0221066;-0,0530178;0,0451801;0;0;0;0;0;0;-0,033336;-0,0122213;-0;-0,02;0;0,142;0;-0,227382;-0,314841;0,0211417;-0,122803;-0,156436;-0,0835835;0,0345265;-0,0344646;-0,0837337;-0,153696;-0;0,208423;-0,181819;3,37861;0,044855;-0,0282743;0;0,391096;0,381202;-1080;1080;-600;1700;-10;10;-10;-0;0;-0;250;-1,2;0,2;177;-1,2;-1;2555;0,07;1780;2272;8;56579;
10,8656;1,19844;-2,03577;192;-93;2678;0;-0,0145868;-0,0861276;-0,201547;0,0104636;-0,0713766;-0,275403;-0,0333977;-0,0134762;0,0357685;0,0347105;-0,0367949;0,0450698;0;0;0;0;0;0;-0,033336;-0,0122213;-0;0;0,01;0,141;-0,044886;-0,278219;-0,314841;0,0201237;-0,122923;-0,156477;-0,0838888;0,0338937;-0,0338497;-0,0839978;-0,153663;-0;0,209438;-0,182848;3,3819;0,0446804;-0,0284489;0;0,383526;0,374192;-1080;1080;-600;1700;-10;10;-10;-0;0;-0;250;-1,2;0,2;177;-1,2;-1;2555;0,07;1780;2273;8;56579;
10,8755;1,19841;-2,0355;191;-91;2678;0;-0,0136657;-0,083927;-0,201414;0,0103283;-0,0722075;-0,277397;-0,0336617;-0,0138179;0,035498;0,0345539;-0,0389237;0,0449803;0;0;0;0;0;0;-0,033336;-0,0122213;-0;0;0,01;0,141;-0,0418936;-0,272239;-0,314841;0,0208882;-0,122851;-0,156433;-0,0836892;0,0343993;-0,0343538;-0,0838002;-0,153656;-0;0,209436;-0,182846;3,38195;0,0446804;-0,0284489;0;0,389519;0,379743;-1080;1080;-600;1700;-10;10;-10;-0;0;-0;250;-1,2;0,2;177;-1,2;-1;2555;0,07;1780;2273;8;56579;
10,8854;1,19838;-2,03496;190;-88;2678;0;-0,012726;-0,0812347;-0,20036;0,0102013;-0,0730185;-0,279397;-0,0339207;-0,0141436;0,034959;0,0342925;-0,0415565;0,0439719;0;0;0;0;0;0;-0,033336;-0,0122213;-0;0;0,01;0,14;-0,0389013;-0,263268;-0,314841;0,0215665;-0,122791;-0,156388;-0,0835095;0,0348673;-0,0348202;-0,0836224;-0,15364;-0;0,210553;-0,182842;3,38209;0,0445059;-0,0284489;0;0,395042;0,384847;-1080;1080;-600;1700;-10;10;-10;-0;0;-0;250;-1,2;0,2;177;-1,2;-1;2555;0,07;1780;2273;8;56579;
10,8973;1,19834;-2,03438;189;-85;2677;0;-0,0116658;-0,078481;-0,199245;0,0100625;-0,0739522;-0,281768;-0,0341988;-0,0145212;0,0343787;0,0340615;-0,044206;0,0428922;0;0;0;0;0;0;-0,033336;-0,0122213;-0;0;0,01;0,139;-0,0358955;-0,254202;-0,312282;0,0223958;-0,122687;-0,156353;-0,0832934;0,0354163;-0,0353674;-0,0834086;-0,153623;-0;0,210505;-0,183921;3,38356;0,0445059;-0,0286234;0;0,401542;0,390838;-1080;1080;-600;1700;-10;10;-10;-0;0;-0;250;-1,2;0,2;177;-1,2;-1;2555;0,07;1780;2273;8;56579;
10,9055;1,19831;-2,03413;188;-82;2677;0;-0,0105713;-0,0759142;-0,199147;0,00997647;-0,0745698;-0,283388;-0,0344895;-0,0148866;0,0341317;0,0337222;-0,046687;0,0428361;0;0;0;0;0;0;-0,033336;-0,0122213;-0;0;0,01;0,139;-0,0329042;-0,245235;-0,312282;0,0231509;-0,122601;-0,15631;-0,0830862;0,0359129;-0,0358622;-0,0832036;-0,153616;-0;0,210454;-0,183877;3,38511;0,0445059;-0,0286234;0;0,407469;0,396287;-1080;1080;-600;1700;-10;10;-10;-0;0;-0;250;-1,2;0,2;177;-1,2;-1;2555;0,07;1780;2273;8;56579;
10,9155;1,19827;-2,03366;187;-79;2676;0;-0,00943009;-0,0731937;-0,197501;0,00988187;-0,075304;-0,285369;-0,0347779;-0,0153303;0,0336634;0,0335895;-0,0492954;0,0412551;0;0;0;0;0;0;-0,033336;-0,0122213;-0;0;0,01;0,138;-0,0299018;-0,236178;-0,309722;0,0241594;-0,122489;-0,156246;-0,0828162;0,0365587;-0,0365059;-0,082936;-0,153603;-0;0,20933;-0,183874;3,38521;0,0446804;-0,0286234;0;0,415182;0,403356;-1080;1080;-600;1700;-10;10;-10;-0;0;-0;250;-1,2;0,2;177;-1,2;-1;2555;0,07;1780;2273;8;56579;
10,9254;1,19823;-2,03305;185;-77;2676;0;-0,00841468;-0,0713221;-0,196997;0,0097985;-0,0760107;-0,287321;-0,0351181;-0,0156059;0,0330516;0,0329576;-0,0511093;0,0407661;0;0;0;0;0;0;-0,033336;-0,0122213;-0;0;0,01;0,137;-0,0239214;-0,230201;-0,309722;0,024543;-0,122431;-0,156231;-0,0827192;0,0368135;-0,0367591;-0,0828415;-0,153585;-0;0,209254;-0,184928;3,38754;0,0446804;-0,0287979;0;0,418174;0,406093;-1080;1080;-600;1700;-10;10;-10;-0;0;-0;250;-1,2;0,2;177;-1,2;-1;2555;0,07;1780;2273;8;56579;
10,9355;1,19819;-2,03282;184;-75;2676;0;-0,00734113;-0,069295;-0,197038;0,00972436;-0,0767106;-0,289311;-0,0354581;-0,015947;0,032818;0,0324262;-0,0530639;0,0408364;0;0;0;0;0;0;-0,033336;-0,0122213;-0;0;0,01;0,137;-0,0209313;-0,224224;-0,309722;0,0250851;-0,122359;-0,156202;-0,0825575;0,0371858;-0,0371296;-0,0826825;-0,153579;-0;0,210352;-0,184909;3,38821;0,0445059;-0,0287979;0;0,42264;0,410169;-1080;1080;-600;1700;-10;10;-10;-0;0;-0;250;-1,2;0,2;177;-1,2;-1;2555;0,07;1780;2273;8;56579;
10,9454;1,19814;-2,03258;183;-73;2676;0;-0,00631064;-0,0674823;-0,197121;0,00966181;-0,0773795;-0,291265;-0,0357967;-0,0162723;0,0325821;0,0319069;-0,0548102;0,0409496;0;0;0;0;0;0;-0,033336;-0,0122213;-0;0;0,01;0,137;-0,0179411;-0,218247;-0,309722;0,0255962;-0,122293;-0,156171;-0,0824113;0,0375201;-0,0374621;-0,0825389;-0,153573;-0;0,210356;-0,184912;3,38811;0,0445059;-0,0287979;0;0,426652;0,413825;-1080;1080;-600;1700;-10;10;-10;-0;0;-0;250;-1,2;0,2;177;-1,2;-1;2555;0,07;1780;2273;8;56579;
10,9555;1,1981;-2,03207;182;-71;2675;0;-0,0053177;-0,0657917;-0,196142;0,00960822;-0,0780425;-0,293242;-0,0361561;-0,0165998;0,0320684;0,0313937;-0,0564476;0,0400091;0;0;0;0;0;0;-0,033336;-0,0122213;-0;0;0,01;0,136;-0,0149453;-0,21219;-0,307162;0,026076;-0,122239;-0,156133;-0,0822798;0,0378358;-0,0377759;-0,0824103;-0,153558;-0;0,210361;-0,184916;3,38794;0,0445059;-0,0287979;0;0,430408;0,417241;-1080;1080;-600;1700;-10;10;-10;-0;0;-0;250;-1,2;0,2;177;-1,2;-1;2555;0,07;1780;2273;8;56579;
10,9655;1,19806;-2,03185;181;-70;2675;0;-0,00438559;-0,064328;-0,196292;0,00956431;-0,0786865;-0,295207;-0,0365146;-0,0168905;0,031855;0,0307985;-0,0578625;0,040177;0;0;0;0;0;0;-0,033336;-0,0122213;-0;0;0,01;0,136;-0,0119563;-0,209202;-0,307162;0,0264129;-0,122191;-0,156115;-0,0821746;0,0380731;-0,0380114;-0,0823078;-0,153552;-0;0,211437;-0,184877;3,3893;0,0443314;-0,0287979;0;0,433257;0,419829;-1080;1080;-600;1700;-10;10;-10;-0;0;-0;250;-1,2;0,2;177;-1,2;-1;2555;0,07;1780;2273;8;56579;
10,9755;1,19802;-2,03165;180;-68;2675;0;-0,00309598;-0,0628275;-0,196325;0,00953333;-0,0793151;-0,297171;-0,0367777;-0,017254;0,0316503;0,0301949;-0,0592623;0,0402488;0;0;0;0;0;0;-0,033336;-0,0122213;-0;0;0,01;0,136;-0,0089672;-0,203227;-0,307162;0,0270989;-0,12209;-0,156076;-0,0819708;0,0385197;-0,0384562;-0,0821063;-0,153547;-0;0,211445;-0,184885;3,38904;0,0443314;-0,0287979;0;0,43866;0,424727;-1080;1080;-600;1700;-10;10;-10;-0;0;-0;250;-1,2;0,2;177;-1,2;-1;2555;0,07;1780;2273;8;56579;
10,9855;1,19795;-2,0311;178;-65;2675;0;-0,00130432;-0,0600699;-0,195135;0,00952033;-0,0799142;-0,299117;-0,0372032;-0,017943;0,0310964;0,0297372;-0,0617872;0,0391148;0;0;0;0;0;0;-0,033336;-0,0122213;-0;0;0,01;0,136;-0,00298907;-0,194263;-0,307162;0,0284329;-0,121857;-0,156021;-0,0815631;0,0394049;-0,0393377;-0,0817025;-0,153532;-0;0,212569;-0,186008;3,38895;0,0441568;-0,0289725;0;0,449386;0,434412;-1080;1080;-600;1700;-10;10;-10;-0;0;-0;250;-1,2;0,2;177;-1,2;-1;2555;0,07;1780;2273;8;56579;
10,9956;1,19794;-2,0306;177;-66;2674;0;-0,000764172;-0,0603738;-0,19431;0,00951262;-0,080523;-0,301077;-0,0373283;-0,0179177;0,0306009;0,0289915;-0,0615415;0,0382976;0;0;0;0;0;0;-0,033336;-0,0122213;-0;0;0,01;0,135;0;-0,197178;-0,304603;0,0282273;-0,121915;-0,156012;-0,0816475;0,0392584;-0,0391911;-0,0817877;-0,153516;-0;0,211394;-0,185959;3,39061;0,0443314;-0,0289725;0;0,447523;0,432734;-1080;1080;-600;1700;-10;10;-10;-0;0;-0;250;-1,2;0,2;177;-1,2;-1;2555;0,07;1780;2273;8;56579;
11,0055;1,19794;-2,03042;177;-66;2674;0;-0,000328979;-0,060967;-0,194624;0,00950935;-0,0811291;-0,303011;-0,037443;-0,0178321;0,0304193;0,0281712;-0,0610193;0,0385983;0;0;0;0;0;0;-0,033336;-0,0122213;-0;0;0,01;0,135;0;-0,197178;-0,304603;0,0278422;-0,121986;-0,156026;-0,0817709;0,0390101;-0,038943;-0,0819118;-0,153511;-0;0,211356;-0,185926;3,39175;0,0443314;-0,0289725;0;0,444464;0,429974;-1080;1080;-600;1700;-10;10;-10;-0;0;-0;250;-1,2;0,2;177;-1,2;-1;2555;0,07;1780;2273;8;56579;
11,0154;1,19793;-2,03023;176;-67;2675;0;-5,48026e-05;-0,0616699;-0,195078;0,00950881;-0,0817397;-0,304943;-0,0375455;-0,0177044;0,0302325;0,0273865;-0,0603752;0,0390071;0;0;0;0;0;0;-0,033336;-0,0122213;-0;0;0,01;0,135;0,00298907;-0,200239;-0,307162;0,0273317;-0,122045;-0,15607;-0,081924;0,0386976;-0,038631;-0,0820654;-0,153505;-0;0,212492;-0,187061;3,39125;0,0441568;-0,029147;0;0,440627;0,426506;-1080;1080;-600;1700;-10;10;-10;-0;0;-0;250;-1,2;0,2;177;-1,2;-1;2555;0,07;1780;2273;8;56579;
11,0255;1,19793;-2,02978;176;-67;2674;0;0,000218366;-0,0621889;-0,194202;0,00951102;-0,0823687;-0,306907;-0,0376366;-0,0176404;0,0297769;0,0268211;-0,0598931;0,0381092;0;0;0;0;0;0;-0,033336;-0,0122213;-0;0;0,01;0,134;0,00298795;-0,200164;-0,304603;0,0270395;-0,122082;-0,156093;-0,0820243;0,0385115;-0,038445;-0,0821662;-0,153491;-0;0,212515;-0,188201;3,39055;0,0441568;-0,0293215;0;0,438298;0,424399;-1080;1080;-600;1700;-10;10;-10;-0;0;-0;250;-1,2;0,2;177;-1,2;-1;2555;0,07;1780;2273;8;56579;
11,0354;1,19792;-2,0296;176;-68;2674;0;0,000396094;-0,0628897;-0,194491;0,00951492;-0,0829883;-0,308823;-0,0377139;-0,0175222;0,0296029;0,0262191;-0,0592655;0,0383828;0;0;0;0;0;0;-0,033336;-0,0122213;-0;0;0,01;0,134;0,00298795;-0,203151;-0,304603;0,0266152;-0,122155;-0,156108;-0,0821571;0,0382371;-0,038171;-0,0822994;-0,153486;-0;0,212475;-0,188165;3,39177;0,0441568;-0,0293215;0;0,434937;0,421353;-1080;1080;-600;1700;-10;10;-10;-0;0;-0;250;-1,2;0,2;177;-1,2;-1;2555;0,07;1780;2273;8;56579;
11,0455;1,19792;-2,02914;176;-69;2674;0;0,000438543;-0,0636398;-0,193721;0,00951936;-0,0836327;-0,310785;-0,0377693;-0,0174066;0,0291436;0,0257617;-0,0585927;0,0376036;0;0;0;0;0;0;-0,033336;-0,0122213;-0;0;0,01;0,133;0,00298795;-0,206137;-0,304603;0,0262002;-0,122233;-0,156118;-0,0822853;0,0379882;-0,0379225;-0,0824279;-0,153472;-0;0,21361;-0,188179;3,39131;0,0439823;-0,0293215;0;0,431853;0,418555;-1080;1080;-600;1700;-10;10;-10;-0;0;-0;250;-1,2;0,2;177;-1,2;-1;2555;0,07;1780;2273;8;56579;
11,0555;1,19793;-2,02838;176;-70;2673;0;0,000364036;-0,0645996;-0,192105;0,00952301;-0,0842801;-0,31271;-0,0378283;-0,0172414;0,02838;0,0252803;-0,0577689;0,0360011;0;0;0;0;0;0;-0,033336;-0,0122213;-0;0;0,01;0,131;0,00298683;-0,209046;-0,302043;0,0256444;-0,122368;-0,156104;-0,0824623;0,0376498;-0,0375848;-0,0826051;-0,153448;-0;0,214694;-0,187028;3,39237;0,0438078;-0,029147;0;0,427651;0,414735;-1080;1080;-600;1700;-10;10;-10;-0;0;-0;250;-1,2;0,2;177;-1,2;-1;2555;0,07;1780;2273;8;56579;
11,0655;1,19793;-2,0282;176;-71;2673;0;0,000422755;-0,0652315;-0,192256;0,00952722;-0,0849303;-0,314627;-0,0378899;-0,0171244;0,0282016;0,0248198;-0,0572026;0,0361386;0;0;0;0;0;0;-0,033336;-0,0122213;-0;0;0,01;0,131;0,00298683;-0,212031;-0,302043;0,0252425;-0,122434;-0,156118;-0,0825855;0,0373893;-0,0373246;-0,0827285;-0,153442;-0;0,214618;-0,186962;3,39465;0,0438078;-0,029147;0;0,424475;0,411843;-1080;1080;-600;1700;-10;10;-10;-0;0;-0;250;-1,2;0,2;177;-1,2;-1;2555;0,07;1780;2273;8;56579;
11,0755;1,19793;-2,02777;176;-72;2673;0;0,000220676;-0,0662438;-0,191628;0,00952942;-0,08559;-0,316535;-0,0378892;-0,0169264;0,0277653;0,0244726;-0,0563129;0,035519;0;0;0;0;0;0;-0,033336;-0,0122213;-0;0;0,01;0,13;0,00298683;-0,215017;-0,302043;0,0246932;-0,122557;-0,156109;-0,0827576;0,0370345;-0,0369707;-0,0829004;-0,153429;-0;0,214627;-0,18585;3,39438;0,0438078;-0,0289725;0;0,420135;0,407884;-1080;1080;-600;1700;-10;10;-10;-0;0;-0;250;-1,2;0,2;177;-1,2;-1;2555;0,07;1780;2273;8;56579;
