time ;e1;e2;ctrlpitch;ctrlroll;ctrlthrust;ctrlyaw;edx;edy;edz;cumulx;cumuly;cumulz;x_pred;y_pred;z_pred;dxr_pred;dyr_pred;dzr_pred;dxrT;dyrT;dzrT;dxrUn;dyrUn;dzrUn;x;y;z;dx;dy;dz;ux;uy;uz;dxd;dyd;dzd;Perpx;Tangx;Perpy;Tangy;Perpz;Tanz;ax;ay;az;pitch;roll;yaw;yawd;eyaw;kpvx;kpvy;kpvz;kpyaw;kivx;kivy;kivz;kdvx;kdvy;kdvz;kdyaw;ktg;veld;pitchoff;ke1;ke2;gravity;thr_vel;gps_accuracy;height_accuracy;gps_sat_num;gps_status
16,5391;-4,74133;-0,26;50;-50;1450;0;-0,116668;-0,162332;-0,00606942;-0,000781443;-0,0010873;-4,0653e-05;0;0;0,26;0;0;0;0;0;0;0;0;0;0;0;0,26;0;0;0;0,205665;-0,0810057;2,82845;-0,116668;-0,162332;-0,00606942;-0,18772;-0,0119977;-0,0474041;0,0475108;-0,0106171;-0;0;0;9,81;-0,00645772;0,0233874;0;0;0;-1080;1080;-600;1700;-10;10;-10;-0;0;-0;250;-1,2;0,2;177;-1,2;-1;2555;0,07;4294967295;3750000128;0;16384;
16,5424;-4,74133;-0,261;100;-100;1500;0;-0,116697;-0,16231;-0,00609011;-0,00117693;-0,00163737;-6,12924e-05;0;0;0,261;0;0;0;0;0;0;0;0;0;0;0;0,261;0;0;0;0,129036;-0,167558;2,70047;-0,116697;-0,16231;-0,00609011;-0,187718;-0,0119975;-0,0474036;0,0475102;-0,0106579;-0;0,514541;0,143585;3,67001;-0,00663225;0,0233874;0;0;0;-1080;1080;-600;1700;-10;10;-10;-0;0;-0;250;-1,2;0,2;177;-1,2;-1;2555;0,07;4294967295;3750000128;0;16384;
16,5524;-4,74133;-0,261;150;-150;1550;0;-0,116811;-0,162414;-0,00766257;-0,00234002;-0,00325453;-0,000137589;0;0;0,261;0,000113915;0,000103488;0,00157246;0;0;0;0;0;0;0;0;0,261;0;0;0;0,0467625;-0,259612;2,57249;-0,116697;-0,16231;-0,00609011;-0,187718;-0,0119975;-0,0474036;0,0475102;-0,0106579;-0;0,514544;0,143586;3,66998;-0,00663225;0,0233874;0;0;0;-1080;1080;-600;1700;-10;10;-10;-0;0;-0;250;-1,2;0,2;177;-1,2;-1;2555;0,07;4294967295;3750000128;0;16384;
16,5625;-4,74133;-0,261001;200;-175;1600;50;-0,116988;-0,16248;-0,00981732;-0,00352428;-0,00489931;-0,000236969;9,22865e-08;-3,6349e-08;0,261001;0,000290606;0,00017081;0,00369883;0;0;0;0;0;0;0;0;0,261;0;0;0;-0,04112;-0,31257;2,4445;-0,116697;-0,162309;-0,00611849;-0,187718;-0,0119975;-0,0474036;0,0475102;-0,0106579;-0;0,514734;0,142567;3,66771;-0,00663225;0,0232129;0;2,76638;0,36647;-1080;1080;-600;1700;-10;10;-10;-0;0;-0;250;-1,2;0,2;177;-1,2;-1;2555;0,07;4294967295;3750000128;0;16384;
16,5726;-4,74134;-0,262008;250;-175;1650;100;-0,117386;-0,16251;-0,0142684;-0,00470155;-0,00652913;-0,000380067;5,42278e-07;-3,30735e-07;0,262008;0,000690215;0,000201529;0,00810883;0;0;0;0;0;0;0;0;0,262;0;0;0;-0,134569;-0,322338;2,31652;-0,116696;-0,162309;-0,00615953;-0,187716;-0,0119974;-0,047403;0,0475097;-0,0106989;-0;0,514994;0,142639;3,66461;-0,00663225;0,0232129;0;2,59393;0,520696;-1080;1080;-600;1700;-10;10;-10;-0;0;-0;250;-1,2;0,2;177;-1,2;-1;2555;0,07;4294967295;3750000128;0;16384;
16,5825;-4,74134;-0,26303;300;-175;1700;150;-0,117948;-0,16236;-0,0203471;-0,00588032;-0,00815176;-0,000583415;1,65327e-06;-1,50246e-06;0,26303;0,00125221;5,39751e-05;0,0141176;0;0;0;0;0;0;0;0;0,263;0;0;0;-0,233538;-0,332106;2,18853;-0,116695;-0,162306;-0,00622947;-0,187714;-0,0119972;-0,0474022;0,0475092;-0,0107405;-0;0,515531;0,141715;3,6582;-0,00663225;0,0230383;0;2,40395;0,672548;-1080;1080;-600;1700;-10;10;-10;-0;0;-0;250;-1,2;0,2;177;-1,2;-1;2555;0,07;4294967295;3750000128;0;16384;
16,5925;-4,74135;-0,263076;305;-175;1750;200;-0,118593;-0,161965;-0,0277581;-0,00706269;-0,00976655;-0,000860163;3,53485e-06;-4,64477e-06;0,263076;0,00189715;-0,000340827;0,0215267;0;0;0;0;0;0;0;0;0,263;0;0;0;-0,250169;-0,341874;2,06055;-0,116696;-0,162306;-0,00623134;-0,187714;-0,011997;-0,0474014;0,0475091;-0,0107424;-0;0,516265;0,141917;3,64944;-0,00663225;0,0230383;0;2,22132;0,795764;-1080;1080;-600;1700;-10;10;-10;-0;0;-0;250;-1,2;0,2;177;-1,2;-1;2555;0,07;4294967295;3750000128;0;16384;
16,6025;-4,74135;-0,264161;305;-174;1800;250;-0,119268;-0,161221;-0,0365219;-0,00825775;-0,011382;-0,00122611;5,91082e-06;-1,12808e-05;0,264161;0,00257164;-0,00108206;0,030218;0;0;0;0;0;0;0;0;0,264;0;0;0;-0,257317;-0,349636;1,93256;-0,116696;-0,162303;-0,00630389;-0,187712;-0,0119964;-0,0473993;0,0475086;-0,0107865;-0;0,51716;0,141086;3,63876;-0,00663225;0,0228638;0;2,05344;0,885772;-1080;1080;-600;1700;-10;10;-10;-0;0;-0;250;-1,2;0,2;177;-1,2;-1;2555;0,07;4294967295;3750000128;0;16384;
16,6123;-4,74134;-0,2653;306;-173;1850;300;-0,120043;-0,160207;-0,0463897;-0,00943478;-0,0129528;-0,00168096;7,87893e-06;-2,33972e-05;0,2653;0,00334441;-0,0020927;0,0400597;0;0;0;0;0;0;0;0;0,265;0;0;0;-0,266529;-0,357287;1,80458;-0,116699;-0,1623;-0,00633002;-0,187711;-0,0119956;-0,047396;0,0475082;-0,0108329;-0;0,519294;0,141374;3,62614;-0,00680678;0,0228638;0;1,89562;0,947708;-1080;1080;-600;1700;-10;10;-10;-0;0;-0;250;-1,2;0,2;177;-1,2;-1;2555;0,07;4294967295;3750000128;0;16384;
16,6224;-4,74132;-0,266515;307;-171;1900;350;-0,120917;-0,158929;-0,057319;-0,0106527;-0,0145535;-0,00225828;8,30403e-06;-4,35389e-05;0,266515;0,00421472;-0,00336822;0,0509678;0;0;0;0;0;0;0;0;0,266;0;0;0;-0,275852;-0,362709;1,67659;-0,116702;-0,162297;-0,00635126;-0,187709;-0,0119943;-0,0473908;0,0475081;-0,0108824;-0;0,520488;0,142781;3,61192;-0,00680678;0,0230383;0;1,75926;0,982293;-1080;1080;-600;1700;-10;10;-10;-0;0;-0;250;-1,2;0,2;177;-1,2;-1;2555;0,07;4294967295;3750000128;0;16384;
16,6324;-4,74126;-0,26682;308;-170;1950;400;-0,121879;-0,157362;-0,0690021;-0,0118691;-0,0161242;-0,00294699;5,64232e-06;-7,43349e-05;0,26682;0,00517073;-0,00492981;0,0626382;0;0;0;0;0;0;0;0;0,266;0;0;0;-0,285287;-0,370081;1,54861;-0,116708;-0,162292;-0,00636387;-0,18771;-0,0119927;-0,0473838;0,0475089;-0,010895;-0;0,52181;0,143144;3,59617;-0,00680678;0,0230383;0;1,64656;0,997132;-1080;1080;-600;1700;-10;10;-10;-0;0;-0;250;-1,2;0,2;177;-1,2;-1;2555;0,07;4294967295;3750000128;0;16384;
16,6425;-4,74116;-0,267245;309;-168;2000;450;-0,12295;-0,155494;-0,0816242;-0,0131072;-0,01769;-0,00376895;-1,94446e-06;-0,000119986;0,267245;0,00623305;-0,00679247;0,075271;0;0;0;0;0;0;0;0;0,266;0;0;0;-0,294833;-0,375113;1,42063;-0,116717;-0,162286;-0,0063532;-0,187712;-0,0119904;-0,0473735;0,0475103;-0,0109125;-0;0,523224;0,144619;3,57933;-0,00680678;0,0232129;0;1,55459;0,999869;-1080;1080;-600;1700;-10;10;-10;-0;0;-0;250;-1,2;0,2;177;-1,2;-1;2555;0,07;4294967295;3750000128;0;16384;
16,6525;-4,741;-0,267809;311;-165;2050;500;-0,124098;-0,153297;-0,0948909;-0,0143559;-0,0192325;-0,00472374;-1,68522e-05;-0,000183959;0,267809;0,00736977;-0,00897976;0,0884938;0;0;0;0;0;0;0;0;0,266;0;0;0;-0,306777;-0,377637;1,29264;-0,116728;-0,162276;-0,00639703;-0,187714;-0,0119871;-0,0473592;0,0475124;-0,0109358;-0;0,523665;0,145041;3,56114;-0,00663225;0,0232129;0;1,47944;0,99583;-1080;1080;-600;1700;-10;10;-10;-0;0;-0;250;-1,2;0,2;177;-1,2;-1;2555;0,07;4294967295;3750000128;0;16384;
16,6625;-4,74075;-0,268541;312;-163;2100;550;-0,125339;-0,150778;-0,10874;-0,0156037;-0,0207335;-0,00580625;-4,19267e-05;-0,000271376;0,268541;0,00859488;-0,0114862;0,102321;0;0;0;0;0;0;0;0;0,266;0;0;0;-0,316602;-0,382166;1,16466;-0,116744;-0,162264;-0,00641964;-0,187716;-0,0119828;-0,0473397;0,0475156;-0,0109662;-0;0,524178;0,146579;3,54201;-0,00645772;0,0233874;0;1,41751;0,988275;-1080;1080;-600;1700;-10;10;-10;-0;0;-0;250;-1,2;0,2;177;-1,2;-1;2555;0,07;4294967295;3750000128;0;16384;
16,6732;-4,74039;-0,270465;313;-159;2150;600;-0,126693;-0,14789;-0,12302;-0,0169589;-0,0223155;-0,0071222;-8,04598e-05;-0,000387133;0,270465;0,00992528;-0,0143541;0,116542;0;0;0;0;0;0;0;0;0,267;0;0;0;-0,326538;-0,38168;1,03667;-0,116768;-0,162244;-0,0064787;-0,187718;-0,0119771;-0,0473134;0,0475195;-0,0110453;-0;0,526941;0,147046;3,52204;-0,00663225;0,0233874;0;1,36588;0,979078;-1080;1080;-600;1700;-10;10;-10;-0;0;-0;250;-1,2;0,2;177;-1,2;-1;2555;0,07;4294967295;3750000128;0;16384;
16,6825;-4,7399;-0,2716;315;-156;2200;650;-0,128106;-0,144654;-0,137467;-0,0181473;-0,0236574;-0,00839748;-0,000136101;-0,000536092;0,2716;0,011307;-0,0175667;0,130941;0;0;0;0;0;0;0;0;0,267;0;0;0;-0,33904;-0,383198;0,908689;-0,116799;-0,162221;-0,00652634;-0,187722;-0,01197;-0,0472804;0,0475256;-0,0110925;-0;0,528667;0,147527;3,50145;-0,00663225;0,0233874;0;1,32217;0,969252;-1080;1080;-600;1700;-10;10;-10;-0;0;-0;250;-1,2;0,2;177;-1,2;-1;2555;0,07;4294967295;3750000128;0;16384;
16,695;-4,73922;-0,274035;317;-152;2250;700;-0,129643;-0,140923;-0,152852;-0,0197758;-0,0254275;-0,0103175;-0,000215334;-0,000732072;0,274035;0,0128051;-0,0212637;0,146196;0;0;0;0;0;0;0;0;0,268;0;0;0;-0,351765;-0,381874;0,780705;-0,116838;-0,162187;-0,00665584;-0,187726;-0,0119606;-0,0472366;0,0475333;-0,0111932;-0;0,530413;0,14691;3,48062;-0,00663225;0,0232129;0;1,28472;0,959359;-1080;1080;-600;1700;-10;10;-10;-0;0;-0;250;-1,2;0,2;177;-1,2;-1;2555;0,07;4294967295;3750000128;0;16384;
16,7024;-4,73838;-0,275626;318;-148;2300;750;-0,131145;-0,136999;-0,166818;-0,0207449;-0,02644;-0,0115502;-0,000316911;-0,000960854;0,275626;0,0142575;-0,0251492;0,160088;0;0;0;0;0;0;0;0;0,268;0;0;0;-0,362147;-0,380101;0,65272;-0,116887;-0,162148;-0,00673095;-0,187733;-0,01195;-0,0471862;0,0475434;-0,0112598;-0;0,533377;0,146317;3,45842;-0,00680678;0,0230383;0;1,25221;0,949679;-1080;1080;-600;1700;-10;10;-10;-0;0;-0;250;-1,2;0,2;177;-1,2;-1;2555;0,07;4294967295;3750000128;0;16384;
16,7124;-4,73716;-0,27786;320;-143;2350;800;-0,132965;-0,132151;-0,184028;-0,0220734;-0,0277603;-0,0133889;-0,000466204;-0,00128836;0,27786;0,0160101;-0,0299448;0,177202;0;0;0;0;0;0;0;0;0,268;0;0;0;-0,375261;-0,375261;0,524736;-0,116955;-0,162096;-0,00682544;-0,187742;-0,0119348;-0,0471142;0,0475582;-0,0113536;-0;0,535069;0,146781;3,43828;-0,00680678;0,0230383;0;1,2236;0,940329;-1080;1080;-600;1700;-10;10;-10;-0;0;-0;250;-1,2;0,2;177;-1,2;-1;2555;0,07;4294967295;3750000128;0;16384;
16,7224;-4,7359;-0,280827;322;-138;2400;850;-0,134291;-0,127813;-0,195744;-0,0234147;-0,0290369;-0,015344;-0,000625786;-0,00160051;0,280827;0,0172734;-0,0342317;0,188773;0;0;0;0;0;0;0;0;0,269;0;0;0;-0,388599;-0,369862;0,396751;-0,117017;-0,162044;-0,00697034;-0,187749;-0,0119205;-0,0470454;0,0475725;-0,0114772;-0;0,536041;0,147353;3,41346;-0,00663225;0,0230383;0;1,19808;0,931342;-1080;1080;-600;1700;-10;10;-10;-0;0;-0;250;-1,2;0,2;177;-1,2;-1;2555;0,07;4294967295;3750000128;0;16384;
16,7324;-4,7342;-0,284434;323;-132;2450;900;-0,135864;-0,122567;-0,209811;-0,0247713;-0,0302607;-0,0174389;-0,000844068;-0,00202058;0,284434;0,018762;-0,0394069;0,20264;0;0;0;0;0;0;0;0;0,27;0;0;0;-0,399427;-0,36117;0,268767;-0,117102;-0,161974;-0,00717093;-0,187759;-0,0119014;-0,046953;0,0475923;-0,0116281;-0;0,536343;0,146623;3,39655;-0,00645772;0,0228638;0;1,17509;0,922726;-1080;1080;-600;1700;-10;10;-10;-0;0;-0;250;-1,2;0,2;177;-1,2;-1;2555;0,07;4294967295;3750000128;0;16384;
16,7425;-4,73211;-0,288407;325;-126;2500;950;-0,137461;-0,116893;-0,223372;-0,026157;-0,0314391;-0,0196907;-0,00111456;-0,00251837;0,288407;0,0202559;-0,0449976;0,216005;0;0;0;0;0;0;0;0;0,271;0;0;0;-0,413154;-0,351806;0,140783;-0,117205;-0,161891;-0,00736718;-0,187771;-0,0118789;-0,0468437;0,0476163;-0,0117948;-0;0,538041;0,145965;3,37624;-0,00645772;0,0226893;0;1,15414;0,914446;-1080;1080;-600;1700;-10;10;-10;-0;0;-0;250;-1,2;0,2;177;-1,2;-1;2555;0,07;4294967295;3750000128;0;16384;
16,7524;-4,7296;-0,291769;327;-120;2550;1000;-0,139029;-0,110849;-0,236262;-0,027543;-0,0325442;-0,022046;-0,00144545;-0,00310265;0,291769;0,0217007;-0,0509464;0,22875;0;0;0;0;0;0;0;0;0,271;0;0;0;-0,427104;-0,341771;0,0127984;-0,117328;-0,161795;-0,00751154;-0,187788;-0,0118529;-0,0467163;0,0476459;-0,0119377;-0;0,539678;0,146409;3,35666;-0,00645772;0,0226893;0;1,13482;0,906457;-1080;1080;-600;1700;-10;10;-10;-0;0;-0;250;-1,2;0,2;177;-1,2;-1;2555;0,07;4294967295;3750000128;0;16384;
16,7624;-4,72658;-0,296561;329;-113;2600;1050;-0,140592;-0,104389;-0,248524;-0,0289463;-0,0335861;-0,0245265;-0,00184721;-0,00378579;0,296561;0,023118;-0,0572933;0,240856;0;0;0;0;0;0;0;0;0,272;0;0;0;-0,441276;-0,328162;-0,115186;-0,117474;-0,161682;-0,00766713;-0,187806;-0,0118226;-0,046567;0,0476806;-0,0121403;-0;0,54236;0,147961;3,33805;-0,00663225;0,0228638;0;1,11685;0,898723;-1080;1080;-600;1700;-10;10;-10;-0;0;-0;250;-1,2;0,2;177;-1,2;-1;2555;0,07;4294967295;3750000128;0;16384;
16,7725;-4,72303;-0,300757;330;-105;2650;1100;-0,142039;-0,0974085;-0,259824;-0,0303804;-0,0345696;-0,02715;-0,00232634;-0,00457034;0,300757;0,0243707;-0,0641223;0,251947;0;0;0;0;0;0;0;0;0,272;0;0;0;-0,452717;-0,31081;-0,24317;-0,117668;-0,161531;-0,00787731;-0,187828;-0,0117881;-0,0463964;0,0477221;-0,0123201;-0;0,543845;0,147233;3,32033;-0,00663225;0,0226893;0;1,09997;0,891193;-1080;1080;-600;1700;-10;10;-10;-0;0;-0;250;-1,2;0,2;177;-1,2;-1;2555;0,07;4294967295;3750000128;0;16384;
16,7825;-4,71886;-0,305398;332;-97;2700;1150;-0,143367;-0,0900331;-0,270134;-0,0318109;-0,035468;-0,0298454;-0,00289523;-0,00546969;0,305398;0,0254795;-0,0713278;0,262055;0;0;0;0;0;0;0;0;0,272;0;0;0;-0,467279;-0,292562;-0,371155;-0,117887;-0,161361;-0,0080795;-0,187853;-0,0117489;-0,046201;0,0477707;-0,0125199;-0;0,545214;0,147604;3,304;-0,00663225;0,0226893;0;1,08397;0,88382;-1080;1080;-600;1700;-10;10;-10;-0;0;-0;250;-1,2;0,2;177;-1,2;-1;2555;0,07;4294967295;3750000128;0;16384;
16,7938;-4,71398;-0,310531;333;-89;2723;1200;-0,144544;-0,0822385;-0,279458;-0,0334408;-0,0363953;-0,0329966;-0,00356841;-0,00649895;0,310531;0,026438;-0,0789506;0,271155;0;0;0;0;0;0;0;0;0,272;0;0;0;-0,474295;-0,270733;-0,430027;-0,118106;-0,161189;-0,00830389;-0,187881;-0,0117041;-0,0459776;0,0478273;-0,0127417;-0;0,546463;0,147942;3,28909;-0,00663225;0,0226893;0;1,06866;0,876558;-1080;1080;-600;1700;-10;10;-10;-0;0;-0;250;-1,2;0,2;177;-1,2;-1;2555;0,07;4294967295;3750000128;0;16384;
16,8025;-4,70837;-0,316096;334;-80;2727;1250;-0,14548;-0,0740784;-0,287425;-0,0347093;-0,0370412;-0,0355026;-0,00435184;-0,00765611;0,316096;0,0271007;-0,0868977;0,278883;0;0;0;0;0;0;0;0;0,272;0;0;0;-0,478032;-0,243724;-0,440266;-0,11838;-0,160976;-0,00854142;-0,187912;-0,0116541;-0,0457265;0,0478924;-0,0129836;-0;0,546458;0,149389;3,27559;-0,00645772;0,0228638;0;1,05393;0,86937;-1080;1080;-600;1700;-10;10;-10;-0;0;-0;250;-1,2;0,2;177;-1,2;-1;2555;0,07;4294967295;3750000128;0;16384;
16,8124;-4,70153;-0,322616;335;-70;2732;1300;-0,146419;-0,0651029;-0,296017;-0,0361582;-0,0376854;-0,038432;-0,0053123;-0,0090422;0,322616;0,027715;-0,09562;0,287216;0;0;0;0;0;0;0;0;0,272;0;0;0;-0,481954;-0,21366;-0,453065;-0,118704;-0,160723;-0,00880183;-0,187949;-0,0115943;-0,0454257;0,0479713;-0,0132683;-0;0,547422;0,150794;3,26406;-0,00645772;0,0230383;0;1,03962;0,862211;-1080;1080;-600;1700;-10;10;-10;-0;0;-0;250;-1,2;0,2;177;-1,2;-1;2555;0,07;4294967295;3750000128;0;16384;
16,8224;-4,69453;-0,328668;335;-61;2736;1350;-0,146835;-0,0567021;-0,301525;-0,0376258;-0,0382522;-0,0414457;-0,00631299;-0,0104103;0,328668;0,0277802;-0,103746;0,292452;0;0;0;0;0;0;0;0;0,272;0;0;0;-0,48266;-0,186469;-0,463303;-0,119054;-0,160449;-0,00907259;-0,187984;-0,0115358;-0,0451294;0,0480519;-0,0135349;-0;0,548463;0,151081;3,25161;-0,00645772;0,0230383;0;1,02567;0,855062;-1080;1080;-600;1700;-10;10;-10;-0;0;-0;250;-1,2;0,2;177;-1,2;-1;2555;0,07;4294967295;3750000128;0;16384;
16,8324;-4,68885;-0,335427;338;-53;2739;1400;-0,148909;-0,0487904;-0,307075;-0,0391201;-0,0387418;-0,0445272;-0,00695508;-0,0122348;0,335427;0,029479;-0,111362;0,297706;0;0;0;0;0;0;0;0;0,272;0;0;0;-0,492348;-0,162196;-0,470982;-0,11943;-0,160152;-0,00936973;-0,188047;-0,0114458;-0,044723;0,048126;-0,0138275;-0;0,549132;0,151265;3,24361;-0,00645772;0,0230383;0;1,05389;0,869351;-1080;1080;-600;1700;-10;10;-10;-0;0;-0;250;-1,2;0,2;177;-1,2;-1;2555;0,07;4294967295;3750000128;0;16384;
16,8425;-4,67956;-0,331383;335;-44;2720;1426;-0,146162;-0,0408216;-0,274424;-0,0405972;-0,0391543;-0,0473006;-0,00850998;-0,0131251;0,331383;0,0264755;-0,11915;0,265241;0;0;0;0;0;0;0;0;0,273;0;0;0;-0,479837;-0,133723;-0,422348;-0,119686;-0,159971;-0,00918284;-0,188073;-0,0114238;-0,0445488;0,0482285;-0,0136869;-0;0,55095;0,152598;3,23555;-0,00663225;0,0232129;0;0,995563;0,839065;-1080;1080;-600;1700;-10;10;-10;-0;0;-0;250;-1,2;0,2;177;-1,2;-1;2555;0,07;4294967295;3750000128;0;16384;
16,8525;-4,6696;-0,327663;332;-35;2702;1379;-0,143181;-0,0324463;-0,245609;-0,0420282;-0,0394786;-0,0497552;-0,0101675;-0,0141262;0,327663;0,0231882;-0,127304;0,236577;0;0;0;0;0;0;0;0;0,273;0;0;0;-0,467625;-0,105669;-0,376274;-0,119993;-0,15975;-0,00903208;-0,188103;-0,0113973;-0,0443506;0,0483388;-0,0135609;-0;0,547016;0,152648;3,28249;-0,00663225;0,0233874;0;0,94693;0,811626;-1080;1080;-600;1700;-10;10;-10;-0;0;-0;250;-1,2;0,2;177;-1,2;-1;2555;0,07;4294967295;3750000128;0;16384;
16,8625;-4,6587;-0,326052;328;-26;2687;1331;-0,139581;-0,0240485;-0,220652;-0,0434204;-0,0397184;-0,051956;-0,0120064;-0,0151292;0,326052;0,0193065;-0,135492;0,211654;0;0;0;0;0;0;0;0;0,274;0;0;0;-0,453046;-0,0780628;-0,337879;-0,120274;-0,15954;-0,00899823;-0,188123;-0,0113731;-0,0441531;0,0484571;-0,0135241;-0;0,543544;0,151679;3,32392;-0,00663225;0,0233874;0;0,899974;0,783311;-1080;1080;-600;1700;-10;10;-10;-0;0;-0;250;-1,2;0,2;177;-1,2;-1;2555;0,07;4294967295;3750000128;0;16384;
16,8724;-4,65241;-0,321115;323;-22;2670;1283;-0,134805;-0,0202783;-0,192288;-0,0447562;-0,0399194;-0,0538613;-0,0131915;-0,0151901;0,321115;0,0144793;-0,139234;0,183476;0;0;0;0;0;0;0;0;0,274;0;0;0;-0,435294;-0,0656356;-0,294364;-0,120325;-0,159512;-0,00881147;-0,188117;-0,0113905;-0,044161;0,0485211;-0,013337;-0;0,540537;0,15084;3,3598;-0,00663225;0,0233874;0;0,855699;0,755029;-1080;1080;-600;1700;-10;10;-10;-0;0;-0;250;-1,2;0,2;177;-1,2;-1;2555;0,07;4294967295;3750000128;0;16384;
16,8825;-4,6474;-0,316213;318;-19;2654;1243;-0,13028;-0,0177285;-0,165473;-0,0460686;-0,040098;-0,0555283;-0,0141471;-0,0151831;0,316213;0,00992566;-0,141773;0,156858;0;0;0;0;0;0;0;0;0,274;0;0;0;-0,417886;-0,0563458;-0,253409;-0,120354;-0,159501;-0,00861516;-0,188111;-0,0114079;-0,0441807;0,048572;-0,0131475;-0;0,536004;0,151004;3,4006;-0,00645772;0,0235619;0;0,820703;0,731625;-1080;1080;-600;1700;-10;10;-10;-0;0;-0;250;-1,2;0,2;177;-1,2;-1;2555;0,07;4294967295;3750000128;0;16384;
16,8925;-4,64504;-0,311428;314;-18;2639;1222;-0,12674;-0,0169591;-0,140361;-0,0473454;-0,0402688;-0,0569423;-0,0146104;-0,0151262;0,311428;0,00638089;-0,142549;0,131945;0;0;0;0;0;0;0;0;0,274;0;0;0;-0,403751;-0,0530786;-0,215014;-0,12036;-0,159508;-0,00841613;-0,188112;-0,0114196;-0,0442039;0,0485968;-0,0129556;-0;0,531671;0,151207;3,43916;-0,00628319;0,0237365;0;0,802744;0,719265;-1080;1080;-600;1700;-10;10;-10;-0;0;-0;250;-1,2;0,2;177;-1,2;-1;2555;0,07;4294967295;3750000128;0;16384;
16,9023;-4,64292;-0,306817;310;-18;2625;1201;-0,12332;-0,0166087;-0,11702;-0,0485551;-0,0404318;-0,0580903;-0,0150375;-0,0150288;0,306817;0,00296209;-0,142912;0,108817;0;0;0;0;0;0;0;0;0,274;0;0;0;-0,389896;-0,052797;-0,179178;-0,120358;-0,15952;-0,00820237;-0,188111;-0,011433;-0,0442355;0,0486187;-0,0127699;-0;0,528656;0,151455;3,47529;-0,00628319;0,023911;0;0,78511;0,706903;-1080;1080;-600;1700;-10;10;-10;-0;0;-0;250;-1,2;0,2;177;-1,2;-1;2555;0,07;4294967295;3750000128;0;16384;
16,9124;-4,64084;-0,302339;307;-18;2612;1178;-0,119919;-0,0164901;-0,0953404;-0,0497577;-0,0405971;-0,0590464;-0,0154695;-0,0148821;0,302339;-0,000426049;-0,143049;0,0873188;0;0;0;0;0;0;0;0;0,274;0;0;0;-0,379224;-0,0525356;-0,145902;-0,120346;-0,159539;-0,0080216;-0,188106;-0,0114492;-0,0442784;0,0486395;-0,0125896;-0;0,525854;0,150652;3,50887;-0,00628319;0,023911;0;0,766049;0,693293;-1080;1080;-600;1700;-10;10;-10;-0;0;-0;250;-1,2;0,2;177;-1,2;-1;2555;0,07;4294967295;3750000128;0;16384;
16,9224;-4,6391;-0,297967;303;-18;2600;1153;-0,116577;-0,0168202;-0,0752127;-0,0509226;-0,0407652;-0,059798;-0,0158571;-0,0146461;0,297967;-0,00373913;-0,142751;0,0673897;0;0;0;0;0;0;0;0;0,274;0;0;0;-0,365879;-0,0522942;-0,115186;-0,120316;-0,159571;-0,00782297;-0,188098;-0,0114697;-0,0443407;0,0486555;-0,0124126;-0;0,524341;0,149906;3,54006;-0,00645772;0,023911;0;0,745716;0,678498;-1080;1080;-600;1700;-10;10;-10;-0;0;-0;250;-1,2;0,2;177;-1,2;-1;2555;0,07;4294967295;3750000128;0;16384;
16,9324;-4,63719;-0,292822;299;-18;2589;1126;-0,11332;-0,017175;-0,0567357;-0,0520593;-0,0409375;-0,060367;-0,0162762;-0,0144116;0,292822;-0,00696808;-0,142429;0,049171;0;0;0;0;0;0;0;0;0,273;0;0;0;-0,352776;-0,052073;-0,0870294;-0,120288;-0,159604;-0,00756466;-0,188091;-0,0114907;-0,0444037;0,0486737;-0,0122038;-0;0,523004;0,150303;3,56902;-0,00663225;0,0240855;0;0,724711;0,662919;-1080;1080;-600;1700;-10;10;-10;-0;0;-0;250;-1,2;0,2;177;-1,2;-1;2555;0,07;4294967295;3750000128;0;16384;
16,9425;-4,63565;-0,288828;296;-19;2579;1098;-0,110091;-0,0179482;-0,0398959;-0,0531683;-0,0411183;-0,0607689;-0,0166461;-0,0140883;0,288828;-0,0101453;-0,141701;0,0324453;0;0;0;0;0;0;0;0;0,273;0;0;0;-0,34278;-0,0547535;-0,0614325;-0,120236;-0,159649;-0,00745055;-0,188077;-0,0115156;-0,0444853;0,0486863;-0,0120416;-0;0,519695;0,148578;3,59561;-0,00645772;0,023911;0;0,702366;0,646025;-1080;1080;-600;1700;-10;10;-10;-0;0;-0;250;-1,2;0,2;177;-1,2;-1;2555;0,07;4294967295;3750000128;0;16384;
16,9525;-4,63416;-0,285055;293;-20;2570;1067;-0,106924;-0,0189238;-0,0246384;-0,0542408;-0,0413081;-0,0610161;-0,0170174;-0,0137231;0,285055;-0,0132527;-0,140777;0,0173419;0;0;0;0;0;0;0;0;0,273;0;0;0;-0,33298;-0,0574341;-0,0383953;-0,120177;-0,159701;-0,00729651;-0,188061;-0,0115429;-0,0445764;0,0486977;-0,0118885;-0;0,517668;0,147999;3,61985;-0,00645772;0,023911;0;0,678639;0,627734;-1080;1080;-600;1700;-10;10;-10;-0;0;-0;250;-1,2;0,2;177;-1,2;-1;2555;0,07;4294967295;3750000128;0;16384;
16,9625;-4,63293;-0,281483;289;-22;2562;1035;-0,103916;-0,0201463;-0,0109111;-0,0552796;-0,0415095;-0,0611251;-0,0173485;-0,0133192;0,281483;-0,0161908;-0,139613;0,00374021;0;0;0;0;0;0;0;0;0,273;0;0;0;-0,320506;-0,0629807;-0,0179178;-0,120106;-0,159759;-0,00717092;-0,188043;-0,0115716;-0,0446755;0,048706;-0,0117429;-0;0,514759;0,147474;3,64181;-0,00628319;0,023911;0;0,65476;0,608969;-1080;1080;-600;1700;-10;10;-10;-0;0;-0;250;-1,2;0,2;177;-1,2;-1;2555;0,07;4294967295;3750000128;0;16384;
16,9725;-4,63193;-0,277149;286;-23;2554;1000;-0,100969;-0,0216317;0,00130806;-0,0562866;-0,0417252;-0,0611121;-0,0176506;-0,0128515;0,277149;-0,0190559;-0,138196;-0,00832782;0;0;0;0;0;0;0;0;0,272;0;0;0;-0,310954;-0,0656377;0,00255969;-0,120025;-0,159827;-0,00701976;-0,188023;-0,0116035;-0,044789;0,0487115;-0,0115651;-0;0,51311;0,145928;3,66157;-0,00628319;0,0237365;0;0,629342;0,588613;-1080;1080;-600;1700;-10;10;-10;-0;0;-0;250;-1,2;0,2;177;-1,2;-1;2555;0,07;4294967295;3750000128;0;16384;
16,9825;-4,63101;-0,273046;283;-25;2548;964;-0,0982034;-0,0232366;0,0120637;-0,0572715;-0,0419583;-0,0609911;-0,0179412;-0,0123639;0,273046;-0,0217353;-0,136663;-0,0189136;0;0;0;0;0;0;0;0;0,271;0;0;0;-0,301691;-0,0711775;0,0179178;-0,119939;-0,159899;-0,00684995;-0,188002;-0,0116363;-0,0449067;0,0487156;-0,0113965;-0;0,511641;0,145511;3,67917;-0,00628319;0,0237365;0;0,603396;0,567442;-1080;1080;-600;1700;-10;10;-10;-0;0;-0;250;-1,2;0,2;177;-1,2;-1;2555;0,07;4294967295;3750000128;0;16384;
16,9925;-4,63091;-0,270212;280;-27;2542;926;-0,0955959;-0,0254267;0,0211923;-0,0582279;-0,0422127;-0,0607791;-0,0181024;-0,0117699;0,270212;-0,0242301;-0,134562;-0,0279232;0;0;0;0;0;0;0;0;0,271;0;0;0;-0,292468;-0,0766905;0,0332759;-0,119826;-0,159989;-0,00673085;-0,187975;-0,0116726;-0,0450457;0,0487097;-0,0112788;-0;0,510349;0,145143;3,69466;-0,00628319;0,0237365;0;0,576505;0,545097;-1080;1080;-600;1700;-10;10;-10;-0;0;-0;250;-1,2;0,2;177;-1,2;-1;2555;0,07;4294967295;3750000128;0;16384;
17,0025;-4,63002;-0,266632;278;-29;2538;887;-0,0930934;-0,0271201;0,0290673;-0,0591555;-0,0424829;-0,0604895;-0,0183954;-0,0112615;0,266632;-0,0266711;-0,132921;-0,0356573;0;0;0;0;0;0;0;0;0,27;0;0;0;-0,286342;-0,0822413;0,0435147;-0,119764;-0,160041;-0,00659;-0,187952;-0,0117065;-0,0451678;0,0487131;-0,0111319;-0;0,510313;0,143766;3,7078;-0,00645772;0,0235619;0;0,549333;0,522119;-1080;1080;-600;1700;-10;10;-10;-0;0;-0;250;-1,2;0,2;177;-1,2;-1;2555;0,07;4294967295;3750000128;0;16384;
17,0123;-4,63175;-0,26244;275;-33;2534;846;-0,0909782;-0,0304847;0,0350542;-0,060054;-0,0427839;-0,0601433;-0,0182539;-0,0104759;0,26244;-0,0286259;-0,129681;-0,0415127;0;0;0;0;0;0;0;0;0,268;0;0;0;-0,277404;-0,0934367;0,0537534;-0,119604;-0,160166;-0,0064585;-0,187924;-0,0117483;-0,045346;0,0486875;-0,0109535;-0;0,508305;0,142436;3,71915;-0,00628319;0,0233874;0;0,521007;0,497753;-1080;1080;-600;1700;-10;10;-10;-0;0;-0;250;-1,2;0,2;177;-1,2;-1;2555;0,07;4294967295;3750000128;0;16384;
17,0224;-4,62998;-0,258325;273;-34;2531;803;-0,0886562;-0,0316721;0,0403668;-0,0609437;-0,0431018;-0,0597381;-0,0186996;-0,0100342;0,258325;-0,030873;-0,128556;-0,0466777;0;0;0;0;0;0;0;0;0,266;0;0;0;-0,271424;-0,096154;0,0614325;-0,119529;-0,160228;-0,00631094;-0,187901;-0,0117812;-0,0454556;0,0487004;-0,0107862;-0;0,506527;0,142234;3,72778;-0,00610865;0,0233874;0;0,492495;0,472826;-1080;1080;-600;1700;-10;10;-10;-0;0;-0;250;-1,2;0,2;177;-1,2;-1;2555;0,07;4294967295;3750000128;0;16384;
17,0324;-4,63051;-0,256632;271;-37;2529;760;-0,0867929;-0,0342242;0,043811;-0,0618124;-0,0434444;-0,0592996;-0,0187573;-0,00937692;0,256632;-0,0326062;-0,126103;-0,0500487;0;0;0;0;0;0;0;0;0,266;0;0;0;-0,265563;-0,104555;0,0665519;-0,119399;-0,160328;-0,00623778;-0,18787;-0,011819;-0,0456065;0,0486867;-0,0107146;-0;0,505889;0,142055;3,73544;-0,00610865;0,0233874;0;0,463573;0,447147;-1080;1080;-600;1700;-10;10;-10;-0;0;-0;250;-1,2;0,2;177;-1,2;-1;2555;0,07;4294967295;3750000128;0;16384;
17,0424;-4,63112;-0,253243;269;-40;2527;715;-0,085091;-0,0367902;0,0459918;-0,062665;-0,043813;-0,0588388;-0,0187996;-0,00872289;0,253243;-0,0341799;-0,123638;-0,0520855;0;0;0;0;0;0;0;0;0,264;0;0;0;-0,25971;-0,112942;0,0716712;-0,119271;-0,160429;-0,00609373;-0,187843;-0,0118564;-0,0457572;0,0486732;-0,0105721;-0;0,505475;0,141939;3,74041;-0,00610865;0,0233874;0;0,434429;0,420892;-1080;1080;-600;1700;-10;10;-10;-0;0;-0;250;-1,2;0,2;177;-1,2;-1;2555;0,07;4294967295;3750000128;0;16384;
17,0524;-4,63204;-0,251177;267;-43;2527;670;-0,0836553;-0,039448;0,0467721;-0,0635047;-0,0442089;-0,0583693;-0,018785;-0,00806243;0,251177;-0,0354814;-0,121084;-0,0527691;0;0;0;0;0;0;0;0;0,263;0;0;0;-0,254067;-0,121412;0,0716712;-0,119137;-0,160532;-0,00599697;-0,187813;-0,0118931;-0,0459076;0,0486558;-0,0104842;-0;0,504158;0,142924;3,74356;-0,00593412;0,0235619;0;0,405419;0,394404;-1080;1080;-600;1700;-10;10;-10;-0;0;-0;250;-1,2;0,2;177;-1,2;-1;2555;0,07;4294967295;3750000128;0;16384;
17,0625;-4,63334;-0,248462;266;-46;2527;624;-0,0824609;-0,0422558;0,0462105;-0,0643351;-0,0446344;-0,057904;-0,0187026;-0,00738757;0,248462;-0,0365392;-0,118382;-0,0520901;0;0;0;0;0;0;0;0;0,261;0;0;0;-0,251245;-0,129881;0,0716712;-0,119;-0,160638;-0,00587951;-0,187785;-0,0119293;-0,0460604;0,048635;-0,0103684;-0;0,504063;0,142897;3,74469;-0,00593412;0,0235619;0;0,376191;0,36738;-1080;1080;-600;1700;-10;10;-10;-0;0;-0;250;-1,2;0,2;177;-1,2;-1;2555;0,07;4294967295;3750000128;0;16384;
17,0724;-4,6349;-0,248101;265;-49;2529;578;-0,0815366;-0,0451164;0,0442606;-0,0651419;-0,0450809;-0,057466;-0,018568;-0,00672045;0,248101;-0,0373245;-0,115625;-0,0501202;0;0;0;0;0;0;0;0;0,261;0;0;0;-0,24862;-0,13846;0,0665519;-0,118861;-0,160741;-0,00585959;-0,187754;-0,0119639;-0,0462094;0,0486104;-0,0103501;-0;0,504129;0,142916;3,7439;-0,00593412;0,0235619;0;0,34727;0,340332;-1080;1080;-600;1700;-10;10;-10;-0;0;-0;250;-1,2;0,2;177;-1,2;-1;2555;0,07;4294967295;3750000128;0;16384;
17,0825;-4,63667;-0,246094;265;-52;2530;533;-0,0808911;-0,0479226;0,0411154;-0,0659543;-0,0455622;-0,0570531;-0,0183894;-0,00607548;0,246094;-0,0378657;-0,1129;-0,0468378;0;0;0;0;0;0;0;0;0,259;0;0;0;-0,248719;-0,146994;0,0639922;-0,118757;-0,160823;-0,00572235;-0,187727;-0,0119965;-0,0463533;0,0485851;-0,010263;-0;0,505417;0,144041;3,7411;-0,00610865;0,0237365;0;0,319089;0,313702;-1080;1080;-600;1700;-10;10;-10;-0;0;-0;250;-1,2;0,2;177;-1,2;-1;2555;0,07;4294967295;3750000128;0;16384;
17,0924;-4,63907;-0,245492;264;-55;2533;489;-0,0806375;-0,0509196;0,0365954;-0,0667583;-0,0460699;-0,0566882;-0,0180871;-0,00543753;0,245492;-0,0380381;-0,109966;-0,0422586;0;0;0;0;0;0;0;0;0,258;0;0;0;-0,246185;-0,155657;0,0563131;-0,118676;-0,160885;-0,00566327;-0,187701;-0,0120264;-0,0464928;0,0485531;-0,010233;-0;0,505794;0,145208;3,73658;-0,00610865;0,023911;0;0,292034;0,287901;-1080;1080;-600;1700;-10;10;-10;-0;0;-0;250;-1,2;0,2;177;-1,2;-1;2555;0,07;4294967295;3750000128;0;16384;
17,1024;-4,64156;-0,24506;264;-58;2536;446;-0,0806221;-0,0537837;0,0314712;-0,0675609;-0,0466053;-0,0563749;-0,0177609;-0,0048361;0,24506;-0,0379493;-0,107178;-0,0371308;0;0;0;0;0;0;0;0;0,257;0;0;0;-0,246477;-0,16434;0,0486341;-0,118571;-0,160962;-0,00565967;-0,187676;-0,0120537;-0,0466235;0,0485207;-0,0102099;-0;0,505278;0,145363;3,73008;-0,00593412;0,023911;0;0,265844;0,262724;-1080;1080;-600;1700;-10;10;-10;-0;0;-0;250;-1,2;0,2;177;-1,2;-1;2555;0,07;4294967295;3750000128;0;16384;
17,1124;-4,64508;-0,245774;265;-62;2539;406;-0,0810586;-0,0570015;0,02611;-0,0683706;-0,0471747;-0,0561141;-0,0172368;-0,00424285;0,245774;-0,0373774;-0,10406;-0,0317905;0;0;0;0;0;0;0;0;0,257;0;0;0;-0,249604;-0,175879;0,040955;-0,118436;-0,161061;-0,00568056;-0,187654;-0,0120768;-0,0467483;0,048478;-0,0102323;-0;0,50589;0,145539;3,72271;-0,00593412;0,023911;0;0,241353;0,239017;-1080;1080;-600;1700;-10;10;-10;-0;0;-0;250;-1,2;0,2;177;-1,2;-1;2555;0,07;4294967295;3750000128;0;16384;
17,1223;-4,64709;-0,246371;265;-64;2542;372;-0,0815997;-0,0590991;0,0210214;-0,0691852;-0,0477647;-0,0559043;-0,0169622;-0,00380473;0,246371;-0,0367689;-0,102012;-0,026673;0;0;0;0;0;0;0;0;0,257;0;0;0;-0,249898;-0,181765;0,0332759;-0,118369;-0,161112;-0,00565164;-0,187635;-0,0120959;-0,0468423;0,0484521;-0,010253;-0;0,507591;0,146787;3,715;-0,00610865;0,0240855;0;0,220654;0,218868;-1080;1080;-600;1700;-10;10;-10;-0;0;-0;250;-1,2;0,2;177;-1,2;-1;2555;0,07;4294967295;3750000128;0;16384;
17,1325;-4,64979;-0,246128;266;-66;2546;343;-0,0825635;-0,0612586;0,0158424;-0,0700264;-0,0483888;-0,0557428;-0,0165464;-0,00340912;0,246128;-0,0357436;-0,0999004;-0,0214289;0;0;0;0;0;0;0;0;0,256;0;0;0;-0,253134;-0,187739;0,0230372;-0,118307;-0,161159;-0,00558648;-0,187622;-0,0121101;-0,0469246;0,0484208;-0,0102373;-0;0,509262;0,148028;3,70768;-0,00628319;0,0242601;0;0,20319;0,201795;-1080;1080;-600;1700;-10;10;-10;-0;0;-0;250;-1,2;0,2;177;-1,2;-1;2555;0,07;4294967295;3750000128;0;16384;
17,1425;-4,65314;-0,245989;268;-69;2549;319;-0,0839575;-0,0635425;0,0105896;-0,0708595;-0,0490194;-0,0556378;-0,0159946;-0,00306277;0,245989;-0,034321;-0,0976379;-0,016163;0;0;0;0;0;0;0;0;0,255;0;0;0;-0,259125;-0,196501;0,0153581;-0,118278;-0,16118;-0,00557349;-0,187614;-0,0121192;-0,0469935;0,048384;-0,0102247;-0;0,509884;0,148209;3,70022;-0,00628319;0,0242601;0;0,189197;0,188071;-1080;1080;-600;1700;-10;10;-10;-0;0;-0;250;-1,2;0,2;177;-1,2;-1;2555;0,07;4294967295;3750000128;0;16384;
17,1525;-4,65626;-0,246761;270;-71;2552;302;-0,0855133;-0,0654397;0,0058914;-0,0717173;-0,0496758;-0,0555787;-0,0154641;-0,00280089;0,246761;-0,0326972;-0,0957898;-0,0114897;0;0;0;0;0;0;0;0;0,255;0;0;0;-0,265129;-0,202433;0,00767906;-0,11821;-0,161229;-0,00559828;-0,187609;-0,0121239;-0,0470432;0,0483501;-0,0102502;-0;0,510515;0,148393;3,69266;-0,00628319;0,0242601;0;0,17918;0,178222;-1080;1080;-600;1700;-10;10;-10;-0;0;-0;250;-1,2;0,2;177;-1,2;-1;2555;0,07;4294967295;3750000128;0;16384;
17,1625;-4,65947;-0,246473;272;-72;2554;294;-0,0873394;-0,0670583;0,00177432;-0,0725912;-0,0503468;-0,0555609;-0,0148981;-0,00261922;0,246473;-0,0308494;-0,0941885;-0,00733316;0;0;0;0;0;0;0;0;0,254;0;0;0;-0,271039;-0,205444;0,00255969;-0,118189;-0,161247;-0,00555884;-0,187611;-0,0121236;-0,0470748;0,0483173;-0,0102317;-0;0,512145;0,148557;3,6859;-0,00645772;0,0242601;0;0,17403;0,173153;-1080;1080;-600;1700;-10;10;-10;-0;0;-0;250;-1,2;0,2;177;-1,2;-1;2555;0,07;4294967295;3750000128;0;16384;
17,1724;-4,66233;-0,246081;274;-74;2556;300;-0,0894608;-0,0681438;-0,00175509;-0,0734741;-0,0510193;-0,0555782;-0,0143626;-0,00257564;0,246081;-0,0287336;-0,0930987;-0,00380985;0;0;0;0;0;0;0;0;0,253;0;0;0;-0,276959;-0,211314;-0,00255969;-0,118194;-0,161242;-0,00556494;-0,187619;-0,0121164;-0,0470757;0,0482897;-0,0102096;-0;0,51264;0,147631;3,67997;-0,00645772;0,0240855;0;0,177444;0,176514;-1080;1080;-600;1700;-10;10;-10;-0;0;-0;250;-1,2;0,2;177;-1,2;-1;2555;0,07;4294967295;3750000128;0;16384;
17,1825;-4,66496;-0,245608;276;-74;2558;312;-0,0916133;-0,0688894;-0,00477691;-0,0743988;-0,0517146;-0,0556264;-0,0138576;-0,00258982;0,245608;-0,0266259;-0,0923203;-0,000784205;0;0;0;0;0;0;0;0;0,252;0;0;0;-0,282887;-0,21148;-0,00767906;-0,118239;-0,16121;-0,00556112;-0,18763;-0,0121067;-0,0470643;0,0482654;-0,0101847;-0;0,511998;0,147753;3,67489;-0,00628319;0,0240855;0;0,184756;0,183707;-1080;1080;-600;1700;-10;10;-10;-0;0;-0;250;-1,2;0,2;177;-1,2;-1;2555;0,07;4294967295;3750000128;0;16384;
17,1925;-4,66734;-0,246053;279;-75;2559;331;-0,0937727;-0,0693261;-0,00730859;-0,0753398;-0,0524103;-0,0556998;-0,0133872;-0,00266124;0,246053;-0,0244682;-0,0918818;0,0017339;0;0;0;0;0;0;0;0;0,252;0;0;0;-0,291567;-0,21442;-0,0102387;-0,118241;-0,161208;-0,00557469;-0,187642;-0,0120943;-0,0470401;0,0482438;-0,0101982;-0;0,512362;0,147858;3,67054;-0,00628319;0,0240855;0;0,196231;0,194975;-1080;1080;-600;1700;-10;10;-10;-0;0;-0;250;-1,2;0,2;177;-1,2;-1;2555;0,07;4294967295;3750000128;0;16384;
17,2024;-4,6695;-0,244414;281;-75;2561;355;-0,0958772;-0,0695119;-0,00930015;-0,0762873;-0,0530973;-0,0557917;-0,012948;-0,0027684;0,244414;-0,0224022;-0,0916705;0,00380471;0;0;0;0;0;0;0;0;0,25;0;0;0;-0,297513;-0,214588;-0,0153581;-0,118279;-0,161182;-0,00549544;-0,187659;-0,0120808;-0,0470094;0,0482259;-0,0101261;-0;0,511598;0,149018;3,66689;-0,00610865;0,0242601;0;0,210638;0,209084;-1080;1080;-600;1700;-10;10;-10;-0;0;-0;250;-1,2;0,2;177;-1,2;-1;2555;0,07;4294967295;3750000128;0;16384;
17,2124;-4,67149;-0,24371;283;-75;2562;382;-0,0978636;-0,0694749;-0,0109358;-0,0772676;-0,0537932;-0,0559012;-0,0125388;-0,00289199;0,24371;-0,020459;-0,0916779;0,00550118;0;0;0;0;0;0;0;0;0,249;0;0;0;-0,303349;-0,214672;-0,0179178;-0,118323;-0,161153;-0,00543465;-0,187675;-0,0120668;-0,046975;0,0482094;-0,0100929;-0;0,511837;0,15016;3,66402;-0,00610865;0,0244346;0;0,226679;0,224743;-1080;1080;-600;1700;-10;10;-10;-0;0;-0;250;-1,2;0,2;177;-1,2;-1;2555;0,07;4294967295;3750000128;0;16384;
17,2224;-4,67334;-0,241941;285;-75;2562;412;-0,0997655;-0,069274;-0,0121789;-0,0782663;-0,0544866;-0,0560232;-0,0121508;-0,0030367;0,241941;-0,0186047;-0,0918458;0,00679989;0;0;0;0;0;0;0;0;0,247;0;0;0;-0,309068;-0,214672;-0,0179178;-0,11837;-0,16112;-0,00537902;-0,187693;-0,0120522;-0,0469368;0,048195;-0,0100162;-0;0,510963;0,150217;3,66166;-0,00593412;0,0244346;0;0,2449;0,242459;-1080;1080;-600;1700;-10;10;-10;-0;0;-0;250;-1,2;0,2;177;-1,2;-1;2555;0,07;4294967295;3750000128;0;16384;
17,2324;-4,67505;-0,242116;287;-75;2563;445;-0,101552;-0,0689439;-0,0131553;-0,0792856;-0,0551786;-0,0561552;-0,0117848;-0,00319776;0,242116;-0,0168415;-0,0921588;0,00777219;0;0;0;0;0;0;0;0;0,247;0;0;0;-0,31491;-0,214756;-0,0204775;-0,118393;-0,161103;-0,00538311;-0,187708;-0,0120369;-0,0468943;0,0481812;-0,01002;-0;0,511112;0,150261;3,65987;-0,00593412;0,0244346;0;0,264965;0,261876;-1080;1080;-600;1700;-10;10;-10;-0;0;-0;250;-1,2;0,2;177;-1,2;-1;2555;0,07;4294967295;3750000128;0;16384;
17,2425;-4,6765;-0,241225;289;-74;2563;481;-0,103263;-0,068364;-0,0137727;-0,0803232;-0,0558655;-0,0562936;-0,0114601;-0,00338677;0,241225;-0,0152175;-0,092677;0,00845635;0;0;0;0;0;0;0;0;0,246;0;0;0;-0,320631;-0,211893;-0,0204775;-0,11848;-0,161041;-0,0053163;-0,187725;-0,012021;-0,0468467;0,0481707;-0,00998028;-0;0,51123;0,151369;3,65846;-0,00593412;0,0246091;0;0,287348;0,28341;-1080;1080;-600;1700;-10;10;-10;-0;0;-0;250;-1,2;0,2;177;-1,2;-1;2555;0,07;4294967295;3750000128;0;16384;
17,2525;-4,67783;-0,239274;291;-73;2564;520;-0,10484;-0,0676946;-0,0140731;-0,0813694;-0,0565411;-0,056434;-0,011158;-0,00358602;0,239274;-0,0136764;-0,0933223;0,00883222;0;0;0;0;0;0;0;0;0,244;0;0;0;-0,326479;-0,209112;-0,0230372;-0,118516;-0,161017;-0,00524092;-0,187745;-0,012005;-0,0467977;0,0481622;-0,00989715;-0;0,512374;0,150317;3,65757;-0,00610865;0,0244346;0;0,310959;0,305972;-1080;1080;-600;1700;-10;10;-10;-0;0;-0;250;-1,2;0,2;177;-1,2;-1;2555;0,07;4294967295;3750000128;0;16384;
17,2625;-4,67906;-0,239274;292;-72;2564;561;-0,106319;-0,0669396;-0,0142033;-0,0824346;-0,0572117;-0,0565763;-0,0108696;-0,00380304;0,239274;-0,0122338;-0,0940504;0,0089644;0;0;0;0;0;0;0;0;0,244;0;0;0;-0,329341;-0,206249;-0,0230372;-0,118553;-0,16099;-0,00523891;-0,187762;-0,011988;-0,046744;0,0481538;-0,0098947;-0;0,51241;0,150328;3,65713;-0,00610865;0,0244346;0;0,336566;0,330248;-1080;1080;-600;1700;-10;10;-10;-0;0;-0;250;-1,2;0,2;177;-1,2;-1;2555;0,07;4294967295;3750000128;0;16384;
17,2723;-4,68009;-0,237235;294;-71;2563;600;-0,107586;-0,066083;-0,0140327;-0,0834946;-0,0578629;-0,0567146;-0,0106213;-0,00401249;0,237235;-0,0110061;-0,0948813;0,00890023;0;0;0;0;0;0;0;0;0,242;0;0;0;-0,334933;-0,203306;-0,0204775;-0,118592;-0,160964;-0,00513242;-0,187782;-0,0119725;-0,0466937;0,0481482;-0,00980855;-0;0,513496;0,150333;3,65694;-0,00628319;0,0244346;0;0,361204;0,353401;-1080;1080;-600;1700;-10;10;-10;-0;0;-0;250;-1,2;0,2;177;-1,2;-1;2555;0,07;4294967295;3750000128;0;16384;
17,2824;-4,68092;-0,236137;295;-70;2563;641;-0,108746;-0,0651226;-0,0136833;-0,0845836;-0,058515;-0,0568516;-0,0104071;-0,00424277;0,236137;-0,009862;-0,0958314;0,00859025;0;0;0;0;0;0;0;0;0,241;0;0;0;-0,337793;-0,200443;-0,0204775;-0,118608;-0,160954;-0,00509305;-0,1878;-0,0119563;-0,0466387;0,0481443;-0,00976167;-0;0,514546;0,149253;3,65718;-0,00645772;0,0242601;0;0,387109;0,377513;-1080;1080;-600;1700;-10;10;-10;-0;0;-0;250;-1,2;0,2;177;-1,2;-1;2555;0,07;4294967295;3750000128;0;16384;
17,2925;-4,68166;-0,236009;296;-69;2563;681;-0,10976;-0,0641159;-0,013264;-0,0856961;-0,0591649;-0,0569861;-0,0102092;-0,00446792;0,236009;-0,00888843;-0,0968074;0,00814919;0;0;0;0;0;0;0;0;0,241;0;0;0;-0,340653;-0,197581;-0,0204775;-0,118649;-0,160923;-0,00511485;-0,187815;-0,0119406;-0,0465848;0,0481407;-0,00975493;-0;0,514504;0,148168;3,65768;-0,00645772;0,0240855;0;0,412524;0,400923;-1080;1080;-600;1700;-10;10;-10;-0;0;-0;250;-1,2;0,2;177;-1,2;-1;2555;0,07;4294967295;3750000128;0;16384;
17,3024;-4,68215;-0,235855;297;-68;2563;719;-0,110616;-0,0629994;-0,0126848;-0,086795;-0,0597907;-0,0571121;-0,0100593;-0,00469825;0,235855;-0,00807594;-0,0978925;0,00757683;0;0;0;0;0;0;0;0;0,241;0;0;0;-0,343513;-0,194718;-0,0204775;-0,118692;-0,160892;-0,00510801;-0,18783;-0,0119254;-0,0465304;0,0481395;-0,0097476;-0;0,514454;0,148153;3,65828;-0,00645772;0,0240855;0;0,436947;0,423176;-1080;1080;-600;1700;-10;10;-10;-0;0;-0;250;-1,2;0,2;177;-1,2;-1;2555;0,07;4294967295;3750000128;0;16384;
17,3123;-4,68249;-0,23567;298;-67;2562;758;-0,111415;-0,0617903;-0,011942;-0,0879007;-0,0604039;-0,0572306;-0,00993262;-0,00494984;0,23567;-0,00732604;-0,0990651;0,00683439;0;0;0;0;0;0;0;0;0,241;0;0;0;-0,346238;-0,19178;-0,0179178;-0,118741;-0,160855;-0,00510764;-0,187846;-0,0119095;-0,0464717;0,0481401;-0,00973935;-0;0,515454;0,14706;3,65912;-0,00663225;0,023911;0;0,462321;0,446026;-1080;1080;-600;1700;-10;10;-10;-0;0;-0;250;-1,2;0,2;177;-1,2;-1;2555;0,07;4294967295;3750000128;0;16384;
17,3224;-4,68275;-0,236487;298;-66;2562;789;-0,111937;-0,0606558;-0,0112288;-0,0890265;-0,061014;-0,0573435;-0,00983305;-0,0051523;0,236487;-0,00684198;-0,100171;0,00608756;0;0;0;0;0;0;0;0;0,242;0;0;0;-0,346238;-0,188919;-0,0179178;-0,118779;-0,160827;-0,00514124;-0,187857;-0,0118966;-0,0464241;0,0481402;-0,0097725;-0;0,515365;0,147034;3,66018;-0,00663225;0,023911;0;0,482645;0,464124;-1080;1080;-600;1700;-10;10;-10;-0;0;-0;250;-1,2;0,2;177;-1,2;-1;2555;0,07;4294967295;3750000128;0;16384;
17,3324;-4,68282;-0,236274;299;-64;2561;820;-0,112413;-0,0594168;-0,0103496;-0,0901453;-0,0616053;-0,0574465;-0,00976359;-0,00538034;0,236274;-0,00641148;-0,101377;0,00523745;0;0;0;0;0;0;0;0;0,242;0;0;0;-0,34896;-0,183124;-0,0153581;-0,118825;-0,160793;-0,00511211;-0,187871;-0,011883;-0,0463716;0,048143;-0,00976361;-0;0,516348;0,14701;3,66121;-0,00680678;0,023911;0;0,503658;0,482633;-1080;1080;-600;1700;-10;10;-10;-0;0;-0;250;-1,2;0,2;177;-1,2;-1;2555;0,07;4294967295;3750000128;0;16384;
17,3425;-4,68279;-0,23605;299;-63;2561;848;-0,112761;-0,0582058;-0,0094382;-0,0912849;-0,0621936;-0,0575419;-0,0097167;-0,00559573;0,23605;-0,00610707;-0,102556;0,00433484;0;0;0;0;0;0;0;0;0,242;0;0;0;-0,34896;-0,180263;-0,0153581;-0,118868;-0,160762;-0,00510335;-0,187883;-0,0118705;-0,0463224;0,0481465;-0,0097544;-0;0,516242;0,14698;3,66247;-0,00680678;0,023911;0;0,522502;0,49905;-1080;1080;-600;1700;-10;10;-10;-0;0;-0;250;-1,2;0,2;177;-1,2;-1;2555;0,07;4294967295;3750000128;0;16384;
17,3525;-4,68267;-0,236819;299;-62;2560;872;-0,112941;-0,0570324;-0,00853166;-0,0924131;-0,0627633;-0,0576271;-0,00968973;-0,00579492;0,236819;-0,0059668;-0,103698;0,00338859;0;0;0;0;0;0;0;0;0,243;0;0;0;-0,348824;-0,177334;-0,0127984;-0,118908;-0,160731;-0,00514307;-0,187893;-0,011859;-0,0462767;0,0481501;-0,00978636;-0;0,517201;0,145876;3,66378;-0,00698132;0,0237365;0;0,538983;0,513263;-1080;1080;-600;1700;-10;10;-10;-0;0;-0;250;-1,2;0,2;177;-1,2;-1;2555;0,07;4294967295;3750000128;0;16384;
17,3624;-4,68232;-0,236583;299;-60;2560;892;-0,112986;-0,0557887;-0,00760628;-0,0935375;-0,0633185;-0,0577028;-0,00970825;-0,00598729;0,236583;-0,00598948;-0,104891;0,00244353;0;0;0;0;0;0;0;0;0,243;0;0;0;-0,348824;-0,171614;-0,0127984;-0,118976;-0,16068;-0,00516275;-0,187903;-0,0118489;-0,0462337;0,0481563;-0,00977728;-0;0,517092;0,144773;3,66508;-0,00698132;0,0235619;0;0,552624;0,524923;-1080;1080;-600;1700;-10;10;-10;-0;0;-0;250;-1,2;0,2;177;-1,2;-1;2555;0,07;4294967295;3750000128;0;16384;
17,3724;-4,68196;-0,237352;299;-59;2559;908;-0,112912;-0,0546596;-0,00671533;-0,0946694;-0,0638664;-0,0577701;-0,00973513;-0,00615743;0,237352;-0,0060996;-0,105993;0,00154055;0;0;0;0;0;0;0;0;0,244;0;0;0;-0,348688;-0,168689;-0,0102387;-0,119012;-0,160653;-0,00517479;-0,18791;-0,01184;-0,0461954;0,0481618;-0,00980969;-0;0,518048;0,144741;3,66641;-0,00715585;0,0235619;0;0,563971;0,534547;-1080;1080;-600;1700;-10;10;-10;-0;0;-0;250;-1,2;0,2;177;-1,2;-1;2555;0,07;4294967295;3750000128;0;16384;
17,3824;-4,68152;-0,23713;299;-58;2559;921;-0,112688;-0,0536015;-0,00585521;-0,095788;-0,0643985;-0,0578283;-0,00978317;-0,0063066;0,23713;-0,00635532;-0,107028;0,000688362;0;0;0;0;0;0;0;0;0,244;0;0;0;-0,348688;-0,16583;-0,0102387;-0,119043;-0,16063;-0,00516685;-0,187917;-0,0118327;-0,0461627;0,0481682;-0,00980144;-0;0,51794;0,144711;3,66769;-0,00715585;0,0235619;0;0,572596;0,541816;-1080;1080;-600;1700;-10;10;-10;-0;0;-0;250;-1,2;0,2;177;-1,2;-1;2555;0,07;4294967295;3750000128;0;16384;
17,3924;-4,68095;-0,23691;299;-57;2558;931;-0,112384;-0,0525455;-0,00505338;-0,0969164;-0,0649261;-0,057879;-0,00985486;-0,00645125;0,23691;-0,00669078;-0,108061;-0,000133837;0;0;0;0;0;0;0;0;0,244;0;0;0;-0,348552;-0,162908;-0,00767906;-0,119075;-0,160606;-0,00518722;-0,187923;-0,0118261;-0,0461313;0,0481757;-0,00979346;-0;0,517836;0,143611;3,66893;-0,00715585;0,0233874;0;0,57962;0,547706;-1080;1080;-600;1700;-10;10;-10;-0;0;-0;250;-1,2;0,2;177;-1,2;-1;2555;0,07;4294967295;3750000128;0;16384;
17,4024;-4,68039;-0,236701;298;-56;2558;936;-0,111954;-0,0516092;-0,0043481;-0,0980413;-0,0654446;-0,0579227;-0,00993472;-0,00656232;0,236701;-0,00714415;-0,108978;-0,000880679;0;0;0;0;0;0;0;0;0,244;0;0;0;-0,345697;-0,160051;-0,00767906;-0,119098;-0,160587;-0,00522877;-0,187928;-0,0118215;-0,0461077;0,0481827;-0,00978596;-0;0,516671;0,142512;3,67009;-0,00698132;0,0232129;0;0,583752;0,551158;-1080;1080;-600;1700;-10;10;-10;-0;0;-0;250;-1,2;0,2;177;-1,2;-1;2555;0,07;4294967295;3750000128;0;16384;
17,4124;-4,67965;-0,237502;298;-55;2557;940;-0,111435;-0,0506385;-0,00373809;-0,0991492;-0,0659481;-0,0579599;-0,0100488;-0,00667016;0,237502;-0,00768675;-0,109929;-0,00155346;0;0;0;0;0;0;0;0;0,245;0;0;0;-0,345562;-0,157132;-0,00511937;-0,119122;-0,160567;-0,00529154;-0,18793;-0,0118175;-0,0460849;0,0481908;-0,00982042;-0;0,516585;0,141418;3,6711;-0,00698132;0,0230383;0;0,585998;0,553031;-1080;1080;-600;1700;-10;10;-10;-0;0;-0;250;-1,2;0,2;177;-1,2;-1;2555;0,07;4294967295;3750000128;0;16384;
17,4224;-4,67899;-0,237336;297;-54;2557;938;-0,110798;-0,0498591;-0,00320819;-0,100258;-0,0664469;-0,057992;-0,0101602;-0,00673147;0,237336;-0,00833981;-0,110697;-0,00207797;0;0;0;0;0;0;0;0;0,245;0;0;0;-0,342709;-0,154275;-0,00511937;-0,119138;-0,160556;-0,00528616;-0,187932;-0,0118161;-0,046073;0,048198;-0,00981489;-0;0,516512;0,141397;3,67198;-0,00698132;0,0230383;0;0,585138;0,552314;-1080;1080;-600;1700;-10;10;-10;-0;0;-0;250;-1,2;0,2;177;-1,2;-1;2555;0,07;4294967295;3750000128;0;16384;
17,4325;-4,67831;-0,237189;296;-53;2557;934;-0,110075;-0,049168;-0,0027813;-0,101367;-0,0669423;-0,05802;-0,0102796;-0,00676799;0,237189;-0,00907368;-0,11138;-0,00250021;0;0;0;0;0;0;0;0;0,245;0;0;0;-0,339856;-0,151419;-0,00511937;-0,119148;-0,160548;-0,00528151;-0,187932;-0,0118162;-0,0460668;0,048205;-0,00981014;-0;0,516447;0,14138;3,67274;-0,00698132;0,0230383;0;0,58225;0,549905;-1080;1080;-600;1700;-10;10;-10;-0;0;-0;250;-1,2;0,2;177;-1,2;-1;2555;0,07;4294967295;3750000128;0;16384;
17,4423;-4,67756;-0,23605;296;-53;2557;929;-0,109321;-0,048516;-0,00237571;-0,102445;-0,0674209;-0,0580434;-0,0104159;-0,00679815;0,23605;-0,00983929;-0,112025;-0,00286758;0;0;0;0;0;0;0;0;0,244;0;0;0;-0,339856;-0,151419;-0,00511937;-0,119161;-0,160541;-0,00524329;-0,187933;-0,0118171;-0,0460627;0,0482131;-0,00976463;-0;0,517463;0,140295;3,67335;-0,00715585;0,0228638;0;0,578251;0,54656;-1080;1080;-600;1700;-10;10;-10;-0;0;-0;250;-1,2;0,2;177;-1,2;-1;2555;0,07;4294967295;3750000128;0;16384;
17,453;-4,67695;-0,235941;295;-52;2556;920;-0,108497;-0,0480809;-0,00214516;-0,103603;-0,067934;-0,0580663;-0,0105346;-0,00678431;0,235941;-0,0106627;-0,11246;-0,00311562;0;0;0;0;0;0;0;0;0,244;0;0;0;-0,33687;-0,148504;-0,00255969;-0,119159;-0,160541;-0,00526079;-0,18793;-0,01182;-0,0460679;0,0482186;-0,00976133;-0;0,516347;0,140282;3,67394;-0,00698132;0,0228638;0;0,572149;0,54144;-1080;1080;-600;1700;-10;10;-10;-0;0;-0;250;-1,2;0,2;177;-1,2;-1;2555;0,07;4294967295;3750000128;0;16384;
17,4624;-4,67639;-0,235863;294;-52;2556;909;-0,107631;-0,0477327;-0,00200007;-0,104618;-0,0683843;-0,0580852;-0,0106511;-0,00674377;0,235863;-0,0115235;-0,112812;-0,00325852;0;0;0;0;0;0;0;0;0,244;0;0;0;-0,334018;-0,148504;-0,00255969;-0,119154;-0,160545;-0,0052586;-0,187926;-0,0118242;-0,046079;0,0482233;-0,0097592;-0;0,516319;0,140274;3,67427;-0,00698132;0,0228638;0;0,564442;0,534945;-1080;1080;-600;1700;-10;10;-10;-0;0;-0;250;-1,2;0,2;177;-1,2;-1;2555;0,07;4294967295;3750000128;0;16384;
17,4724;-4,67549;-0,235787;293;-51;2556;898;-0,106773;-0,0472063;-0,00188574;-0,105685;-0,0688559;-0,058104;-0,0108244;-0,00673843;0,235787;-0,0123851;-0,113337;-0,00334349;0;0;0;0;0;0;0;0;0,244;0;0;0;-0,331166;-0,145649;-0,00255969;-0,119158;-0,160543;-0,00522922;-0,187923;-0,0118276;-0,0460831;0,0482318;-0,00975781;-0;0,516301;0,14134;3,67448;-0,00698132;0,0230383;0;0,556814;0,528484;-1080;1080;-600;1700;-10;10;-10;-0;0;-0;250;-1,2;0,2;177;-1,2;-1;2555;0,07;4294967295;3750000128;0;16384;
17,4824;-4,67535;-0,234744;292;-51;2556;884;-0,105898;-0,0472984;-0,001867;-0,106746;-0,0693296;-0,0581227;-0,0108782;-0,00662261;0,234744;-0,0132373;-0,113263;-0,00331193;0;0;0;0;0;0;0;0;0,243;0;0;0;-0,328313;-0,145649;-0,00255969;-0,119135;-0,160561;-0,00517894;-0,187918;-0,011835;-0,0461106;0,0482319;-0,00971502;-0;0,51522;0,142407;3,67464;-0,00680678;0,0232129;0;0,546864;0,520011;-1080;1080;-600;1700;-10;10;-10;-0;0;-0;250;-1,2;0,2;177;-1,2;-1;2555;0,07;4294967295;3750000128;0;16384;
17,4926;-4,67484;-0,234711;291;-51;2556;869;-0,105036;-0,0471713;-0,00192138;-0,107807;-0,0698064;-0,0581421;-0,0109946;-0,0065479;0,234711;-0,0140851;-0,113399;-0,00330586;0;0;0;0;0;0;0;0;0,243;0;0;0;-0,325461;-0,145649;-0,00255969;-0,119122;-0,16057;-0,00522724;-0,187912;-0,0118411;-0,0461294;0,0482357;-0,00971463;-0;0,514151;0,141335;3,67467;-0,00663225;0,0230383;0;0,537146;0,511686;-1080;1080;-600;1700;-10;10;-10;-0;0;-0;250;-1,2;0,2;177;-1,2;-1;2555;0,07;4294967295;3750000128;0;16384;
17,5023;-4,6746;-0,234698;290;-51;2556;854;-0,104214;-0,0472749;-0,00200107;-0,108828;-0,0702696;-0,0581617;-0,0110663;-0,00643806;0,234698;-0,0148869;-0,11331;-0,0032259;0;0;0;0;0;0;0;0;0,243;0;0;0;-0,322608;-0,145649;-0,00255969;-0,119101;-0,160585;-0,00522697;-0,187905;-0,0118484;-0,0461554;0,0482363;-0,00971458;-0;0,514158;0,141337;3,67459;-0,00663225;0,0230383;0;0,52691;0,502865;-1080;1080;-600;1700;-10;10;-10;-0;0;-0;250;-1,2;0,2;177;-1,2;-1;2555;0,07;4294967295;3750000128;0;16384;
17,5124;-4,67436;-0,234709;289;-51;2556;839;-0,103435;-0,0473965;-0,00213014;-0,109863;-0,0707436;-0,058183;-0,0111403;-0,00632844;0,234709;-0,0156455;-0,113204;-0,00309756;0;0;0;0;0;0;0;0;0,243;0;0;0;-0,319755;-0,145649;-0,00255969;-0,119081;-0,1606;-0,0052277;-0,187898;-0,0118557;-0,0461814;0,048237;-0,00971552;-0;0,514167;0,14134;3,67447;-0,00663225;0,0230383;0;0,51661;0,493936;-1080;1080;-600;1700;-10;10;-10;-0;0;-0;250;-1,2;0,2;177;-1,2;-1;2555;0,07;4294967295;3750000128;0;16384;
17,5224;-4,67428;-0,23473;289;-52;2556;824;-0,102711;-0,0476537;-0,00231151;-0,110893;-0,0712216;-0,0582062;-0,0111864;-0,00620175;0,23473;-0,0163443;-0,112964;-0,00296574;0;0;0;0;0;0;0;0;0,243;0;0;0;-0,319755;-0,148504;-0,00255969;-0,119055;-0,160618;-0,00527725;-0,18789;-0,0118634;-0,0462107;0,0482359;-0,00971652;-0;0,513116;0,140274;3,67429;-0,00645772;0,0228638;0;0,506215;0,48487;-1080;1080;-600;1700;-10;10;-10;-0;0;-0;250;-1,2;0,2;177;-1,2;-1;2555;0,07;4294967295;3750000128;0;16384;
17,5325;-4,67424;-0,234755;288;-52;2557;808;-0,102032;-0,0479541;-0,00247269;-0,111921;-0,0717045;-0,0582311;-0,0112265;-0,00607137;0,234755;-0,0169964;-0,112684;-0,00279818;0;0;0;0;0;0;0;0;0,243;0;0;0;-0,317027;-0,148562;-0,00511937;-0,119028;-0,160638;-0,00527086;-0,187883;-0,0118712;-0,0462408;0,0482344;-0,00971766;-0;0,512071;0,14135;3,67403;-0,00628319;0,0230383;0;0,495756;0,475697;-1080;1080;-600;1700;-10;10;-10;-0;0;-0;250;-1,2;0,2;177;-1,2;-1;2555;0,07;4294967295;3750000128;0;16384;
17,5425;-4,67427;-0,234808;287;-52;2557;792;-0,101382;-0,0482927;-0,00267853;-0,112938;-0,072189;-0,058258;-0,0112556;-0,00592633;0,234808;-0,0176175;-0,112366;-0,00259413;0;0;0;0;0;0;0;0;0,243;0;0;0;-0,314173;-0,148562;-0,00511937;-0,118999;-0,160659;-0,00527266;-0,187874;-0,0118797;-0,046274;0,048232;-0,00971977;-0;0,51209;0,141356;3,67379;-0,00628319;0,0230383;0;0,484641;0,465891;-1080;1080;-600;1700;-10;10;-10;-0;0;-0;250;-1,2;0,2;177;-1,2;-1;2555;0,07;4294967295;3750000128;0;16384;
17,5525;-4,67437;-0,234862;286;-53;2557;776;-0,100796;-0,0486932;-0,00283829;-0,113943;-0,0726747;-0,0582863;-0,0112715;-0,00578271;0,234862;-0,0181479;-0,112008;-0,00241504;0;0;0;0;0;0;0;0;0,243;0;0;0;-0,311319;-0,151419;-0,00511937;-0,118944;-0,160701;-0,00525333;-0,187867;-0,0118878;-0,0463066;0,0482289;-0,0097218;-0;0,513182;0,141362;3,6735;-0,00645772;0,0230383;0;0,474025;0,456471;-1080;1080;-600;1700;-10;10;-10;-0;0;-0;250;-1,2;0,2;177;-1,2;-1;2555;0,07;4294967295;3750000128;0;16384;
17,5626;-4,67463;-0,234936;286;-53;2557;761;-0,100303;-0,0491925;-0,00301458;-0,11496;-0,0731735;-0,0583169;-0,0112578;-0,00563692;0,234936;-0,0185847;-0,111551;-0,00219188;0;0;0;0;0;0;0;0;0,243;0;0;0;-0,311319;-0,151419;-0,00511937;-0,118888;-0,160744;-0,00520646;-0,187859;-0,0118955;-0,0463392;0,0482243;-0,00972434;-0;0,514269;0,142439;3,67326;-0,00663225;0,0232129;0;0,464216;0,447722;-1080;1080;-600;1700;-10;10;-10;-0;0;-0;250;-1,2;0,2;177;-1,2;-1;2555;0,07;4294967295;3750000128;0;16384;
17,5724;-4,67489;-0,235017;286;-54;2557;746;-0,0998717;-0,0496783;-0,00321776;-0,115942;-0,073662;-0,0583485;-0,0112447;-0,00549259;0,235017;-0,0189582;-0,111108;-0,00199095;0;0;0;0;0;0;0;0;0,243;0;0;0;-0,311319;-0,154275;-0,00511937;-0,11883;-0,160787;-0,00520871;-0,187852;-0,0119031;-0,0463715;0,0482197;-0,0097272;-0;0,51429;0,142444;3,67301;-0,00663225;0,0232129;0;0,454372;0,438898;-1080;1080;-600;1700;-10;10;-10;-0;0;-0;250;-1,2;0,2;177;-1,2;-1;2555;0,07;4294967295;3750000128;0;16384;
17,5823;-4,6752;-0,235092;285;-54;2557;732;-0,0995155;-0,0501477;-0,00339215;-0,116929;-0,0741592;-0,0583822;-0,0112193;-0,00535686;0,235092;-0,0192862;-0,11066;-0,00181877;0;0;0;0;0;0;0;0;0,243;0;0;0;-0,308465;-0,154275;-0,00511937;-0,118802;-0,160807;-0,00521092;-0,187845;-0,0119101;-0,0464017;0,0482148;-0,0097297;-0;0,514315;0,142451;3,67272;-0,00663225;0,0232129;0;0,445462;0,430874;-1080;1080;-600;1700;-10;10;-10;-0;0;-0;250;-1,2;0,2;177;-1,2;-1;2555;0,07;4294967295;3750000128;0;16384;
17,5927;-4,67564;-0,234166;285;-55;2557;719;-0,0992226;-0,0506777;-0,0035168;-0,117959;-0,0746855;-0,0584187;-0,0111697;-0,00521576;0,234166;-0,0195235;-0,110172;-0,00166171;0;0;0;0;0;0;0;0;0,242;0;0;0;-0,308465;-0,157132;-0,00511937;-0,118746;-0,160849;-0,00517852;-0,18784;-0,011917;-0,0464331;0,048209;-0,00969059;-0;0,515403;0,141386;3,67246;-0,00680678;0,0230383;0;0,436865;0,423101;-1080;1080;-600;1700;-10;10;-10;-0;0;-0;250;-1,2;0,2;177;-1,2;-1;2555;0,07;4294967295;3750000128;0;16384;
17,6024;-4,67618;-0,233237;285;-56;2557;706;-0,0989898;-0,0512668;-0,00364909;-0,118917;-0,0751816;-0,058454;-0,0111022;-0,00507335;0,233237;-0,0196984;-0,109627;-0,00148941;0;0;0;0;0;0;0;0;0,241;0;0;0;-0,308465;-0,159988;-0,00511937;-0,118688;-0,160893;-0,0051385;-0,187836;-0,0119237;-0,0464645;0,0482023;-0,00965121;-0;0,515418;0,14139;3,67228;-0,00680678;0,0230383;0;0,428633;0,415628;-1080;1080;-600;1700;-10;10;-10;-0;0;-0;250;-1,2;0,2;177;-1,2;-1;2555;0,07;4294967295;3750000128;0;16384;
17,6123;-4,67658;-0,232299;284;-56;2557;694;-0,0988028;-0,0517162;-0,00377201;-0,119898;-0,0756948;-0,0584914;-0,0110576;-0,00495056;0,232299;-0,0198336;-0,109216;-0,00133382;0;0;0;0;0;0;0;0;0,24;0;0;0;-0,305611;-0,159988;-0,00511937;-0,118636;-0,160933;-0,00510582;-0,187832;-0,0119297;-0,0464919;0,0481973;-0,00961172;-0;0,516502;0,140324;3,67209;-0,00698132;0,0228638;0;0,420946;0,408624;-1080;1080;-600;1700;-10;10;-10;-0;0;-0;250;-1,2;0,2;177;-1,2;-1;2555;0,07;4294967295;3750000128;0;16384;
17,6224;-4,67736;-0,232359;284;-57;2557;683;-0,0987297;-0,0523456;-0,00391912;-0,120891;-0,0762216;-0,0585309;-0,0109441;-0,00480722;0,232359;-0,0198747;-0,108611;-0,00118736;0;0;0;0;0;0;0;0;0,24;0;0;0;-0,305611;-0,162844;-0,00511937;-0,118604;-0,160956;-0,00510648;-0,187826;-0,0119355;-0,0465223;0,0481878;-0,00961269;-0;0,516517;0,140328;3,67192;-0,00698132;0,0228638;0;0,413882;0,402166;-1080;1080;-600;1700;-10;10;-10;-0;0;-0;250;-1,2;0,2;177;-1,2;-1;2555;0,07;4294967295;3750000128;0;16384;
17,6324;-4,67798;-0,231424;284;-57;2558;671;-0,0986443;-0,0528833;-0,00403639;-0,121874;-0,0767484;-0,0585711;-0,0108601;-0,00467173;0,231424;-0,0199327;-0,108095;-0,00100927;0;0;0;0;0;0;0;0;0,239;0;0;0;-0,30573;-0,162908;-0,00767906;-0,118577;-0,160978;-0,00504566;-0,187823;-0,0119415;-0,0465518;0,0481805;-0,00957289;-0;0,517602;0,140333;3,6717;-0,00715585;0,0228638;0;0,406245;0,395163;-1080;1080;-600;1700;-10;10;-10;-0;0;-0;250;-1,2;0,2;177;-1,2;-1;2555;0,07;4294967295;3750000128;0;16384;
17,6424;-4,67867;-0,231469;284;-58;2558;663;-0,098685;-0,0533909;-0,00416393;-0,122868;-0,0772864;-0,058613;-0,0107572;-0,00455804;0,231469;-0,0198646;-0,107608;-0,000874634;0;0;0;0;0;0;0;0;0,239;0;0;0;-0,30573;-0,165766;-0,00767906;-0,11855;-0,160999;-0,00503857;-0,187818;-0,0119459;-0,0465757;0,0481723;-0,00957346;-0;0,516549;0,141408;3,67153;-0,00698132;0,0230383;0;0,400786;0,390142;-1080;1080;-600;1700;-10;10;-10;-0;0;-0;250;-1,2;0,2;177;-1,2;-1;2555;0,07;4294967295;3750000128;0;16384;
17,6525;-4,67937;-0,230513;284;-58;2558;655;-0,0987419;-0,0538967;-0,00420765;-0,123861;-0,0778281;-0,0586553;-0,0106498;-0,00444962;0,230513;-0,0197557;-0,107142;-0,000761417;0;0;0;0;0;0;0;0;0,238;0;0;0;-0,30573;-0,165766;-0,00767906;-0,118498;-0,161039;-0,00496907;-0,187817;-0,01195;-0,0465988;0,0481646;-0,00953263;-0;0,516564;0,142483;3,67135;-0,00698132;0,0232129;0;0,395766;0,385515;-1080;1080;-600;1700;-10;10;-10;-0;0;-0;250;-1,2;0,2;177;-1,2;-1;2555;0,07;4294967295;3750000128;0;16384;
17,6625;-4,68012;-0,230554;284;-59;2558;647;-0,0988316;-0,0543795;-0,00430483;-0,124846;-0,0783703;-0,0586982;-0,0105348;-0,00433716;0,230554;-0,0196402;-0,106679;-0,000664238;0;0;0;0;0;0;0;0;0,238;0;0;0;-0,30573;-0,168623;-0,00767906;-0,118472;-0,161058;-0,00496907;-0,187813;-0,0119541;-0,0466222;0,0481558;-0,00953289;-0;0,51657;0,142484;3,67128;-0,00698132;0,0232129;0;0,390549;0,380696;-1080;1080;-600;1700;-10;10;-10;-0;0;-0;250;-1,2;0,2;177;-1,2;-1;2555;0,07;4294967295;3750000128;0;16384;
17,6725;-4,68082;-0,230588;285;-59;2558;642;-0,0989797;-0,0547931;-0,00439134;-0,125836;-0,0789184;-0,0587422;-0,010424;-0,00425173;0,230588;-0,0194422;-0,106301;-0,000597983;0;0;0;0;0;0;0;0;0,238;0;0;0;-0,308586;-0,168623;-0,00767906;-0,118422;-0,161094;-0,00498932;-0,18781;-0,0119568;-0,0466396;0,0481481;-0,00953297;-0;0,515514;0,142488;3,67114;-0,00680678;0,0232129;0;0,38728;0,377671;-1080;1080;-600;1700;-10;10;-10;-0;0;-0;250;-1,2;0,2;177;-1,2;-1;2555;0,07;4294967295;3750000128;0;16384;
17,6824;-4,68155;-0,230616;285;-60;2558;637;-0,0991675;-0,0552015;-0,00446129;-0,126823;-0,0794679;-0,0587866;-0,0103049;-0,00417161;0,230616;-0,0191773;-0,105948;-0,000575807;0;0;0;0;0;0;0;0;0,238;0;0;0;-0,308586;-0,17148;-0,00767906;-0,118345;-0,161149;-0,0050371;-0,187808;-0,011959;-0,0466556;0,04814;-0,00953274;-0;0,514457;0,141419;3,67102;-0,00663225;0,0230383;0;0,384653;0,375238;-1080;1080;-600;1700;-10;10;-10;-0;0;-0;250;-1,2;0,2;177;-1,2;-1;2555;0,07;4294967295;3750000128;0;16384;
17,6927;-4,68232;-0,230646;285;-60;2558;634;-0,0993759;-0,0555674;-0,00450629;-0,127844;-0,0800388;-0,0588329;-0,010177;-0,00409734;0,230646;-0,0189224;-0,105616;-0,000530092;0;0;0;0;0;0;0;0;0,238;0;0;0;-0,308586;-0,17148;-0,00767906;-0,118298;-0,161184;-0,00503638;-0,187807;-0,0119608;-0,0466702;0,0481317;-0,00953251;-0;0,514465;0,141422;3,67092;-0,00663225;0,0230383;0;0,382751;0,373474;-1080;1080;-600;1700;-10;10;-10;-0;0;-0;250;-1,2;0,2;177;-1,2;-1;2555;0,07;4294967295;3750000128;0;16384;
17,7024;-4,68311;-0,230664;285;-61;2558;633;-0,0996552;-0,0558845;-0,00452469;-0,128816;-0,0805836;-0,058877;-0,0100415;-0,00403352;0,230664;-0,0186266;-0,105311;-0,000510761;0;0;0;0;0;0;0;0;0,238;0;0;0;-0,308586;-0,174338;-0,00767906;-0,118282;-0,161196;-0,00503545;-0,187806;-0,0119619;-0,0466823;0,0481233;-0,00953175;-0;0,514471;0,141423;3,67085;-0,00663225;0,0230383;0;0,381958;0,372738;-1080;1080;-600;1700;-10;10;-10;-0;0;-0;250;-1,2;0,2;177;-1,2;-1;2555;0,07;4294967295;3750000128;0;16384;
17,7124;-4,68372;-0,231688;286;-61;2558;633;-0,0999045;-0,0560804;-0,00461361;-0,129808;-0,0811406;-0,0589228;-0,00993729;-0,00398749;0,231688;-0,0183346;-0,105144;-0,000511265;0;0;0;0;0;0;0;0;0,239;0;0;0;-0,311441;-0,174338;-0,00767906;-0,118239;-0,161224;-0,00512488;-0,187803;-0,0119624;-0,0466904;0,0481164;-0,00957278;-0;0,513406;0,140353;3,67082;-0,00645772;0,0228638;0;0,381597;0,372403;-1080;1080;-600;1700;-10;10;-10;-0;0;-0;250;-1,2;0,2;177;-1,2;-1;2555;0,07;4294967295;3750000128;0;16384;
17,7224;-4,68467;-0,231706;286;-61;2558;634;-0,100235;-0,0564701;-0,00463483;-0,130811;-0,0817057;-0,0589692;-0,00977085;-0,00392767;0,231706;-0,0179297;-0,104807;-0,00053702;0;0;0;0;0;0;0;0;0,239;0;0;0;-0,311441;-0,174338;-0,00767906;-0,118165;-0,161277;-0,00517185;-0,187803;-0,0119627;-0,0467011;0,0481066;-0,00957174;-0;0,512349;0,139285;3,67069;-0,00628319;0,0226893;0;0,382211;0,372972;-1080;1080;-600;1700;-10;10;-10;-0;0;-0;250;-1,2;0,2;177;-1,2;-1;2555;0,07;4294967295;3750000128;0;16384;
17,7324;-4,68543;-0,231729;286;-62;2558;636;-0,100554;-0,0566751;-0,00463074;-0,131822;-0,0822755;-0,0590157;-0,00963566;-0,00389039;0,231729;-0,0175716;-0,104631;-0,000540201;0;0;0;0;0;0;0;0;0,239;0;0;0;-0,311441;-0,177195;-0,00767906;-0,118126;-0,161306;-0,00517094;-0,187804;-0,0119623;-0,0467072;0,048099;-0,00957123;-0;0,512351;0,139285;3,67066;-0,00628319;0,0226893;0;0,383735;0,374386;-1080;1080;-600;1700;-10;10;-10;-0;0;-0;250;-1,2;0,2;177;-1,2;-1;2555;0,07;4294967295;3750000128;0;16384;
