time 	e1	e2	ctrlpitch	ctrlroll	ctrlthrust	ctrlyaw	edx	edy	edz	cumulx	cumuly	cumulz	x_pred	y_pred	z_pred	dxr_pred	dyr_pred	dzr_pred	dxrT	dyrT	dzrT	dxrUn	dyrUn	dzrUn	x	y	z	dx	dy	dz	ux	uy	uz	dxd	dyd	dzd	Perpx	Tangx	Perpy	Tangy	Perpz	Tanz	ax	ay	az	pitch	roll	yaw	yawd	eyaw	kpvx	kpvy	kpvz	kpyaw	kivx	kivy	kivz	kdvx	kdvy	kdvz	kdyaw	ktg	veld	pitchoff	ke1	ke2	gravity	thr_vel	gps_accuracy	height_accuracy	gps_sat_num	gps_status
13.1298	1.19149	-0.72638	50	-50	1450	0	0.0471754	-0.156988	0.337389	0.000196627	-0.000654324	0.00140624	-0.0781312	-0.0313543	-0.27362	0.000271941	-0.0203768	-0.416702	0	0	0	0	0	0	-0.077784	-0.0311624	-0.274	-0.03	-0.01	-0.416	0.205665	-0.0810057	2.82845	0.0474473	-0.177364	-0.0793136	-0.120163	0.0485661	-0.0482219	-0.121021	-0.0789347	-0	0	-0	9.81	0.0439823	-0.013439	0	0.381629	0.372433	-1080	1080	-300	1700	-10	10	-0	-0	0	-0	250	-1.2	0.2	177	-1.2	-1	2555	0.07	1651	2839	9	56579	
13.1357	1.19143	-0.722214	100	-100	1500	0	0.044994	-0.157753	0.338475	0.000464656	-0.00159406	0.00342253	-0.0784297	-0.0314534	-0.277786	0.00243983	-0.0197837	-0.417411	0	0	0	0	0	0	-0.077784	-0.0311624	-0.274	-0.03	-0.01	-0.416	0.129036	-0.167558	2.70047	0.0474339	-0.177537	-0.0789352	-0.120278	0.048583	-0.0482361	-0.121143	-0.0785538	-0	0.195961	-0.0791315	3.92164	0.0439823	-0.013439	0	0.381402	0.372222	-1080	1080	-300	1700	-10	10	-0	-0	0	-0	250	-1.2	0.2	177	-1.2	-1	2555	0.07	1651	2839	9	56579	
13.1456	1.19147	-0.724615	127	-150	1550	0	0.0457995	-0.157125	0.347138	0.000918804	-0.00315211	0.00686475	-0.0782531	-0.0313944	-0.275385	0.00169979	-0.020264	-0.426366	0	0	0	0	0	0	-0.077784	-0.0311624	-0.274	-0.03	-0.01	-0.425	0.0865923	-0.259612	2.57249	0.0474993	-0.177389	-0.0792282	-0.120212	0.0485732	-0.0482279	-0.121073	-0.0787734	-0	0.193881	-0.0822034	3.92242	0.0443314	-0.0139626	0	0.381532	0.372343	-1080	1080	-300	1700	-10	10	-0	-0	0	-0	250	-1.2	0.2	177	-1.2	-1	2555	0.07	1651	2839	9	56579	
13.1557	1.19146	-0.723859	128	-169	1600	0	0.0452694	-0.156475	0.348042	0.00137367	-0.00472437	0.0103619	-0.0783054	-0.0314116	-0.276141	0.00222733	-0.0209447	-0.427201	0	0	0	0	0	0	-0.077784	-0.0311624	-0.274	-0.03	-0.01	-0.425	0.0875982	-0.301873	2.4445	0.0474968	-0.17742	-0.0791595	-0.120233	0.0485762	-0.0482304	-0.121095	-0.0787042	-0	0.193675	-0.0821163	3.92866	0.0443314	-0.0139626	0	0.381491	0.372304	-1080	1080	-300	1700	-10	10	-0	-0	0	-0	250	-1.2	0.2	177	-1.2	-1	2555	0.07	1651	2839	9	56579	
13.1657	1.19143	-0.722107	129	-168	1650	0	0.0435254	-0.155763	0.357607	0.00180792	-0.00627842	0.0139297	-0.0784216	-0.03145	-0.277893	0.00411319	-0.0216928	-0.436601	0	0	0	0	0	0	-0.077784	-0.0311624	-0.274	-0.03	-0.01	-0.433	0.0884923	-0.309468	2.31652	0.0476386	-0.177456	-0.0789935	-0.120281	0.0485838	-0.048237	-0.121146	-0.0785439	-0	0.189551	-0.0831335	3.92931	0.0450295	-0.0141372	0	0.3814	0.37222	-1080	1080	-300	1700	-10	10	-0	-0	0	-0	250	-1.2	0.2	177	-1.2	-1	2555	0.07	1651	2839	9	56579	
13.1757	1.19143	-0.72201	130	-168	1700	0	0.0425776	-0.155753	0.3638	0.00223528	-0.00784171	0.0175812	-0.0784223	-0.0314498	-0.27799	0.00525629	-0.0216926	-0.442698	0	0	0	0	0	0	-0.077784	-0.0311624	-0.274	-0.03	-0.01	-0.439	0.0892747	-0.318846	2.18853	0.0478339	-0.177446	-0.0788982	-0.120283	0.0485843	-0.0482374	-0.121148	-0.0785349	-0	0.179082	-0.0830362	3.9362	0.0467748	-0.0141372	0	0.381395	0.372216	-1080	1080	-300	1700	-10	10	-0	-0	0	-0	250	-1.2	0.2	177	-1.2	-1	2555	0.07	1651	2839	9	56579	
13.1857	1.19143	-0.722061	131	-168	1750	0	0.0425298	-0.155696	0.363866	0.00266079	-0.00939945	0.0212217	-0.078417	-0.0314477	-0.277939	0.00530374	-0.021748	-0.442769	0	0	0	0	0	0	-0.077784	-0.0311624	-0.274	-0.03	-0.01	-0.439	0.0899454	-0.328224	2.06055	0.0478335	-0.177444	-0.0789029	-0.120282	0.0485837	-0.0482369	-0.121147	-0.0785395	-0	0.178946	-0.0829732	3.94065	0.0467748	-0.0141372	0	0.381395	0.372216	-1080	1080	-300	1700	-10	10	-0	-0	0	-0	250	-1.2	0.2	177	-1.2	-1	2555	0.07	1651	2839	9	56579	
13.1957	1.19143	-0.721964	131	-167	1800	0	0.0418821	-0.155334	0.373162	0.00307806	-0.010947	0.0249395	-0.0784157	-0.0314469	-0.278036	0.00605357	-0.0221813	-0.451842	0	0	0	0	0	0	-0.077784	-0.0311624	-0.274	-0.03	-0.01	-0.448	0.0925152	-0.335596	1.93256	0.0479357	-0.177515	-0.0786799	-0.120285	0.0485843	-0.0482375	-0.12115	-0.0785306	-0	0.175873	-0.0768267	3.9407	0.0472984	-0.01309	0	0.381392	0.372213	-1080	1080	-300	1700	-10	10	-0	-0	0	-0	250	-1.2	0.2	177	-1.2	-1	2555	0.07	1651	2839	9	56579	
13.2056	1.19144	-0.721918	132	-167	1850	0	0.0412531	-0.155055	0.381381	0.00348787	-0.0124874	0.0287281	-0.0784115	-0.0314451	-0.278082	0.00701146	-0.0224553	-0.459869	0	0	0	0	0	0	-0.077784	-0.0311624	-0.274	-0.03	-0.01	-0.456	0.0930183	-0.344918	1.80458	0.0482645	-0.177511	-0.0784887	-0.120286	0.0485847	-0.0482379	-0.121151	-0.0785264	-0	0.169536	-0.0726466	3.94739	0.0483456	-0.0123918	0	0.381391	0.372212	-1080	1080	-300	1700	-10	10	-0	-0	0	-0	250	-1.2	0.2	177	-1.2	-1	2555	0.07	1651	2839	9	56579	
13.2156	1.19144	-0.721958	132	-167	1900	0	0.0412007	-0.154993	0.381454	0.00390226	-0.0140463	0.0325648	-0.0784071	-0.0314433	-0.278042	0.00706347	-0.0225166	-0.459946	0	0	0	0	0	0	-0.077784	-0.0311624	-0.274	-0.03	-0.01	-0.456	0.0955323	-0.35424	1.67659	0.0482641	-0.177509	-0.0784923	-0.120285	0.0485842	-0.0482374	-0.12115	-0.07853	-0	0.169365	-0.0725733	3.95331	0.0483456	-0.0123918	0	0.38139	0.372211	-1080	1080	-300	1700	-10	10	-0	-0	0	-0	250	-1.2	0.2	177	-1.2	-1	2555	0.07	1651	2839	9	56579	
13.2257	1.18926	-0.708827	102	-192	1950	0	0.0693852	-0.177821	0.393926	0.00460173	-0.0158389	0.0365359	-0.0897691	-0.0298197	-0.291173	-0.0314473	-0.0024622	-0.471763	0	0	0	0	0	0	-0.088896	-0.0299439	-0.287	-0.05	0.03	-0.466	0.163392	-0.417868	1.54861	0.0379379	-0.180283	-0.0778373	-0.123202	0.041295	-0.0409255	-0.124314	-0.0773764	-0	0.158124	-0.0735947	3.95336	0.0502655	-0.0125664	0	0.320714	0.315244	-1080	1080	-300	1700	-10	10	-0	-0	0	-0	250	-1.2	0.2	177	-1.2	-1	2555	0.07	1651	2839	9	56579	
13.2356	1.18926	-0.70869	104	-192	2000	0	0.067397	-0.177893	0.404615	0.00526398	-0.0175869	0.0405117	-0.0897709	-0.0298166	-0.29131	-0.0290046	-0.00229785	-0.482444	0	0	0	0	0	0	-0.088896	-0.0299439	-0.287	-0.05	0.03	-0.476	0.163114	-0.428583	1.42063	0.0383924	-0.180191	-0.0778291	-0.123207	0.0412916	-0.0409221	-0.124319	-0.0773637	-0	0.146658	-0.0765435	3.96234	0.0521853	-0.01309	0	0.320677	0.315209	-1080	1080	-300	1700	-10	10	-0	-0	0	-0	250	-1.2	0.2	177	-1.2	-1	2555	0.07	1651	2839	9	56579	
13.2456	1.18926	-0.708701	104	-192	2050	0	0.067321	-0.1778	0.404729	0.00594338	-0.0193812	0.0445962	-0.0897676	-0.0298165	-0.291299	-0.0289268	-0.00238956	-0.482559	0	0	0	0	0	0	-0.088896	-0.0299439	-0.287	-0.05	0.03	-0.476	0.167192	-0.439297	1.29264	0.0383942	-0.18019	-0.07783	-0.123206	0.0412927	-0.0409233	-0.124319	-0.0773647	-0	0.146465	-0.0764428	3.97004	0.0521853	-0.01309	0	0.320687	0.315219	-1080	1080	-300	1700	-10	10	-0	-0	0	-0	250	-1.2	0.2	177	-1.2	-1	2555	0.07	1651	2839	9	56579	
13.2556	1.18927	-0.708715	105	-192	2100	0	0.0658424	-0.177976	0.417834	0.00659581	-0.0211448	0.0487365	-0.0897506	-0.0298248	-0.291285	-0.0269416	-0.00212837	-0.49561	0	0	0	0	0	0	-0.088896	-0.0299439	-0.287	-0.05	0.03	-0.489	0.168924	-0.450012	1.16466	0.0389008	-0.180105	-0.0777756	-0.1232	0.0413099	-0.0409404	-0.124312	-0.077366	-0	0.131179	-0.07848	3.97012	0.0548033	-0.013439	0	0.320827	0.315352	-1080	1080	-300	1700	-10	10	-0	-0	0	-0	250	-1.2	0.2	177	-1.2	-1	2555	0.07	1651	2839	9	56579	
13.2656	1.18926	-0.708486	107	-192	2150	0	0.0645301	-0.177814	0.430199	0.00724621	-0.022937	0.0530725	-0.0897596	-0.0298174	-0.291514	-0.0252768	-0.00226945	-0.507847	0	0	0	0	0	0	-0.088896	-0.0299439	-0.287	-0.05	0.03	-0.501	0.168144	-0.460727	1.03667	0.0392534	-0.180083	-0.077648	-0.123211	0.041299	-0.0409296	-0.124323	-0.0773447	-0	0.121811	-0.0773357	3.97955	0.0563741	-0.0132645	0	0.320723	0.315253	-1080	1080	-300	1700	-10	10	-0	-0	0	-0	250	-1.2	0.2	177	-1.2	-1	2555	0.07	1651	2839	9	56579	
13.2758	1.18927	-0.7086	107	-192	2200	0	0.0645638	-0.177764	0.430215	0.00790199	-0.0247425	0.0574422	-0.0897461	-0.0298236	-0.2914	-0.0252917	-0.00231149	-0.507872	0	0	0	0	0	0	-0.088896	-0.0299439	-0.287	-0.05	0.03	-0.501	0.172054	-0.471441	0.908689	0.0392721	-0.180075	-0.0776574	-0.123203	0.0413112	-0.0409417	-0.124315	-0.0773552	-0	0.121625	-0.0772176	3.98846	0.0563741	-0.0132645	0	0.320829	0.315354	-1080	1080	-300	1700	-10	10	-0	-0	0	-0	250	-1.2	0.2	177	-1.2	-1	2555	0.07	1651	2839	9	56579	
13.2856	1.18927	-0.708426	108	-192	2250	0	0.0630491	-0.177738	0.441522	0.00851785	-0.0264787	0.061755	-0.0897503	-0.0298191	-0.291574	-0.0233011	-0.00227289	-0.519087	0	0	0	0	0	0	-0.088896	-0.0299439	-0.287	-0.05	0.03	-0.512	0.173452	-0.482156	0.780705	0.0397479	-0.180011	-0.0775647	-0.12321	0.0413054	-0.0409359	-0.124322	-0.0773391	-0	0.108418	-0.0782334	3.98847	0.0586431	-0.013439	0	0.32077	0.315298	-1080	1080	-300	1700	-10	10	-0	-0	0	-0	250	-1.2	0.2	177	-1.2	-1	2555	0.07	1651	2839	9	56579	
13.2957	1.18927	-0.708287	111	-192	2300	0	0.060802	-0.17764	0.453912	0.00913347	-0.0282773	0.0663508	-0.0897499	-0.0298174	-0.291713	-0.0204216	-0.00231067	-0.531288	0	0	0	0	0	0	-0.088896	-0.0299439	-0.287	-0.05	0.03	-0.524	0.169599	-0.49287	0.65272	0.0403804	-0.179951	-0.0773763	-0.123215	0.0413046	-0.0409352	-0.124326	-0.0773262	-0	0.085948	-0.078124	3.99661	0.0624828	-0.013439	0	0.320755	0.315283	-1080	1080	-300	1700	-10	10	-0	-0	0	-0	250	-1.2	0.2	177	-1.2	-1	2555	0.07	1651	2839	9	56579	
13.3056	1.18927	-0.708514	111	-192	2350	0	0.0609765	-0.177625	0.453819	0.00973665	-0.0300343	0.07084	-0.0897263	-0.0298296	-0.291486	-0.0205603	-0.00230988	-0.531214	0	0	0	0	0	0	-0.088896	-0.0299439	-0.287	-0.05	0.03	-0.524	0.173286	-0.503585	0.524736	0.0404162	-0.179935	-0.0773949	-0.123201	0.0413277	-0.0409582	-0.124312	-0.0773472	-0	0.0858161	-0.0780042	4.00553	0.0624828	-0.013439	0	0.320957	0.315475	-1080	1080	-300	1700	-10	10	-0	-0	0	-0	250	-1.2	0.2	177	-1.2	-1	2555	0.07	1651	2839	9	56579	
13.3156	1.18927	-0.708238	112	-192	2400	0	0.059241	-0.17767	0.465171	0.0103307	-0.0318158	0.0755043	-0.0897399	-0.0298195	-0.291762	-0.0182582	-0.00216134	-0.542509	0	0	0	0	0	0	-0.088896	-0.0299439	-0.287	-0.05	0.03	-0.535	0.174292	-0.514299	0.396751	0.0409829	-0.179831	-0.0773386	-0.123214	0.0413119	-0.0409424	-0.124325	-0.0773216	-0	0.0716353	-0.081044	4.00546	0.0649262	-0.0139626	0	0.32081	0.315335	-1080	1080	-300	1700	-10	10	-0	-0	0	-0	250	-1.2	0.2	177	-1.2	-1	2555	0.07	1651	2839	9	56579	
13.3257	1.18927	-0.708387	112	-192	2415	0	0.0592956	-0.177649	0.465149	0.0109297	-0.0336104	0.0802032	-0.0897241	-0.0298271	-0.291613	-0.0182898	-0.00217106	-0.5425	0	0	0	0	0	0	-0.088896	-0.0299439	-0.287	-0.05	0.03	-0.535	0.175382	-0.517514	0.358356	0.0410057	-0.17982	-0.0773507	-0.123205	0.0413266	-0.0409571	-0.124316	-0.0773353	-0	0.0715344	-0.0809299	4.01363	0.0649262	-0.0139626	0	0.320939	0.315457	-1080	1080	-300	1700	-10	10	-0	-0	0	-0	250	-1.2	0.2	177	-1.2	-1	2555	0.07	1651	2839	9	56579	
13.3356	1.18927	-0.708197	114	-194	2411	0	0.0577165	-0.179365	0.478715	0.0115029	-0.0353919	0.0849578	-0.0897267	-0.0298236	-0.291803	-0.0161967	-0.000105374	-0.556602	0	0	0	0	0	0	-0.088896	-0.0299439	-0.287	-0.05	0.03	-0.549	0.169705	-0.522026	0.368595	0.0415197	-0.179471	-0.0778868	-0.123211	0.0413228	-0.0409534	-0.124323	-0.0773177	-0	0.0604071	-0.102172	4.01362	0.0668461	-0.0176278	0	0.320895	0.315416	-1080	1080	-300	1700	-10	10	-0	-0	0	-0	250	-1.2	0.2	177	-1.2	-1	2555	0.07	1651	2839	9	56579	
13.3457	1.18927	-0.708039	115	-195	2407	0	0.0565074	-0.180801	0.492343	0.0120701	-0.0372066	0.0898995	-0.0897263	-0.029822	-0.291961	-0.0145212	0.00163043	-0.57067	0	0	0	0	0	0	-0.088896	-0.0299439	-0.287	-0.05	0.03	-0.563	0.166735	-0.523839	0.378834	0.0419862	-0.179171	-0.0783265	-0.123216	0.0413223	-0.0409529	-0.124328	-0.077303	-0	0.0532359	-0.119166	4.02338	0.0680678	-0.0205949	0	0.32088	0.315402	-1080	1080	-300	1700	-10	10	-0	-0	0	-0	250	-1.2	0.2	177	-1.2	-1	2555	0.07	1651	2839	9	56579	
13.3558	1.18927	-0.708159	115	-195	2407	0	0.056619	-0.180811	0.492269	0.0126417	-0.0390323	0.0948699	-0.0897136	-0.0298277	-0.291841	-0.0146152	0.00164912	-0.570605	0	0	0	0	0	0	-0.088896	-0.0299439	-0.287	-0.05	0.03	-0.563	0.166735	-0.523839	0.378834	0.0420038	-0.179162	-0.0783362	-0.123209	0.0413336	-0.0409642	-0.12432	-0.0773141	-0	0.0531457	-0.118964	4.03319	0.0680678	-0.0205949	0	0.32098	0.315496	-1080	1080	-300	1700	-10	10	-0	-0	0	-0	250	-1.2	0.2	177	-1.2	-1	2555	0.07	1651	2839	9	56579	
13.3656	1.18927	-0.707924	117	-196	2401	0	0.0548373	-0.181861	0.512097	0.0131816	-0.0408227	0.0999115	-0.0897148	-0.0298251	-0.292076	-0.0122495	0.00292007	-0.590624	0	0	0	0	0	0	-0.088896	-0.0299439	-0.287	-0.05	0.03	-0.583	0.160956	-0.525207	0.394192	0.0425879	-0.178941	-0.0785263	-0.123216	0.041332	-0.0409626	-0.124328	-0.0772922	-0	0.0440722	-0.129046	4.03314	0.0696386	-0.0223402	0	0.32095	0.315468	-1080	1080	-300	1700	-10	10	-0	-0	0	-0	250	-1.2	0.2	177	-1.2	-1	2555	0.07	1651	2839	9	56579	
13.3757	1.18927	-0.707682	118	-198	2394	0	0.0536873	-0.183109	0.534791	0.0137205	-0.0426607	0.10528	-0.0897137	-0.0298239	-0.292318	-0.0106289	0.0044067	-0.613603	0	0	0	0	0	0	-0.088896	-0.0299439	-0.287	-0.05	0.03	-0.606	0.157812	-0.529006	0.41211	0.0430584	-0.178703	-0.0788123	-0.123223	0.0413331	-0.0409636	-0.124334	-0.0772698	-0	0.0439633	-0.139787	4.04741	0.0696386	-0.0242601	0	0.320942	0.31546	-1080	1080	-300	1700	-10	10	-0	-0	0	-0	250	-1.2	0.2	177	-1.2	-1	2555	0.07	1651	2839	9	56579	
13.3856	1.18928	-0.707861	118	-198	2394	0	0.0538328	-0.183125	0.534689	0.0142556	-0.044481	0.110595	-0.089697	-0.0298321	-0.292139	-0.0107502	0.00443504	-0.613516	0	0	0	0	0	0	-0.088896	-0.0299439	-0.287	-0.05	0.03	-0.606	0.157812	-0.529006	0.41211	0.0430826	-0.17869	-0.0788268	-0.123213	0.0413485	-0.0409791	-0.124324	-0.0772863	-0	0.0438387	-0.139391	4.06375	0.0696386	-0.0242601	0	0.321079	0.315591	-1080	1080	-300	1700	-10	10	-0	-0	0	-0	250	-1.2	0.2	177	-1.2	-1	2555	0.07	1651	2839	9	56579	
13.3955	1.18733	-0.668233	155	-226	2384	0	0.019955	-0.209347	0.569407	0.0144538	-0.0465596	0.116248	-0.10067	-0.0205236	-0.331767	0.00166647	0.0260065	-0.646341	0	0	0	0	0	0	-0.100008	-0.020787	-0.326	-0.03	0.04	-0.64	0.058605	-0.601066	0.437706	0.0216215	-0.18334	-0.0769345	-0.128158	0.0264065	-0.0261278	-0.129526	-0.0736113	-0	0.0398276	-0.145408	4.06368	0.0703368	-0.0253073	0	0.201115	0.199762	-1080	1080	-300	1700	-10	10	-0	-0	0	-0	250	-1.2	0.2	177	-1.2	-1	2555	0.07	1652	2841	9	56579	
13.406	1.18733	-0.667996	156	-226	2374	0	0.0185469	-0.208989	0.603064	0.0146475	-0.0487423	0.122547	-0.100663	-0.0205289	-0.332004	0.00363332	0.025703	-0.679967	0	0	0	0	0	0	-0.100008	-0.020787	-0.326	-0.03	0.04	-0.673	0.0557065	-0.598545	0.463303	0.0221802	-0.183286	-0.0769034	-0.128163	0.0264158	-0.026137	-0.12953	-0.0735888	-0	0.0396544	-0.145774	4.08867	0.0703368	-0.0254818	0	0.201177	0.199823	-1080	1080	-300	1700	-10	10	-0	-0	0	-0	250	-1.2	0.2	177	-1.2	-1	2555	0.07	1652	2841	9	56579	
13.4157	1.18734	-0.668033	156	-226	2374	0	0.0185961	-0.208993	0.603032	0.014828	-0.0507716	0.128402	-0.10066	-0.0205306	-0.331967	0.00358848	0.0257088	-0.679939	0	0	0	0	0	0	-0.100008	-0.020787	-0.326	-0.03	0.04	-0.673	0.0557065	-0.598545	0.463303	0.0221846	-0.183285	-0.0769066	-0.128161	0.0264186	-0.0261398	-0.129528	-0.0735923	-0	0.0394865	-0.145157	4.1129	0.0703368	-0.0254818	0	0.2012	0.199846	-1080	1080	-300	1700	-10	10	-0	-0	0	-0	250	-1.2	0.2	177	-1.2	-1	2555	0.07	1652	2841	9	56579	
13.4256	1.18733	-0.6673	159	-228	2362	0	0.0165217	-0.210736	0.642962	0.0149925	-0.0528691	0.134801	-0.100672	-0.0205113	-0.3327	0.00622942	0.0276126	-0.720087	0	0	0	0	0	0	-0.100008	-0.020787	-0.326	-0.03	0.04	-0.713	0.0475073	-0.600772	0.49402	0.0227512	-0.183123	-0.077125	-0.128186	0.0263957	-0.0261171	-0.129553	-0.0735225	-0	0.0424696	-0.155097	4.11288	0.0698132	-0.0272271	0	0.200993	0.199643	-1080	1080	-300	1700	-10	10	-0	-0	0	-0	250	-1.2	0.2	177	-1.2	-1	2555	0.07	1652	2841	9	56579	
13.4357	1.18734	-0.667487	159	-231	2351	0	0.0158475	-0.213472	0.679948	0.0151514	-0.0550102	0.141621	-0.100647	-0.020542	-0.332513	0.00741427	0.0306046	-0.757526	0	0	0	0	0	0	-0.100008	-0.020787	-0.326	-0.03	0.04	-0.751	0.047286	-0.605816	0.522176	0.0232618	-0.182868	-0.0775778	-0.128172	0.026439	-0.02616	-0.129539	-0.0735402	-0	0.0501696	-0.168159	4.14163	0.0684169	-0.0296706	0	0.201335	0.199978	-1080	1080	-300	1700	-10	10	-0	-0	0	-0	250	-1.2	0.2	177	-1.2	-1	2555	0.07	1652	2841	9	56579	
13.4457	1.18734	-0.667337	159	-230	2350	0	0.0156873	-0.213338	0.680152	0.0153082	-0.0571425	0.148419	-0.100651	-0.0205335	-0.332663	0.00755759	0.0304632	-0.757717	0	0	0	0	0	0	-0.100008	-0.020787	-0.326	-0.03	0.04	-0.751	0.0472659	-0.602945	0.524736	0.0232449	-0.182875	-0.0775648	-0.128178	0.0264282	-0.0261494	-0.129545	-0.0735259	-0	0.0499339	-0.167369	4.16825	0.0684169	-0.0296706	0	0.201246	0.19989	-1080	1080	-300	1700	-10	10	-0	-0	0	-0	250	-1.2	0.2	177	-1.2	-1	2555	0.07	1652	2841	9	56579	
13.4557	1.18734	-0.666941	159	-232	2339	0	0.0157458	-0.21479	0.716946	0.0154663	-0.0592984	0.155615	-0.10065	-0.0205317	-0.333059	0.00812475	0.032048	-0.794634	0	0	0	0	0	0	-0.100008	-0.020787	-0.326	-0.03	0.04	-0.788	0.0470447	-0.605324	0.552892	0.0238705	-0.182742	-0.0776882	-0.128189	0.0264283	-0.0261495	-0.129556	-0.0734882	-0	0.0637169	-0.172286	4.1684	0.0659734	-0.0305433	0	0.201231	0.199875	-1080	1080	-300	1700	-10	10	-0	-0	0	-0	250	-1.2	0.2	177	-1.2	-1	2555	0.07	1652	2841	9	56579	
13.4657	1.18734	-0.667004	159	-232	2339	0	0.0157532	-0.214783	0.716943	0.0156234	-0.0614402	0.162765	-0.100646	-0.0205344	-0.332996	0.00812361	0.0320435	-0.794637	0	0	0	0	0	0	-0.100008	-0.020787	-0.326	-0.03	0.04	-0.788	0.0470447	-0.605324	0.552892	0.0238769	-0.182739	-0.0776937	-0.128187	0.0264324	-0.0261535	-0.129554	-0.0734942	-0	0.0634178	-0.171477	4.19489	0.0659734	-0.0305433	0	0.201264	0.199908	-1080	1080	-300	1700	-10	10	-0	-0	0	-0	250	-1.2	0.2	177	-1.2	-1	2555	0.07	1652	2841	9	56579	
13.4756	1.18734	-0.666645	157	-234	2329	0	0.0183412	-0.216593	0.752596	0.0158059	-0.0635953	0.170253	-0.100644	-0.020534	-0.333355	0.00612403	0.034052	-0.830573	0	0	0	0	0	0	-0.100008	-0.020787	-0.326	-0.03	0.04	-0.824	0.0520482	-0.607914	0.578489	0.0244652	-0.182541	-0.0779769	-0.128196	0.0264343	-0.0261554	-0.129563	-0.0734599	-0	0.0928156	-0.179314	4.19489	0.0607375	-0.0319395	0	0.201264	0.199908	-1080	1080	-300	1700	-10	10	-0	-0	0	-0	250	-1.2	0.2	177	-1.2	-1	2555	0.07	1652	2841	9	56579	
13.4858	1.18734	-0.666446	155	-238	2320	0	0.0197719	-0.220133	0.780736	0.0160067	-0.0658318	0.178185	-0.100639	-0.0205378	-0.333554	0.00532516	0.0379656	-0.859383	0	0	0	0	0	0	-0.100008	-0.020787	-0.326	-0.03	0.04	-0.853	0.0570317	-0.615879	0.601526	0.025097	-0.182167	-0.0786466	-0.1282	0.0264414	-0.0261624	-0.129567	-0.0734409	-0	0.108973	-0.198969	4.22055	0.0577704	-0.0356047	0	0.201311	0.199954	-1080	1080	-300	1700	-10	10	-0	-0	0	-0	250	-1.2	0.2	177	-1.2	-1	2555	0.07	1652	2841	9	56579	
13.4956	1.18734	-0.666502	155	-238	2320	0	0.019694	-0.220112	0.780793	0.0162012	-0.0680048	0.185893	-0.100635	-0.02054	-0.333498	0.00540815	0.037948	-0.859445	0	0	0	0	0	0	-0.100008	-0.020787	-0.326	-0.03	0.04	-0.853	0.0570317	-0.615879	0.601526	0.0251021	-0.182164	-0.0786516	-0.128198	0.0264447	-0.0261657	-0.129565	-0.0734462	-0	0.108578	-0.198247	4.24081	0.0577704	-0.0356047	0	0.201339	0.199981	-1080	1080	-300	1700	-10	10	-0	-0	0	-0	250	-1.2	0.2	177	-1.2	-1	2555	0.07	1652	2841	9	56579	
13.5055	1.18734	-0.666097	154	-243	2313	0	0.0209973	-0.224683	0.8058	0.0164088	-0.0702269	0.193863	-0.100638	-0.0205328	-0.333903	0.00495763	0.0430199	-0.88533	0	0	0	0	0	0	-0.100008	-0.020787	-0.326	-0.03	0.04	-0.879	0.059444	-0.626873	0.619444	0.0259549	-0.181663	-0.0795301	-0.12821	0.0264372	-0.0261583	-0.129577	-0.0734076	-0	0.12121	-0.226413	4.24085	0.0555015	-0.0406662	0	0.201264	0.199908	-1080	1080	-300	1700	-10	10	-0	-0	0	-0	250	-1.2	0.2	177	-1.2	-1	2555	0.07	1652	2841	9	56579	
13.5156	1.18734	-0.666142	151	-247	2306	0	0.0235045	-0.228903	0.829706	0.0166454	-0.0725308	0.202214	-0.100626	-0.0205456	-0.333858	0.00355038	0.0477525	-0.910032	0	0	0	0	0	0	-0.100008	-0.020787	-0.326	-0.03	0.04	-0.904	0.0669939	-0.635223	0.637362	0.0270549	-0.181151	-0.0803265	-0.128205	0.0264557	-0.0261767	-0.129572	-0.0734119	-0	0.137285	-0.249881	4.25886	0.0525344	-0.0450295	0	0.201409	0.20005	-1080	1080	-300	1700	-10	10	-0	-0	0	-0	250	-1.2	0.2	177	-1.2	-1	2555	0.07	1652	2841	9	56579	
13.5255	1.18734	-0.666165	151	-247	2306	0	0.023383	-0.228884	0.829792	0.0168774	-0.074802	0.210448	-0.100624	-0.0205461	-0.333835	0.00367364	0.0477339	-0.910121	0	0	0	0	0	0	-0.100008	-0.020787	-0.326	-0.03	0.04	-0.904	0.0669939	-0.635223	0.637362	0.0270566	-0.18115	-0.0803285	-0.128205	0.0264568	-0.0261778	-0.129571	-0.073414	-0	0.136859	-0.249106	4.27607	0.0525344	-0.0450295	0	0.201419	0.200059	-1080	1080	-300	1700	-10	10	-0	-0	0	-0	250	-1.2	0.2	177	-1.2	-1	2555	0.07	1652	2841	9	56579	
13.5358	1.18734	-0.665875	147	-250	2301	0	0.0271451	-0.231537	0.846219	0.0171569	-0.0771859	0.21916	-0.100626	-0.0205403	-0.334125	0.000724199	0.0507462	-0.927077	0	0	0	0	0	0	-0.100008	-0.020787	-0.326	-0.03	0.04	-0.921	0.0771325	-0.641514	0.65016	0.0278693	-0.18079	-0.0808587	-0.128214	0.0264507	-0.0261717	-0.12958	-0.0733864	-0	0.160029	-0.26454	4.27613	0.0483456	-0.047822	0	0.201359	0.200001	-1080	1080	-300	1700	-10	10	-0	-0	0	-0	250	-1.2	0.2	177	-1.2	-1	2555	0.07	1652	2841	9	56579	
13.5457	1.18734	-0.665878	143	-252	2296	0	0.0307661	-0.23311	0.862813	0.0174599	-0.0794813	0.227657	-0.100618	-0.0205472	-0.334122	-0.00175184	0.0526243	-0.943949	0	0	0	0	0	0	-0.100008	-0.020787	-0.326	-0.03	0.04	-0.938	0.0872262	-0.645221	0.662959	0.0290142	-0.180486	-0.081136	-0.128212	0.026461	-0.026182	-0.129578	-0.0733866	-0	0.178954	-0.271676	4.28795	0.044855	-0.0492183	0	0.201439	0.20008	-1080	1080	-300	1700	-10	10	-0	-0	0	-0	250	-1.2	0.2	177	-1.2	-1	2555	0.07	1652	2841	9	56579	
13.5557	1.18734	-0.66557	143	-252	2296	0	0.030445	-0.233018	0.863111	0.0177644	-0.0818122	0.23629	-0.100626	-0.0205335	-0.33443	-0.00145729	0.0525156	-0.944219	0	0	0	0	0	0	-0.100008	-0.020787	-0.326	-0.03	0.04	-0.938	0.0872262	-0.645221	0.662959	0.0289877	-0.180502	-0.0811086	-0.128223	0.0264437	-0.0261648	-0.12959	-0.0733572	-0	0.178567	-0.271088	4.2999	0.044855	-0.0492183	0	0.201293	0.199936	-1080	1080	-300	1700	-10	10	-0	-0	0	-0	250	-1.2	0.2	177	-1.2	-1	2555	0.07	1652	2841	9	56579	
13.5657	1.18735	-0.665924	140	-253	2292	0	0.0335232	-0.233999	0.873571	0.0181015	-0.0841651	0.245074	-0.10061	-0.0205527	-0.334076	-0.00340781	0.0537681	-0.954871	0	0	0	0	0	0	-0.100008	-0.020787	-0.326	-0.03	0.04	-0.949	0.0947566	-0.646642	0.673198	0.0301154	-0.180231	-0.0813004	-0.128209	0.0264697	-0.0261906	-0.129575	-0.073391	-0	0.191054	-0.27588	4.30011	0.042586	-0.0500909	0	0.201508	0.200147	-1080	1080	-300	1700	-10	10	-0	-0	0	-0	250	-1.2	0.2	177	-1.2	-1	2555	0.07	1652	2841	9	56579	
13.5757	1.18735	-0.665736	137	-255	2290	0	0.0365295	-0.235425	0.881266	0.0184659	-0.0865139	0.253866	-0.100612	-0.0205476	-0.334264	-0.0053162	0.0555201	-0.962875	0	0	0	0	0	0	-0.100008	-0.020787	-0.326	-0.03	0.04	-0.957	0.102349	-0.651164	0.678317	0.0312133	-0.179904	-0.0816096	-0.128215	0.026464	-0.026185	-0.129581	-0.0733731	-0	0.204229	-0.285094	4.30764	0.0401426	-0.0518363	0	0.201457	0.200097	-1080	1080	-300	1700	-10	10	-0	-0	0	-0	250	-1.2	0.2	177	-1.2	-1	2555	0.07	1652	2841	9	56579	
13.5857	1.18735	-0.665728	137	-255	2290	0	0.036412	-0.235424	0.881341	0.0188285	-0.0888583	0.262643	-0.10061	-0.0205468	-0.334272	-0.0051998	0.0555194	-0.96295	0	0	0	0	0	0	-0.100008	-0.020787	-0.326	-0.03	0.04	-0.957	0.102349	-0.651164	0.678317	0.0312122	-0.179905	-0.0816088	-0.128215	0.0264634	-0.0261843	-0.129582	-0.0733723	-0	0.204024	-0.284807	4.31318	0.0401426	-0.0518363	0	0.201451	0.200092	-1080	1080	-300	1700	-10	10	-0	-0	0	-0	250	-1.2	0.2	177	-1.2	-1	2555	0.07	1652	2841	9	56579	
13.5957	1.18735	-0.665834	133	-257	2290	0	0.0401892	-0.237504	0.881578	0.0192325	-0.0912457	0.271504	-0.100605	-0.0205511	-0.334166	-0.00760584	0.0580922	-0.963734	0	0	0	0	0	0	-0.100008	-0.020787	-0.326	-0.03	0.04	-0.958	0.112583	-0.65625	0.678317	0.0325834	-0.179412	-0.0821564	-0.128211	0.0264695	-0.0261904	-0.129578	-0.0733823	-0	0.217443	-0.30109	4.31324	0.0376991	-0.0548033	0	0.201503	0.200142	-1080	1080	-300	1700	-10	10	-0	-0	0	-0	250	-1.2	0.2	177	-1.2	-1	2555	0.07	1652	2841	9	56579	
13.6056	1.18735	-0.665913	130	-259	2291	0	0.0432695	-0.238969	0.879044	0.0196594	-0.0936031	0.280176	-0.100601	-0.020553	-0.334087	-0.00930343	0.0600132	-0.961634	0	0	0	0	0	0	-0.100008	-0.020787	-0.326	-0.03	0.04	-0.956	0.120311	-0.661624	0.675757	0.0339661	-0.178956	-0.0825899	-0.128209	0.0264723	-0.0261932	-0.129575	-0.0733898	-0	0.227022	-0.31449	4.31341	0.0359538	-0.0572468	0	0.201528	0.200167	-1080	1080	-300	1700	-10	10	-0	-0	0	-0	250	-1.2	0.2	177	-1.2	-1	2555	0.07	1652	2841	9	56579	
13.6156	1.18735	-0.665863	130	-259	2291	0	0.0431177	-0.238953	0.87916	0.0200933	-0.0960077	0.289023	-0.100601	-0.0205504	-0.334137	-0.00915597	0.0599947	-0.961745	0	0	0	0	0	0	-0.100008	-0.020787	-0.326	-0.03	0.04	-0.956	0.120311	-0.661624	0.675757	0.0339618	-0.178959	-0.0825855	-0.128211	0.0264694	-0.0261904	-0.129577	-0.0733851	-0	0.227097	-0.314595	4.31158	0.0359538	-0.0572468	0	0.201504	0.200143	-1080	1080	-300	1700	-10	10	-0	-0	0	-0	250	-1.2	0.2	177	-1.2	-1	2555	0.07	1652	2841	9	56579	
13.6257	1.15974	-0.516377	80	-209	2281	0	0.231819	0.0227323	0.911472	0.0224189	-0.0957796	0.298167	-0.182016	-0.0205569	-0.483623	-0.21078	-0.209148	-0.980801	0	0	0	0	0	0	-0.177792	-0.0201959	-0.475	-0.36	-0.02	-0.953	0.247161	-0.531963	0.701354	0.0210397	-0.186415	-0.0693297	-0.131938	0.0154185	-0.0149012	-0.136519	-0.0591195	-0	0.241475	-0.317464	4.31167	0.0333358	-0.0577704	0	0.112464	0.112227	-1080	1080	-300	1700	-10	10	-0	-0	0	-0	250	-1.2	0.2	177	-1.2	-1	2555	0.07	1656	2846	9	56579	
13.6357	1.15972	-0.516232	30	-159	2281	0	0.231716	0.0210516	0.910209	0.0247407	-0.0955687	0.307287	-0.182066	-0.0205591	-0.483768	-0.210678	-0.207473	-0.979525	0	0	0	0	0	0	-0.177792	-0.0201959	-0.475	-0.36	-0.02	-0.953	0.374418	-0.404935	0.701354	0.0210378	-0.186421	-0.0693153	-0.13194	0.0154164	-0.0148989	-0.136524	-0.0591048	-0	0.240454	-0.316121	4.33493	0.0333358	-0.0577704	0	0.112445	0.112208	-1080	1080	-300	1700	-10	10	-0	-0	0	-0	250	-1.2	0.2	177	-1.2	-1	2555	0.07	1656	2846	9	56579	
13.6456	1.15973	-0.516426	-20	-109	2286	0	0.233734	0.0219471	0.896359	0.0270499	-0.0953518	0.316143	-0.182033	-0.0205566	-0.483574	-0.211347	-0.208193	-0.965722	0	0	0	0	0	0	-0.177792	-0.0201959	-0.475	-0.36	-0.02	-0.941	0.502596	-0.278324	0.688556	0.0223868	-0.186246	-0.0693635	-0.131937	0.0154167	-0.0148994	-0.136518	-0.0591247	-0	0.25386	-0.317128	4.33402	0.0308923	-0.0579449	0	0.112451	0.112215	-1080	1080	-300	1700	-10	10	-0	-0	0	-0	250	-1.2	0.2	177	-1.2	-1	2555	0.07	1656	2846	9	56579	
13.6557	1.15974	-0.5166	-70	-59	2290	0	0.235164	0.0219421	0.882683	0.0294211	-0.0951306	0.325043	-0.182008	-0.0205546	-0.4834	-0.211267	-0.207902	-0.952309	0	0	0	0	0	0	-0.177792	-0.0201959	-0.475	-0.36	-0.02	-0.929	0.630816	-0.150956	0.678317	0.0238974	-0.18596	-0.0696261	-0.131934	0.0154168	-0.0148996	-0.136514	-0.0591427	-0	0.264843	-0.325352	4.32405	0.0289725	-0.0593412	0	0.112456	0.112219	-1080	1080	-300	1700	-10	10	-0	-0	0	-0	250	-1.2	0.2	177	-1.2	-1	2555	0.07	1656	2846	9	56579	
13.6661	1.15977	-0.516772	-77	-9	2290	0	0.235251	0.0202643	0.881268	0.0318668	-0.0949199	0.334205	-0.181936	-0.02055	-0.483228	-0.211353	-0.206218	-0.950911	0	0	0	0	0	0	-0.177792	-0.0201959	-0.475	-0.36	-0.02	-0.929	0.648621	-0.0230297	0.678317	0.0238983	-0.185954	-0.069643	-0.131932	0.0154188	-0.0149019	-0.136508	-0.0591599	-0	0.265318	-0.325936	4.3142	0.0289725	-0.0593412	0	0.112475	0.112238	-1080	1080	-300	1700	-10	10	-0	-0	0	-0	250	-1.2	0.2	177	-1.2	-1	2555	0.07	1656	2846	9	56579	
13.6756	1.15975	-0.516776	-79	22	2295	0	0.236786	0.0216946	0.864846	0.0341364	-0.094712	0.342495	-0.181989	-0.0205523	-0.483224	-0.211274	-0.207384	-0.934623	0	0	0	0	0	0	-0.177792	-0.0201959	-0.475	-0.36	-0.02	-0.914	0.655134	0.0564171	0.665519	0.0255125	-0.185689	-0.0697762	-0.13193	0.0154162	-0.0148991	-0.136509	-0.0591609	-0	0.272075	-0.330784	4.31319	0.0277507	-0.0602139	0	0.112455	0.112218	-1080	1080	-300	1700	-10	10	-0	-0	0	-0	250	-1.2	0.2	177	-1.2	-1	2555	0.07	1656	2846	9	56579	
13.6856	1.15971	-0.516657	-80	24	2299	0	0.237671	0.0234952	0.851942	0.0365071	-0.0944776	0.350993	-0.182079	-0.0205567	-0.483343	-0.210691	-0.208968	-0.921741	0	0	0	0	0	0	-0.177792	-0.0201959	-0.475	-0.36	-0.02	-0.902	0.658829	0.061653	0.65528	0.0269793	-0.185473	-0.0697993	-0.131931	0.0154124	-0.0148949	-0.136514	-0.0591494	-0	0.277461	-0.333415	4.30136	0.0268781	-0.0605629	0	0.112423	0.112187	-1080	1080	-300	1700	-10	10	-0	-0	0	-0	250	-1.2	0.2	177	-1.2	-1	2555	0.07	1656	2846	9	56579	
13.6955	1.15985	-0.517429	-80	24	2299	0	0.238029	0.0238725	0.851893	0.0388674	-0.0942409	0.35944	-0.181767	-0.0205387	-0.482571	-0.211044	-0.209316	-0.921768	0	0	0	0	0	0	-0.177792	-0.0201959	-0.475	-0.36	-0.02	-0.902	0.658829	0.061653	0.65528	0.0269848	-0.185444	-0.069875	-0.131921	0.0154224	-0.0149064	-0.136488	-0.0592269	-0	0.277929	-0.333978	4.29207	0.0268781	-0.0605629	0	0.112518	0.11228	-1080	1080	-300	1700	-10	10	-0	-0	0	-0	250	-1.2	0.2	177	-1.2	-1	2555	0.07	1656	2846	9	56579	
13.7056	1.15979	-0.517314	-80	28	2305	0	0.238313	0.0270139	0.831865	0.0412656	-0.0939691	0.367811	-0.181887	-0.0205448	-0.482686	-0.209721	-0.212223	-0.901724	0	0	0	0	0	0	-0.177792	-0.0201959	-0.475	-0.36	-0.02	-0.882	0.660549	0.0721158	0.639922	0.0285914	-0.185209	-0.0698587	-0.131921	0.0154175	-0.0149009	-0.136494	-0.0592161	-0	0.281778	-0.334941	4.29204	0.0261799	-0.0607375	0	0.112477	0.11224	-1080	1080	-300	1700	-10	10	-0	-0	0	-0	250	-1.2	0.2	177	-1.2	-1	2555	0.07	1656	2846	9	56579	
13.7157	1.15981	-0.517573	-82	32	2310	0	0.240058	0.0306906	0.814322	0.043689	-0.0936592	0.376032	-0.181846	-0.0205419	-0.482427	-0.210083	-0.215714	-0.884093	0	0	0	0	0	0	-0.177792	-0.0201959	-0.475	-0.36	-0.02	-0.865	0.667111	0.0825962	0.627123	0.0299753	-0.185023	-0.0697705	-0.131916	0.015418	-0.0149017	-0.136487	-0.0592427	-0	0.29505	-0.331961	4.27762	0.023911	-0.0600393	0	0.112486	0.112249	-1080	1080	-300	1700	-10	10	-0	-0	0	-0	250	-1.2	0.2	177	-1.2	-1	2555	0.07	1656	2846	9	56579	
13.7256	1.1598	-0.517483	-82	32	2310	0	0.24003	0.0304964	0.814203	0.0460765	-0.0933559	0.384131	-0.181878	-0.0205431	-0.482517	-0.210056	-0.215523	-0.883964	0	0	0	0	0	0	-0.177792	-0.0201959	-0.475	-0.36	-0.02	-0.865	0.667111	0.0825962	0.627123	0.0299741	-0.185027	-0.0697616	-0.131917	0.0154165	-0.0149	-0.13649	-0.0592337	-0	0.295724	-0.332719	4.26499	0.023911	-0.0600393	0	0.112473	0.112236	-1080	1080	-300	1700	-10	10	-0	-0	0	-0	250	-1.2	0.2	177	-1.2	-1	2555	0.07	1656	2846	9	56579	
13.7357	1.1598	-0.517635	-86	37	2315	0	0.24311	0.0356431	0.799198	0.0485152	-0.0929984	0.392147	-0.181869	-0.020542	-0.482365	-0.211713	-0.220567	-0.868605	0	0	0	0	0	0	-0.177792	-0.0201959	-0.475	-0.36	-0.02	-0.851	0.678835	0.0957075	0.614325	0.0313973	-0.184924	-0.0694069	-0.131914	0.015416	-0.0148996	-0.136486	-0.0592494	-0	0.319886	-0.319198	4.2649	0.0195477	-0.0575959	0	0.112473	0.112236	-1080	1080	-300	1700	-10	10	-0	-0	0	-0	250	-1.2	0.2	177	-1.2	-1	2555	0.07	1656	2846	9	56579	
13.7457	1.15983	-0.517947	-88	45	2320	0	0.245692	0.0431564	0.78304	0.0509922	-0.0925633	0.400042	-0.181796	-0.0205373	-0.482053	-0.213029	-0.22823	-0.851459	0	0	0	0	0	0	-0.177792	-0.0201959	-0.475	-0.36	-0.02	-0.836	0.685452	0.11665	0.601526	0.0326624	-0.185073	-0.0684181	-0.131909	0.0154177	-0.0149016	-0.136477	-0.0592812	-0	0.340836	-0.2869	4.2541	0.0158825	-0.0516617	0	0.112492	0.112255	-1080	1080	-300	1700	-10	10	-0	-0	0	-0	250	-1.2	0.2	177	-1.2	-1	2555	0.07	1656	2846	9	56579	
13.7556	1.15983	-0.517912	-88	45	2320	0	0.24577	0.0429277	0.782815	0.0534067	-0.0921415	0.407732	-0.181806	-0.0205373	-0.482088	-0.213109	-0.228002	-0.85123	0	0	0	0	0	0	-0.177792	-0.0201959	-0.475	-0.36	-0.02	-0.836	0.685452	0.11665	0.601526	0.0326616	-0.185075	-0.0684147	-0.13191	0.0154169	-0.0149009	-0.136478	-0.0592777	-0	0.34155	-0.2875	4.24247	0.0158825	-0.0516617	0	0.112486	0.112249	-1080	1080	-300	1700	-10	10	-0	-0	0	-0	250	-1.2	0.2	177	-1.2	-1	2555	0.07	1656	2846	9	56579	
13.7655	1.15983	-0.518056	-91	54	2324	0	0.248082	0.0509678	0.76669	0.0558771	-0.091634	0.415367	-0.181804	-0.0205366	-0.481944	-0.21406	-0.23621	-0.833979	0	0	0	0	0	0	-0.177792	-0.0201959	-0.475	-0.36	-0.02	-0.821	0.694372	0.140217	0.591288	0.0340216	-0.185243	-0.0672882	-0.131906	0.0154162	-0.0149001	-0.136475	-0.0592927	-0	0.361926	-0.250626	4.24231	0.0122173	-0.0450295	0	0.112483	0.112246	-1080	1080	-300	1700	-10	10	-0	-0	0	-0	250	-1.2	0.2	177	-1.2	-1	2555	0.07	1656	2846	9	56579	
13.7756	1.15988	-0.51843	-93	61	2329	0	0.250307	0.0581557	0.752367	0.0584022	-0.0910473	0.422957	-0.181691	-0.0205297	-0.48157	-0.215103	-0.243551	-0.818618	0	0	0	0	0	0	-0.177792	-0.0201959	-0.475	-0.36	-0.02	-0.808	0.701034	0.15873	0.578489	0.0352041	-0.185395	-0.0662509	-0.131901	0.0154193	-0.0149038	-0.136463	-0.0593306	-0	0.381141	-0.216123	4.2307	0.00890118	-0.0387463	0	0.112515	0.112278	-1080	1080	-300	1700	-10	10	-0	-0	0	-0	250	-1.2	0.2	177	-1.2	-1	2555	0.07	1656	2846	9	56579	
13.7857	1.15987	-0.518354	-93	61	2329	0	0.250352	0.0579066	0.752162	0.0609242	-0.090464	0.430534	-0.18172	-0.0205308	-0.481646	-0.215149	-0.243305	-0.818405	0	0	0	0	0	0	-0.177792	-0.0201959	-0.475	-0.36	-0.02	-0.808	0.701034	0.15873	0.578489	0.0352032	-0.185398	-0.0662434	-0.131902	0.0154179	-0.0149023	-0.136466	-0.059323	-0	0.381845	-0.216523	4.22039	0.00890118	-0.0387463	0	0.112503	0.112266	-1080	1080	-300	1700	-10	10	-0	-0	0	-0	250	-1.2	0.2	177	-1.2	-1	2555	0.07	1656	2846	9	56579	
13.7957	1.11082	-0.377738	-143	111	2329	0	0.388078	0.12339	0.752419	0.0647961	-0.0892329	0.438041	-0.272605	-0.00204986	-0.622262	-0.366983	-0.315522	-0.803802	0	0	0	0	0	0	-0.266688	-0.00250944	-0.615	-0.51	0.05	-0.792	0.830077	0.288758	0.578489	0.0210946	-0.192132	-0.0513832	-0.132373	0.00107529	-0.00099538	-0.143	-0.045015	-0	0.396454	-0.188255	4.22024	0.00628319	-0.0336849	0	0.00751939	0.00751932	-1080	1080	-300	1700	-10	10	-0	-0	0	-0	250	-1.2	0.2	177	-1.2	-1	2555	0.07	1660	2855	9	56579	
13.8056	1.11084	-0.377785	-193	130	2329	0	0.388211	0.121603	0.751046	0.0686483	-0.0880262	0.445494	-0.272568	-0.00205288	-0.622215	-0.367116	-0.313734	-0.802435	0	0	0	0	0	0	-0.266688	-0.00250944	-0.615	-0.51	0.05	-0.792	0.958723	0.338136	0.578489	0.0210947	-0.192131	-0.0513882	-0.132373	0.001077	-0.000996985	-0.142998	-0.04502	-0	0.396441	-0.188248	4.22043	0.00628319	-0.0336849	0	0.00753147	0.0075314	-1080	1080	-300	1700	-10	10	-0	-0	0	-0	250	-1.2	0.2	177	-1.2	-1	2555	0.07	1660	2855	9	56579	
13.8156	1.11089	-0.378028	-243	136	2334	0	0.388967	0.127167	0.735866	0.0725321	-0.0867565	0.452841	-0.272489	-0.00206	-0.621972	-0.36662	-0.319375	-0.786428	0	0	0	0	0	0	-0.266688	-0.00250944	-0.615	-0.51	0.05	-0.779	1.08925	0.354484	0.565691	0.0223477	-0.192208	-0.0505618	-0.132372	0.001081	-0.00100073	-0.14299	-0.0450465	-0	0.413055	-0.16195	4.21944	0.00331613	-0.0289725	0	0.0075598	0.00755973	-1080	1080	-300	1700	-10	10	-0	-0	0	-0	250	-1.2	0.2	177	-1.2	-1	2555	0.07	1660	2855	9	56579	
13.8255	1.11093	-0.378303	-243	143	2340	0	0.389036	0.13346	0.714057	0.0764108	-0.0854259	0.459961	-0.272433	-0.00206493	-0.621697	-0.36516	-0.325698	-0.763799	0	0	0	0	0	0	-0.266688	-0.00250944	-0.615	-0.51	0.05	-0.759	1.09205	0.373665	0.550333	0.0238766	-0.192238	-0.0497424	-0.13237	0.00108375	-0.00100331	-0.142983	-0.045077	-0	0.42946	-0.135879	4.20851	0.000523599	-0.0242601	0	0.00757946	0.00757939	-1080	1080	-300	1700	-10	10	-0	-0	0	-0	250	-1.2	0.2	177	-1.2	-1	2555	0.07	1660	2855	9	56579	
13.8382	1.11093	-0.378439	-244	148	2345	0	0.389068	0.138084	0.698001	0.0813427	-0.0836755	0.468808	-0.272436	-0.00206405	-0.621561	-0.363778	-0.330233	-0.747391	0	0	0	0	0	0	-0.266688	-0.00250944	-0.615	-0.51	0.05	-0.744	1.09696	0.387538	0.537534	0.0252892	-0.192149	-0.0493898	-0.132367	0.00108326	-0.00100285	-0.14298	-0.0450924	-0	0.439461	-0.124499	4.19281	-0.0010472	-0.0221657	0	0.00757615	0.00757607	-1080	1080	-300	1700	-10	10	-0	-0	0	-0	250	-1.2	0.2	177	-1.2	-1	2555	0.07	1660	2855	9	56579	
13.8457	1.11095	-0.378483	-244	148	2345	0	0.389148	0.137978	0.697862	0.0842547	-0.0826431	0.474031	-0.272399	-0.00206702	-0.621517	-0.363859	-0.330125	-0.747256	0	0	0	0	0	0	-0.266688	-0.00250944	-0.615	-0.51	0.05	-0.744	1.09696	0.387538	0.537534	0.0252893	-0.192147	-0.0493943	-0.132368	0.00108495	-0.00100444	-0.142978	-0.0450969	-0	0.440365	-0.124755	4.18125	-0.0010472	-0.0221657	0	0.00758806	0.00758799	-1080	1080	-300	1700	-10	10	-0	-0	0	-0	250	-1.2	0.2	177	-1.2	-1	2555	0.07	1660	2855	9	56579	
13.86	1.11007	-0.376777	-243	150	2352	0	0.388532	0.140014	0.674694	0.0897932	-0.0806472	0.483648	-0.273743	-0.00193453	-0.623223	-0.361829	-0.332101	-0.723577	0	0	0	0	0	0	-0.266688	-0.00250944	-0.615	-0.51	0.05	-0.723	1.09765	0.39394	0.519616	0.0267033	-0.192087	-0.0488828	-0.13234	0.001011	-0.000935239	-0.143061	-0.0449196	-0	0.455063	-0.112971	4.18115	-0.00366519	-0.0200713	0	0.00706682	0.00706676	-1080	1080	-300	1700	-10	10	-0	-0	0	-0	250	-1.2	0.2	177	-1.2	-1	2555	0.07	1660	2855	9	56579	
13.8657	1.11182	-0.380563	-245	156	2352	0	0.390699	0.145713	0.676369	0.0920307	-0.0798127	0.487522	-0.271068	-0.00219633	-0.619437	-0.363961	-0.337694	-0.725647	0	0	0	0	0	0	-0.266688	-0.00250944	-0.615	-0.51	0.05	-0.723	1.10282	0.409674	0.519616	0.0267377	-0.191981	-0.0492778	-0.132389	0.00115775	-0.00107268	-0.142889	-0.0453165	-0	0.456411	-0.113305	4.16447	-0.00366519	-0.0200713	0	0.00810231	0.00810222	-1080	1080	-300	1700	-10	10	-0	-0	0	-0	250	-1.2	0.2	177	-1.2	-1	2555	0.07	1660	2855	9	56579	
13.8757	1.10958	-0.37594	-245	154	2358	0	0.389912	0.144211	0.654429	0.0959474	-0.0783641	0.494096	-0.274491	-0.00185996	-0.62406	-0.36195	-0.336319	-0.702522	0	0	0	0	0	0	-0.266688	-0.00250944	-0.615	-0.51	0.05	-0.706	1.10563	0.405461	0.504258	0.0279624	-0.192107	-0.0480928	-0.132322	0.000969684	-0.00089662	-0.143105	-0.0448335	-0	0.48282	-0.0886572	4.16568	-0.00837758	-0.015708	0	0.00677593	0.00677588	-1080	1080	-300	1700	-10	10	-0	-0	0	-0	250	-1.2	0.2	177	-1.2	-1	2555	0.07	1660	2855	9	56579	
13.8857	1.11244	-0.382125	-249	171	2365	0	0.394102	0.159864	0.631341	0.0998923	-0.0767638	0.500415	-0.270119	-0.00228822	-0.617875	-0.364717	-0.351759	-0.679432	0	0	0	0	0	0	-0.266688	-0.00250944	-0.615	-0.51	0.05	-0.682	1.1193	0.451477	0.486341	0.0293851	-0.191895	-0.0480915	-0.132402	0.00120988	-0.00112159	-0.142823	-0.0454819	-0	0.505821	-0.0661863	4.14988	-0.0122173	-0.0116937	0	0.00847094	0.00847084	-1080	1080	-300	1700	-10	10	-0	-0	0	-0	250	-1.2	0.2	177	-1.2	-1	2555	0.07	1660	2855	9	56579	
13.8957	1.11102	-0.379194	-248	166	2366	0	0.392694	0.154596	0.629389	0.103785	-0.0752315	0.506654	-0.272304	-0.00207343	-0.620806	-0.363336	-0.346571	-0.677175	0	0	0	0	0	0	-0.266688	-0.00250944	-0.615	-0.51	0.05	-0.682	1.11718	0.438485	0.483781	0.0293575	-0.191976	-0.0477864	-0.13236	0.00108856	-0.00100784	-0.142961	-0.0451762	-0	0.507306	-0.0663806	4.13326	-0.0122173	-0.0116937	0	0.00761424	0.00761417	-1080	1080	-300	1700	-10	10	-0	-0	0	-0	250	-1.2	0.2	177	-1.2	-1	2555	0.07	1660	2855	9	56579	
13.9056	1.11105	-0.379437	-250	172	2372	0	0.394639	0.160005	0.607754	0.1077	-0.0736439	0.512684	-0.272258	-0.00207736	-0.620563	-0.364194	-0.351941	-0.655015	0	0	0	0	0	0	-0.266688	-0.00250944	-0.615	-0.51	0.05	-0.663	1.12522	0.455457	0.468423	0.0304447	-0.191936	-0.0472613	-0.132357	0.00109076	-0.0010099	-0.142954	-0.0452032	-0	0.539009	-0.0445956	4.13185	-0.0178024	-0.00785398	0	0.00762997	0.0076299	-1080	1080	-300	1700	-10	10	-0	-0	0	-0	250	-1.2	0.2	177	-1.2	-1	2555	0.07	1660	2855	9	56579	
13.9156	1.1111	-0.379738	-252	177	2379	0	0.396918	0.165361	0.583423	0.11167	-0.0719903	0.518518	-0.272181	-0.0020844	-0.620262	-0.365236	-0.357203	-0.630251	0	0	0	0	0	0	-0.266688	-0.00250944	-0.615	-0.51	0.05	-0.642	1.13376	0.470054	0.450505	0.031682	-0.191842	-0.0468281	-0.132355	0.0010947	-0.0010136	-0.142946	-0.0452363	-0	0.578067	-0.0238497	4.11628	-0.0244346	-0.00418879	0	0.00765801	0.00765794	-1080	1080	-300	1700	-10	10	-0	-0	0	-0	250	-1.2	0.2	177	-1.2	-1	2555	0.07	1660	2855	9	56579	
13.9257	1.11111	-0.379758	-252	177	2380	0	0.396973	0.165194	0.58327	0.115677	-0.0703228	0.524406	-0.272159	-0.00208601	-0.620242	-0.365291	-0.357036	-0.6301	0	0	0	0	0	0	-0.266688	-0.00250944	-0.615	-0.51	0.05	-0.642	1.13424	0.470251	0.447945	0.0316819	-0.191842	-0.04683	-0.132356	0.00109563	-0.00101447	-0.142945	-0.0452383	-0	0.579846	-0.0239231	4.09876	-0.0244346	-0.00418879	0	0.00766455	0.00766447	-1080	1080	-300	1700	-10	10	-0	-0	0	-0	250	-1.2	0.2	177	-1.2	-1	2555	0.07	1660	2855	9	56579	
13.9355	1.1111	-0.379974	-253	183	2387	0	0.397678	0.170083	0.556808	0.119602	-0.0686441	0.529901	-0.272171	-0.00208423	-0.620026	-0.364835	-0.361858	-0.603108	0	0	0	0	0	0	-0.266688	-0.00250944	-0.615	-0.51	0.05	-0.618	1.1402	0.487589	0.430027	0.0328431	-0.191775	-0.0463006	-0.132352	0.00109461	-0.00101352	-0.142941	-0.0452628	-0	0.605634	-0.00199364	4.09865	-0.0289725	-0.000349066	0	0.00765765	0.00765757	-1080	1080	-300	1700	-10	10	-0	-0	0	-0	250	-1.2	0.2	177	-1.2	-1	2555	0.07	1660	2855	9	56579	
13.9457	1.11109	-0.379941	-253	182	2388	0	0.397744	0.169817	0.55659	0.123624	-0.0669267	0.53553	-0.272191	-0.00208168	-0.620059	-0.364901	-0.361592	-0.602887	0	0	0	0	0	0	-0.266688	-0.00250944	-0.615	-0.51	0.05	-0.618	1.14067	0.485133	0.427468	0.0328426	-0.191776	-0.0462971	-0.132351	0.0010932	-0.0010122	-0.142942	-0.0452594	-0	0.607654	-0.00200029	4.0796	-0.0289725	-0.000349066	0	0.00764769	0.00764762	-1080	1080	-300	1700	-10	10	-0	-0	0	-0	250	-1.2	0.2	177	-1.2	-1	2555	0.07	1660	2855	9	56579	
13.9557	1.11118	-0.380282	-254	187	2393	0	0.397983	0.174018	0.536918	0.127605	-0.0651862	0.5409	-0.27205	-0.00209499	-0.619718	-0.363999	-0.36566	-0.58294	0	0	0	0	0	0	-0.266688	-0.00250944	-0.615	-0.51	0.05	-0.6	1.14569	0.499475	0.414669	0.0339844	-0.191643	-0.0460225	-0.132351	0.00110067	-0.0010192	-0.14293	-0.0452963	-0	0.627558	0.012002	4.07945	-0.0324631	0.0020944	0	0.00770059	0.00770052	-1080	1080	-300	1700	-10	10	-0	-0	0	-0	250	-1.2	0.2	177	-1.2	-1	2555	0.07	1660	2855	9	56579	
13.9656	1.11112	-0.380312	-254	190	2399	0	0.398406	0.177344	0.519691	0.13158	-0.0634165	0.546086	-0.272147	-0.00208493	-0.619688	-0.363217	-0.36881	-0.565544	0	0	0	0	0	0	-0.266688	-0.00250944	-0.615	-0.51	0.05	-0.585	1.14856	0.508742	0.399311	0.0351893	-0.191466	-0.0458533	-0.132347	0.00109502	-0.00101392	-0.142933	-0.0453008	-0	0.653022	0.0230607	4.06528	-0.0366519	0.00401426	0	0.00766091	0.00766084	-1080	1080	-300	1700	-10	10	-0	-0	0	-0	250	-1.2	0.2	177	-1.2	-1	2555	0.07	1660	2855	9	56579	
13.9757	1.11117	-0.3804	-254	190	2399	0	0.398494	0.177403	0.519641	0.135582	-0.061635	0.551305	-0.272063	-0.00209261	-0.6196	-0.363304	-0.368866	-0.565503	0	0	0	0	0	0	-0.266688	-0.00250944	-0.615	-0.51	0.05	-0.585	1.14856	0.508742	0.399311	0.0351898	-0.191464	-0.0458623	-0.132349	0.00109935	-0.00101798	-0.142929	-0.0453098	-0	0.654432	0.0231105	4.05288	-0.0366519	0.00401426	0	0.00769148	0.0076914	-1080	1080	-300	1700	-10	10	-0	-0	0	-0	250	-1.2	0.2	177	-1.2	-1	2555	0.07	1660	2855	9	56579	
13.9855	1.1112	-0.380586	-254	195	2404	0	0.398541	0.181198	0.502814	0.139509	-0.0598497	0.556259	-0.272024	-0.00209584	-0.619414	-0.362249	-0.372529	-0.548371	0	0	0	0	0	0	-0.266688	-0.00250944	-0.615	-0.51	0.05	-0.57	1.15096	0.523187	0.386513	0.0362921	-0.191331	-0.0455566	-0.132347	0.00110117	-0.00101968	-0.142924	-0.0453303	-0	0.674398	0.0381826	4.05285	-0.0401426	0.00663225	0	0.00770444	0.00770436	-1080	1080	-300	1700	-10	10	-0	-0	0	-0	250	-1.2	0.2	177	-1.2	-1	2555	0.07	1660	2855	9	56579	
13.9957	1.11119	-0.380753	-254	199	2410	0	0.398487	0.184826	0.482658	0.143561	-0.0579704	0.561167	-0.27203	-0.00209476	-0.619247	-0.361104	-0.376032	-0.527857	0	0	0	0	0	0	-0.266688	-0.00250944	-0.615	-0.51	0.05	-0.552	1.15383	0.535224	0.371155	0.0373829	-0.191206	-0.0451982	-0.132344	0.00110056	-0.00101911	-0.142921	-0.0453493	-0	0.696812	0.0553801	4.04073	-0.0438078	0.00959931	0	0.00770034	0.00770027	-1080	1080	-300	1700	-10	10	-0	-0	0	-0	250	-1.2	0.2	177	-1.2	-1	2555	0.07	1660	2855	9	56579	
14.0056	1.11127	-0.380879	-254	199	2410	0	0.398614	0.184971	0.482619	0.147489	-0.0561475	0.565923	-0.271907	-0.00210626	-0.619121	-0.36123	-0.376173	-0.52783	0	0	0	0	0	0	-0.266688	-0.00250944	-0.615	-0.51	0.05	-0.552	1.15383	0.535224	0.371155	0.0373836	-0.191203	-0.045211	-0.132347	0.00110704	-0.00102519	-0.142914	-0.045362	-0	0.698565	0.0555194	4.02622	-0.0438078	0.00959931	0	0.00774608	0.007746	-1080	1080	-300	1700	-10	10	-0	-0	0	-0	250	-1.2	0.2	177	-1.2	-1	2555	0.07	1660	2855	9	56579	
14.0156	1.11119	-0.380838	-255	202	2414	0	0.398704	0.187591	0.46968	0.151493	-0.0542637	0.570639	-0.272041	-0.00209255	-0.619162	-0.360366	-0.378646	-0.514714	0	0	0	0	0	0	-0.266688	-0.00250944	-0.615	-0.51	0.05	-0.541	1.15839	0.544174	0.360916	0.0383384	-0.191055	-0.0450337	-0.132342	0.00109934	-0.00101798	-0.142919	-0.0453589	-0	0.719607	0.0666232	4.02619	-0.047473	0.0115192	0	0.00769191	0.00769183	-1080	1080	-300	1700	-10	10	-0	-0	0	-0	250	-1.2	0.2	177	-1.2	-1	2555	0.07	1660	2855	9	56579	
14.0256	0.986681	-0.265609	-228	252	2416	0	0.373926	0.518568	0.461476	0.15524	-0.0490666	0.575264	-0.419289	-0.0443009	-0.734391	-0.303923	-0.702653	-0.496292	0	0	0	0	0	0	-0.411144	-0.0422376	-0.73	-0.74	-0.18	-0.526	1.08768	0.678943	0.355796	0.0700033	-0.184085	-0.0348163	-0.124512	0.0159998	-0.0131556	-0.151432	-0.0337046	-0	0.740826	0.0788626	4.01688	-0.0509636	0.0136136	0	0.105266	0.105072	-1080	1080	-300	1700	-10	10	-0	-0	0	-0	250	-1.2	0.2	177	-1.2	-1	2555	0.07	1662	2860	8	56579	
14.0356	0.98658	-0.265532	-229	302	2417	0	0.375339	0.518115	0.459961	0.158984	-0.0438994	0.579851	-0.419387	-0.0443242	-0.734468	-0.30532	-0.702195	-0.49477	0	0	0	0	0	0	-0.411144	-0.0422376	-0.73	-0.74	-0.18	-0.526	1.09078	0.813274	0.353237	0.070019	-0.184081	-0.0348091	-0.124505	0.0160052	-0.0131587	-0.151439	-0.0336965	-0	0.741581	0.078943	4.01097	-0.0509636	0.0136136	0	0.105297	0.105103	-1080	1080	-300	1700	-10	10	-0	-0	0	-0	250	-1.2	0.2	177	-1.2	-1	2555	0.07	1662	2860	8	56579	
14.0456	0.986638	-0.265675	-228	352	2421	0	0.374263	0.519797	0.445808	0.162747	-0.0386724	0.584334	-0.419331	-0.0443101	-0.734325	-0.303318	-0.703515	-0.48066	0	0	0	0	0	0	-0.411144	-0.0422376	-0.73	-0.74	-0.18	-0.515	1.08993	0.948504	0.342998	0.0709453	-0.183718	-0.0348515	-0.124508	0.0160017	-0.0131566	-0.151433	-0.0337134	-0	0.759789	0.0870555	4.00988	-0.0541052	0.0150098	0	0.105278	0.105084	-1080	1080	-300	1700	-10	10	-0	-0	0	-0	250	-1.2	0.2	177	-1.2	-1	2555	0.07	1662	2860	8	56579	
14.0557	0.986718	-0.265872	-227	402	2426	0	0.372991	0.522053	0.426857	0.166497	-0.0334242	0.588626	-0.419254	-0.0442909	-0.734128	-0.30104	-0.705382	-0.461688	0	0	0	0	0	0	-0.411144	-0.0422376	-0.73	-0.74	-0.18	-0.5	1.08951	1.08417	0.3302	0.0719518	-0.18333	-0.0348307	-0.124512	0.015997	-0.0131537	-0.151426	-0.0337365	-0	0.785245	0.10039	3.99969	-0.058294	0.0172788	0	0.105252	0.105058	-1080	1080	-300	1700	-10	10	-0	-0	0	-0	250	-1.2	0.2	177	-1.2	-1	2555	0.07	1662	2860	8	56579	
14.0655	0.986696	-0.265851	-228	452	2427	0	0.374048	0.521139	0.425368	0.170173	-0.0283029	0.592806	-0.419274	-0.0442956	-0.734149	-0.302093	-0.704467	-0.460197	0	0	0	0	0	0	-0.411144	-0.0422376	-0.73	-0.74	-0.18	-0.5	1.09263	1.21786	0.32764	0.071955	-0.183329	-0.0348286	-0.12451	0.015998	-0.0131543	-0.151427	-0.0337343	-0	0.787089	0.100626	3.98605	-0.058294	0.0172788	0	0.105258	0.105063	-1080	1080	-300	1700	-10	10	-0	-0	0	-0	250	-1.2	0.2	177	-1.2	-1	2555	0.07	1662	2860	8	56579	
14.0757	0.986741	-0.266024	-227	502	2433	0	0.372547	0.523207	0.406467	0.173949	-0.0229992	0.596926	-0.419231	-0.0442847	-0.733976	-0.299697	-0.706227	-0.441056	0	0	0	0	0	0	-0.411144	-0.0422376	-0.73	-0.74	-0.18	-0.485	1.09265	1.35387	0.312282	0.0728499	-0.18302	-0.0345888	-0.124512	0.0159952	-0.0131526	-0.151422	-0.033755	-0	0.804355	0.117924	3.98498	-0.0612611	0.0202458	0	0.105243	0.105049	-1080	1080	-300	1700	-10	10	-0	-0	0	-0	250	-1.2	0.2	177	-1.2	-1	2555	0.07	1662	2860	8	56579	
14.0857	0.986954	-0.266291	-224	552	2438	0	0.370471	0.525053	0.389959	0.177669	-0.0177271	0.600842	-0.419024	-0.0442339	-0.733709	-0.296759	-0.707757	-0.424395	0	0	0	0	0	0	-0.411144	-0.0422376	-0.73	-0.74	-0.18	-0.471	1.08685	1.48927	0.299483	0.0737124	-0.182704	-0.0344352	-0.124526	0.015983	-0.0131454	-0.151406	-0.033785	-0	0.814308	0.129407	3.97137	-0.0626573	0.0221657	0	0.105175	0.104981	-1080	1080	-300	1700	-10	10	-0	-0	0	-0	250	-1.2	0.2	177	-1.2	-1	2555	0.07	1662	2860	8	56579	
14.0956	0.986759	-0.266164	-226	565	2438	0	0.371718	0.52379	0.388126	0.181361	-0.0125243	0.604697	-0.419214	-0.0442796	-0.733836	-0.297975	-0.706483	-0.42255	0	0	0	0	0	0	-0.411144	-0.0422376	-0.73	-0.74	-0.18	-0.471	1.09222	1.52364	0.299483	0.0737427	-0.182694	-0.0344242	-0.124511	0.0159937	-0.0131516	-0.151419	-0.033772	-0	0.815965	0.12967	3.95949	-0.0626573	0.0221657	0	0.105235	0.105041	-1080	1080	-300	1700	-10	10	-0	-0	0	-0	250	-1.2	0.2	177	-1.2	-1	2555	0.07	1662	2860	8	56579	
14.1056	0.986874	-0.266409	-222	568	2444	0	0.36819	0.526021	0.368642	0.185015	-0.00730411	0.608355	-0.419102	-0.0442521	-0.733591	-0.293532	-0.708403	-0.402743	0	0	0	0	0	0	-0.411144	-0.0422376	-0.73	-0.74	-0.18	-0.453	1.08415	1.53533	0.284125	0.0746579	-0.182382	-0.0341005	-0.124517	0.0159869	-0.0131475	-0.151408	-0.0338006	-0	0.818172	0.143994	3.95817	-0.0630064	0.0246091	0	0.105198	0.105004	-1080	1080	-300	1700	-10	10	-0	-0	0	-0	250	-1.2	0.2	177	-1.2	-1	2555	0.07	1662	2860	8	56579	
14.1155	0.986997	-0.266476	-222	568	2444	0	0.368243	0.526207	0.368676	0.18868	-0.0020673	0.612024	-0.418983	-0.0442226	-0.733524	-0.293605	-0.708596	-0.402782	0	0	0	0	0	0	-0.411144	-0.0422376	-0.73	-0.74	-0.18	-0.453	1.08415	1.53533	0.284125	0.0746387	-0.182389	-0.0341057	-0.124527	0.01598	-0.0131435	-0.1514	-0.0338072	-0	0.820133	0.144339	3.94414	-0.0630064	0.0246091	0	0.105158	0.104965	-1080	1080	-300	1700	-10	10	-0	-0	0	-0	250	-1.2	0.2	177	-1.2	-1	2555	0.07	1662	2860	8	56579	
14.1256	0.987044	-0.266676	-218	571	2450	0	0.36485	0.528978	0.348234	0.192369	0.00328172	0.615546	-0.418937	-0.0442112	-0.733324	-0.289389	-0.711158	-0.381639	0	0	0	0	0	0	-0.411144	-0.0422376	-0.73	-0.74	-0.18	-0.435	1.07602	1.54706	0.268767	0.075461	-0.182181	-0.0334051	-0.124528	0.0159769	-0.0131416	-0.151395	-0.0338312	-0	0.823171	0.170947	3.94416	-0.06353	0.029147	0	0.105143	0.104949	-1080	1080	-300	1700	-10	10	-0	-0	0	-0	250	-1.2	0.2	177	-1.2	-1	2555	0.07	1662	2860	8	56579	
14.1358	0.987063	-0.26681	-215	574	2455	0	0.361571	0.532031	0.332376	0.196031	0.0086696	0.618912	-0.418919	-0.0442064	-0.73319	-0.285311	-0.714083	-0.36465	0	0	0	0	0	0	-0.411144	-0.0422376	-0.73	-0.74	-0.18	-0.422	1.07011	1.55819	0.255969	0.0762598	-0.182052	-0.0322741	-0.124527	0.0159756	-0.0131407	-0.151391	-0.0338475	-0	0.818122	0.20728	3.92945	-0.0623083	0.0352557	0	0.105136	0.104942	-1080	1080	-300	1700	-10	10	-0	-0	0	-0	250	-1.2	0.2	177	-1.2	-1	2555	0.07	1662	2860	8	56579	
14.1457	0.986982	-0.266758	-215	574	2455	0	0.361801	0.531732	0.332017	0.199632	0.0139619	0.622216	-0.418998	-0.0442252	-0.733242	-0.285528	-0.713779	-0.364286	0	0	0	0	0	0	-0.411144	-0.0422376	-0.73	-0.74	-0.18	-0.422	1.07011	1.55819	0.255969	0.0762722	-0.182047	-0.0322698	-0.124522	0.0159799	-0.0131432	-0.151397	-0.0338422	-0	0.81971	0.207682	3.91803	-0.0623083	0.0352557	0	0.105161	0.104967	-1080	1080	-300	1700	-10	10	-0	-0	0	-0	250	-1.2	0.2	177	-1.2	-1	2555	0.07	1662	2860	8	56579	
14.1557	0.987011	-0.26689	-212	577	2459	0	0.358458	0.534998	0.316723	0.203222	0.0193194	0.625388	-0.41897	-0.0442179	-0.73311	-0.281305	-0.716866	-0.34789	0	0	0	0	0	0	-0.411144	-0.0422376	-0.73	-0.74	-0.18	-0.41	1.06373	1.56872	0.24573	0.0771533	-0.181868	-0.0311665	-0.124522	0.015978	-0.013142	-0.151393	-0.0338581	-0	0.818728	0.245713	3.91777	-0.0621337	0.0417134	0	0.10515	0.104957	-1080	1080	-300	1700	-10	10	-0	-0	0	-0	250	-1.2	0.2	177	-1.2	-1	2555	0.07	1662	2860	8	56579	
14.1656	0.987184	-0.267126	-208	582	2465	0	0.355411	0.538742	0.297091	0.206718	0.0246195	0.628311	-0.418802	-0.0441767	-0.732874	-0.277565	-0.720577	-0.326691	0	0	0	0	0	0	-0.411144	-0.0422376	-0.73	-0.74	-0.18	-0.395	1.05546	1.58588	0.230372	0.0778466	-0.181834	-0.0296004	-0.124533	0.0159681	-0.0131362	-0.15138	-0.0338848	-0	0.820258	0.299691	3.90676	-0.0621337	0.0507891	0	0.105095	0.104902	-1080	1080	-300	1700	-10	10	-0	-0	0	-0	250	-1.2	0.2	177	-1.2	-1	2555	0.07	1662	2860	8	56579	
14.1757	0.987177	-0.267116	-209	581	2465	0	0.35563	0.538599	0.296817	0.210323	0.0300788	0.631319	-0.418809	-0.044178	-0.732884	-0.277783	-0.720433	-0.326417	0	0	0	0	0	0	-0.411144	-0.0422376	-0.73	-0.74	-0.18	-0.395	1.05818	1.58321	0.230372	0.0778476	-0.181834	-0.0295994	-0.124533	0.0159683	-0.0131363	-0.15138	-0.0338837	-0	0.822221	0.300409	3.89263	-0.0621337	0.0507891	0	0.105096	0.104903	-1080	1080	-300	1700	-10	10	-0	-0	0	-0	250	-1.2	0.2	177	-1.2	-1	2555	0.07	1662	2860	8	56579	
14.1856	0.98735	-0.267308	-205	585	2470	0	0.35223	0.542108	0.282139	0.213827	0.0354728	0.634127	-0.418641	-0.0441368	-0.732692	-0.273575	-0.723814	-0.31036	0	0	0	0	0	0	-0.411144	-0.0422376	-0.73	-0.74	-0.18	-0.384	1.04944	1.59711	0.217573	0.0786545	-0.181706	-0.0282204	-0.124544	0.0159585	-0.0131305	-0.151368	-0.033905	-0	0.81918	0.346825	3.89243	-0.0616101	0.0586431	0	0.105041	0.104848	-1080	1080	-300	1700	-10	10	-0	-0	0	-0	250	-1.2	0.2	177	-1.2	-1	2555	0.07	1662	2860	8	56579	
14.1956	0.778009	-0.155746	-219	635	2473	0	0.365024	0.670649	0.271489	0.217471	0.0421672	0.636837	-0.58726	-0.0823705	-0.844254	-0.258466	-0.839035	-0.288562	0	0	0	0	0	0	-0.577824	-0.0795288	-0.841	-0.83	-0.25	-0.374	1.08885	1.73234	0.209894	0.106558	-0.168386	-0.0170725	-0.107114	0.023173	-0.015024	-0.165212	-0.0216526	-0	0.810395	0.388751	3.88187	-0.0598648	0.0656244	0	0.139353	0.138903	-1080	1080	-300	1700	-10	10	-0	-0	0	-0	250	-1.2	0.2	177	-1.2	-1	2555	0.07	1665	2867	8	56579	
14.2056	0.778304	-0.155832	-220	685	2473	0	0.365704	0.669831	0.27044	0.221108	0.0488293	0.639526	-0.587059	-0.0823098	-0.844168	-0.259186	-0.838241	-0.287518	0	0	0	0	0	0	-0.577824	-0.0795288	-0.841	-0.83	-0.25	-0.374	1.09157	1.86481	0.209894	0.106519	-0.16841	-0.017078	-0.107143	0.0231614	-0.0150222	-0.165194	-0.0216619	-0	0.811443	0.389254	3.8742	-0.0598648	0.0656244	0	0.139299	0.138849	-1080	1080	-300	1700	-10	10	-0	-0	0	-0	250	-1.2	0.2	177	-1.2	-1	2555	0.07	1665	2867	8	56579	
14.2156	0.778333	-0.155906	-217	726	2477	0	0.363564	0.671761	0.257524	0.224769	0.0555939	0.64212	-0.587039	-0.0823039	-0.844094	-0.256367	-0.839857	-0.273422	0	0	0	0	0	0	-0.577824	-0.0795288	-0.841	-0.83	-0.25	-0.367	1.08515	1.97597	0.199656	0.107197	-0.168096	-0.0158975	-0.107145	0.0231601	-0.0150219	-0.165192	-0.0216718	-0	0.808467	0.431683	3.87344	-0.0593412	0.0727802	0	0.139294	0.138844	-1080	1080	-300	1700	-10	10	-0	-0	0	-0	250	-1.2	0.2	177	-1.2	-1	2555	0.07	1665	2867	8	56579	
14.2256	0.778444	-0.155984	-216	728	2480	0	0.361941	0.673545	0.247398	0.22839	0.0623314	0.644594	-0.586964	-0.0822811	-0.844016	-0.254152	-0.84133	-0.262548	0	0	0	0	0	0	-0.577824	-0.0795288	-0.841	-0.83	-0.25	-0.362	1.08374	1.98363	0.191977	0.107789	-0.167785	-0.0151498	-0.107155	0.0231557	-0.0150212	-0.165184	-0.0216817	-0	0.815901	0.465472	3.86414	-0.0603884	0.0783653	0	0.139273	0.138824	-1080	1080	-300	1700	-10	10	-0	-0	0	-0	250	-1.2	0.2	177	-1.2	-1	2555	0.07	1665	2867	8	56579	
14.2356	0.778361	-0.155954	-216	727	2480	0	0.362144	0.673255	0.247088	0.232002	0.0690458	0.647059	-0.587021	-0.0822983	-0.844046	-0.254343	-0.841034	-0.262236	0	0	0	0	0	0	-0.577824	-0.0795288	-0.841	-0.83	-0.25	-0.362	1.08374	1.98099	0.191977	0.1078	-0.167778	-0.0151476	-0.107147	0.023159	-0.0150217	-0.165189	-0.0216783	-0	0.816902	0.466043	3.85685	-0.0603884	0.0783653	0	0.139289	0.138839	-1080	1080	-300	1700	-10	10	-0	-0	0	-0	250	-1.2	0.2	177	-1.2	-1	2555	0.07	1665	2867	8	56579	
14.2457	0.77851	-0.156014	-213	730	2482	0	0.359424	0.676086	0.241056	0.235613	0.0758391	0.649481	-0.586919	-0.0822677	-0.843986	-0.251027	-0.843571	-0.255157	0	0	0	0	0	0	-0.577824	-0.0795288	-0.841	-0.83	-0.25	-0.36	1.07641	1.99049	0.186857	0.108397	-0.167485	-0.0141015	-0.107162	0.0231531	-0.0150207	-0.16518	-0.0216852	-0	0.814874	0.504377	3.85663	-0.0600393	0.084823	0	0.139261	0.138812	-1080	1080	-300	1700	-10	10	-0	-0	0	-0	250	-1.2	0.2	177	-1.2	-1	2555	0.07	1665	2867	8	56579	
14.2557	0.778613	-0.156039	-213	731	2482	0	0.359493	0.676146	0.241009	0.23921	0.0826039	0.651892	-0.586849	-0.0822465	-0.843961	-0.25111	-0.843639	-0.255111	0	0	0	0	0	0	-0.577824	-0.0795288	-0.841	-0.83	-0.25	-0.36	1.07641	1.99313	0.186857	0.108384	-0.167493	-0.0141026	-0.107172	0.023149	-0.0150201	-0.165174	-0.0216879	-0	0.815468	0.504745	3.85229	-0.0600393	0.084823	0	0.139243	0.138793	-1080	1080	-300	1700	-10	10	-0	-0	0	-0	250	-1.2	0.2	177	-1.2	-1	2555	0.07	1665	2867	8	56579	
14.2657	0.778588	-0.156027	-211	733	2483	0	0.357222	0.678381	0.237576	0.242799	0.089419	0.654279	-0.586866	-0.0822516	-0.843973	-0.248268	-0.845576	-0.25079	0	0	0	0	0	0	-0.577824	-0.0795288	-0.841	-0.83	-0.25	-0.36	1.07138	1.9992	0.184297	0.108955	-0.167195	-0.0132143	-0.10717	0.02315	-0.0150203	-0.165175	-0.0216865	-0	0.811353	0.535824	3.85225	-0.0593412	0.090059	0	0.139247	0.138798	-1080	1080	-300	1700	-10	10	-0	-0	0	-0	250	-1.2	0.2	177	-1.2	-1	2555	0.07	1665	2867	8	56579	
14.2757	0.778707	-0.156038	-208	736	2483	0	0.354646	0.680927	0.237131	0.246323	0.096186	0.656635	-0.586785	-0.0822272	-0.843962	-0.245072	-0.847774	-0.249603	0	0	0	0	0	0	-0.577824	-0.0795288	-0.841	-0.83	-0.25	-0.362	1.06317	2.0071	0.184297	0.109573	-0.166848	-0.0124721	-0.107181	0.0231453	-0.0150195	-0.165168	-0.0216869	-0	0.805505	0.560906	3.84978	-0.058294	0.0942478	0	0.139225	0.138776	-1080	1080	-300	1700	-10	10	-0	-0	0	-0	250	-1.2	0.2	177	-1.2	-1	2555	0.07	1665	2867	8	56579	
14.2857	0.778723	-0.156038	-208	736	2483	0	0.354792	0.680859	0.236966	0.249886	0.103023	0.659015	-0.586774	-0.0822239	-0.843962	-0.245221	-0.847708	-0.249438	0	0	0	0	0	0	-0.577824	-0.0795288	-0.841	-0.83	-0.25	-0.362	1.06317	2.0071	0.184297	0.109571	-0.166849	-0.0124717	-0.107183	0.0231447	-0.0150194	-0.165167	-0.0216868	-0	0.805549	0.560936	3.84946	-0.058294	0.0942478	0	0.139222	0.138773	-1080	1080	-300	1700	-10	10	-0	-0	0	-0	250	-1.2	0.2	177	-1.2	-1	2555	0.07	1665	2867	8	56579	
14.2956	0.77892	-0.156092	-206	739	2484	0	0.352385	0.68335	0.233976	0.253368	0.109775	0.661327	-0.58664	-0.0821836	-0.843908	-0.242303	-0.849924	-0.245594	0	0	0	0	0	0	-0.577824	-0.0795288	-0.841	-0.83	-0.25	-0.362	1.05813	2.01581	0.181738	0.110082	-0.166574	-0.011618	-0.107202	0.0231369	-0.0150182	-0.165155	-0.0216926	-0	0.801441	0.590976	3.84934	-0.0575959	0.0993092	0	0.139186	0.138737	-1080	1080	-300	1700	-10	10	-0	-0	0	-0	250	-1.2	0.2	177	-1.2	-1	2555	0.07	1665	2867	8	56579	
14.3055	0.778858	-0.156058	-203	742	2486	0	0.350376	0.68637	0.228842	0.256849	0.116595	0.663601	-0.586682	-0.0821962	-0.843942	-0.239731	-0.852664	-0.239035	0	0	0	0	0	0	-0.577824	-0.0795288	-0.841	-0.83	-0.25	-0.363	1.05076	2.02533	0.176618	0.110644	-0.166295	-0.0101937	-0.107196	0.0231394	-0.0150186	-0.165159	-0.0216885	-0	0.799668	0.642945	3.84719	-0.0572468	0.108036	0	0.139198	0.138748	-1080	1080	-300	1700	-10	10	-0	-0	0	-0	250	-1.2	0.2	177	-1.2	-1	2555	0.07	1665	2867	8	56579	
14.3156	0.779118	-0.156131	-203	742	2486	0	0.350281	0.686697	0.229036	0.260367	0.123491	0.665901	-0.586504	-0.0821428	-0.843869	-0.239671	-0.853014	-0.239233	0	0	0	0	0	0	-0.577824	-0.0795288	-0.841	-0.83	-0.25	-0.363	1.05076	2.02533	0.176618	0.110611	-0.166317	-0.0101973	-0.107222	0.0231291	-0.0150169	-0.165143	-0.0216964	-0	0.800164	0.643343	3.8435	-0.0572468	0.108036	0	0.13915	0.138701	-1080	1080	-300	1700	-10	10	-0	-0	0	-0	250	-1.2	0.2	177	-1.2	-1	2555	0.07	1665	2867	8	56579	
14.3255	0.779115	-0.156126	-201	746	2488	0	0.348295	0.689783	0.222329	0.263844	0.130377	0.66812	-0.586507	-0.0821436	-0.843874	-0.237207	-0.855876	-0.230856	0	0	0	0	0	0	-0.577824	-0.0795288	-0.841	-0.83	-0.25	-0.363	1.04612	2.0375	0.171499	0.111088	-0.166092	-0.00852743	-0.107221	0.0231293	-0.015017	-0.165144	-0.0216957	-0	0.796017	0.702305	3.84364	-0.0565487	0.117984	0	0.13915	0.138702	-1080	1080	-300	1700	-10	10	-0	-0	0	-0	250	-1.2	0.2	177	-1.2	-1	2555	0.07	1665	2867	8	56579	
