time ;e1;e2;ctrlpitch;ctrlroll;ctrlthrust;ctrlyaw;edx;edy;edz;cumulx;cumuly;cumulz;x;y;z;dxr;dyr;dzr;dxrT;dyrT;dzrT;dxrUn;dyrUn;dzrUn;x_pred;y_pred;z_pred;dx_pred;dy_pred;dz_pred;ux;uy;uz;dxd;dyd;dzd;Perpx;Tangx;Perpy;Tangy;Perpz;Tanz;ax;ay;az;err_sti_x;err_sti_y;err_sti_z;err_sti_dx;err_sti_dy;err_sti_dz;pitch;roll;yaw;yawd;eyaw;kpvx;kpvy;kpvz;kpyaw;kivx;kivy;kivz;kdvx;kdvy;kdvz;kdyaw;ktg;veld;pitchoff;ke1;ke2;gravity;thr_vel;gps_accuracy;height_accuracy;gps_sat_num;gps_status
13,1612;-0,32368;-1,933;50;50;1450;0;-0,0607639;0,113917;-0,11052;-0,000109436;0,000205165;-0,000199047;-0,033336;-0,0439748;-0,067;0,012347;-0,0147371;-0,0562705;0;0;0;0;0;0;0;0;0;0;0;0;0,205665;0,0810057;2,82845;-0,0484169;0,0991802;-0,166791;0,0281677;-0,00113856;0,000307108;0,104428;-0,168226;0;0;-0;9,81;0;0;0;0;0;0;-0,00959931;-0,00994838;0;0,92215;0,796903;-850;850;-600;1700;-10;10;-10;-0;0;-0;250;1,2;0,2;177;-1,2;-1;2555;0,07;1930;2861;8;56579;
13,1693;-0,32368;-1,933;100;96;1500;0;-0,0606964;0,113898;-0,107531;-0,000604112;0,00113343;-0,00107542;-0,033336;-0,0439748;-0,067;0,0123258;-0,0147095;-0,0592681;0;0;0;0;0;0;0;0;0;0;0;0;0,129036;0,16086;2,70047;-0,0483706;0,0991884;-0,166799;0,0281677;-0,00113856;0,000307108;0,104428;-0,168226;0;0,544647;-0,0625781;3,51962;0;0;0;0;0;0;-0,00942478;-0,00994838;0;0,92215;0,796903;-850;850;-600;1700;-10;10;-10;-0;0;-0;250;1,2;0,2;177;-1,2;-1;2555;0,07;1930;2861;8;56579;
13,1794;-0,32368;-1,933;150;96;1550;0;-0,060659;0,113878;-0,105542;-0,00121428;0,00227893;-0,00213707;-0,033336;-0,0439748;-0,067;0,0123177;-0,0146897;-0,0612657;0;0;0;0;0;0;0;0;0;0;0;0;0,0467625;0,166222;2,57249;-0,0483413;0,0991885;-0,166808;0,0281677;-0,00113856;0,000307108;0,104428;-0,168226;0;0,543183;-0,0625355;3,5239;0;0;0;0;0;0;-0,00925025;-0,00994838;0;0,92215;0,796903;-850;850;-600;1700;-10;10;-10;-0;0;-0;250;1,2;0,2;177;-1,2;-1;2555;0,07;1930;2861;8;56579;
13,1893;-0,32368;-1,933;200;96;1600;0;-0,060659;0,113878;-0,105542;-0,00181626;0,00340906;-0,00318447;-0,033336;-0,0439748;-0,067;0,0123177;-0,0146897;-0,0612657;0;0;0;0;0;0;0;0;0;0;0;0;-0,04112;0,171584;2,4445;-0,0483413;0,0991885;-0,166808;0,0281677;-0,00113856;0,000307108;0,104428;-0,168226;0;0,542938;-0,0625072;3,52674;0;0;0;0;0;0;-0,00925025;-0,00994838;0;0,92215;0,796903;-850;850;-600;1700;-10;10;-10;-0;0;-0;250;1,2;0,2;177;-1,2;-1;2555;0,07;1930;2861;8;56579;
13,1993;-0,32368;-1,933;228;96;1650;0;-0,0606587;0,11384;-0,103551;-0,00242151;0,00454496;-0,0042177;-0,033336;-0,0439748;-0,067;0,0122881;-0,0146808;-0,0632651;0;0;0;0;0;0;0;0;0;0;0;0;-0,0940222;0,176946;2,31652;-0,0483706;0,0991593;-0,166816;0,0281677;-0,00113856;0,000307108;0,104428;-0,168226;0;0,544032;-0,0614109;3,52671;0;0;0;0;0;-4,2091e-05;-0,00942478;-0,00977384;0;0,92215;0,796903;-850;850;-600;1700;-10;10;-10;-0;0;-0;250;1,2;0,2;177;-1,2;-1;2555;0,07;1930;2861;8;56579;
13,2093;-0,32368;-1,933;228;96;1700;0;-0,0606587;0,11384;-0,103551;-0,00302755;0,00568233;-0,00525228;-0,033336;-0,0439748;-0,067;0,0122881;-0,0146808;-0,0632651;0;0;0;0;0;0;0;0;0;0;0;0;-0,0968714;0,182308;2,18853;-0,0483706;0,0991593;-0,166816;0,0281677;-0,00113856;0,000307108;0,104428;-0,168226;0;0,543786;-0,0613831;3,52955;0;1,60836e-06;4,74465e-06;0;0;-7,40822e-05;-0,00942478;-0,00977384;0;0,92215;0,796903;-850;850;-600;1700;-10;10;-10;-0;0;-0;250;1,2;0,2;177;-1,2;-1;2555;0,07;1930;2861;8;56579;
13,2192;-0,32368;-1,933;228;96;1750;0;-0,0606222;0,113822;-0,103592;-0,00363056;0,00681452;-0,00628272;-0,033336;-0,0439748;-0,067;0,0123102;-0,0146919;-0,0632583;0;0;0;0;0;0;0;0;0;0;0;0;-0,0997205;0,18767;2,06055;-0,048312;0,0991304;-0,166851;0,0281677;-0,00113856;0,000307108;0,104428;-0,168226;0;0,541604;-0,0602873;3,52953;0;3,50114e-06;1,05177e-05;-3,89281e-06;-1,53327e-06;-0,000143584;-0,00907571;-0,00959931;0;0,92215;0,796903;-850;850;-600;1700;-10;10;-10;-0;0;-0;250;1,2;0,2;177;-1,2;-1;2555;0,07;1930;2861;8;56579;
13,2292;-0,32368;-1,933;228;96;1800;0;-0,0606115;0,113841;-0,102562;-0,00423395;0,00794781;-0,00730372;-0,033336;-0,0439748;-0,067;0,0122872;-0,0146733;-0,0642629;0;0;0;0;0;0;0;0;0;0;0;0;-0,10257;0,193032;1,93256;-0,0483243;0,0991676;-0,166825;0,0281677;-0,00113856;0,000307108;0,104428;-0,168226;0;0,542704;-0,0613842;3,52944;-3,16763e-08;7,33798e-06;2,18224e-05;-1,67765e-05;-1,08434e-05;-0,00038527;-0,00925025;-0,00977384;0;0,92215;0,796903;-850;850;-600;1700;-10;10;-10;-0;0;-0;250;1,2;0,2;177;-1,2;-1;2555;0,07;1930;2861;8;56579;
13,2393;-0,32368;-1,933;228;96;1850;0;-0,0606115;0,113841;-0,102562;-0,00484807;0,00910125;-0,00834288;-0,033336;-0,0439748;-0,067;0,0122872;-0,0146733;-0,0642629;0;0;0;0;0;0;0;0;0;0;0;0;-0,105419;0,198394;1,80458;-0,0483243;0,0991676;-0,166825;0,0281677;-0,00113856;0,000307108;0,104428;-0,168226;0;0,542578;-0,0613699;3,5309;-2,26658e-07;1,32223e-05;3,77095e-05;-3,96677e-05;-3,53322e-05;-0,000881362;-0,00925025;-0,00977384;0;0,92215;0,796903;-850;850;-600;1700;-10;10;-10;-0;0;-0;250;1,2;0,2;177;-1,2;-1;2555;0,07;1930;2861;8;56579;
13,2494;-0,32368;-1,933;228;96;1900;0;-0,0606146;0,113783;-0,100593;-0,00546221;0,0102541;-0,00936208;-0,033336;-0,0439748;-0,067;0,0122856;-0,0146608;-0,066258;0;0;0;0;0;0;0;0;0;0;0;0;-0,108268;0,203756;1,67659;-0,048329;0,0991222;-0,166851;0,0281677;-0,00113856;0,000307108;0,104428;-0,168226;0;0,541488;-0,0602743;3,53088;-1,33794e-06;2,05073e-05;4,50838e-05;-8,31574e-05;-8,79551e-05;-0,00197643;-0,00907571;-0,00959931;0;0,92215;0,796903;-850;850;-600;1700;-10;10;-10;-0;0;-0;250;1,2;0,2;177;-1,2;-1;2555;0,07;1930;2861;8;56579;
13,2593;-0,32368;-1,933;228;96;1950;0;-0,0606316;0,113662;-0,0997034;-0,00605804;0,0113711;-0,0103419;-0,033336;-0,0439748;-0,067;0,0123224;-0,0146892;-0,0672412;0;0;0;0;0;0;0;0;0;0;0;0;-0,111117;0,209118;1,54861;-0,0483092;0,0989732;-0,166945;0,0281677;-0,00113856;0,000307108;0,104428;-0,168226;0;0,537972;-0,0558658;3,53369;-1,94692e-06;2,74339e-05;5,32954e-05;-9,66999e-05;-0,000154728;-0,00303287;-0,00855211;-0,00890118;0;0,92215;0,796903;-850;850;-600;1700;-10;10;-10;-0;0;-0;250;1,2;0,2;177;-1,2;-1;2555;0,07;1930;2861;8;56579;
13,2694;-0,32368;-1,933;228;96;2000;0;-0,0606316;0,113662;-0,0997034;-0,00666957;0,0125175;-0,0113475;-0,033336;-0,0439748;-0,067;0,0123224;-0,0146892;-0,0672412;0;0;0;0;0;0;0;0;0;0;0;0;-0,113966;0,21448;1,42063;-0,0483092;0,0989732;-0,166945;0,0281677;-0,00113856;0,000307108;0,104428;-0,168226;0;0,537864;-0,0558546;3,53495;-2,08702e-06;3,54846e-05;6,06596e-05;-8,33181e-05;-0,000238029;-0,00422977;-0,00855211;-0,00890118;0;0,92215;0,796903;-850;850;-600;1700;-10;10;-10;-0;0;-0;250;1,2;0,2;177;-1,2;-1;2555;0,07;1930;2861;8;56579;
13,2794;-0,32368;-1,933;228;96;2050;0;-0,0606321;0,113578;-0,0987852;-0,00727716;0,0136556;-0,0123374;-0,033336;-0,0439748;-0,067;0,012372;-0,0146952;-0,0682274;0;0;0;0;0;0;0;0;0;0;0;0;-0,116815;0,219842;1,29264;-0,0482601;0,0988825;-0,167013;0,0281677;-0,00113856;0,000307108;0,104428;-0,168226;0;0,533501;-0,0536645;3,53492;-1,51552e-06;4,36669e-05;6,85688e-05;-4,60736e-05;-0,000326811;-0,00541187;-0,00785398;-0,00855211;0;0,92215;0,796903;-850;850;-600;1700;-10;10;-10;-0;0;-0;250;1,2;0,2;177;-1,2;-1;2555;0,07;1930;2861;8;56579;
13,2892;-0,32368;-1,933;228;96;2100;0;-0,0606381;0,113438;-0,0948882;-0,00787609;0,014776;-0,0132746;-0,033336;-0,0439748;-0,067;0,0124348;-0,0146706;-0,0722091;0;0;0;0;0;0;0;0;0;0;0;0;-0,119665;0,225204;1,16466;-0,0482033;0,0987672;-0,167097;0,0281677;-0,00113856;0,000307108;0,104428;-0,168226;0;0,526844;-0,0514635;3,53622;-5,62491e-07;5,17684e-05;7,87671e-05;2,65876e-06;-0,000418278;-0,00654992;-0,00680678;-0,00820305;0;0,92215;0,796903;-850;850;-600;1700;-10;10;-10;-0;0;-0;250;1,2;0,2;177;-1,2;-1;2555;0,07;1930;2861;8;56579;
13,2994;-0,32368;-1,933;228;96;2150;0;-0,0606381;0,113438;-0,0948882;-0,00849096;0,0159263;-0,0142368;-0,033336;-0,0439748;-0,067;0,0124348;-0,0146706;-0,0722091;0;0;0;0;0;0;0;0;0;0;0;0;-0,122514;0,230566;1,03667;-0,0482033;0,0987672;-0,167097;0,0281677;-0,00113856;0,000307108;0,104428;-0,168226;0;0,526375;-0,0514177;3,54181;4,31391e-07;5,98188e-05;9,06736e-05;5,31026e-05;-0,000512873;-0,00761864;-0,00680678;-0,00820305;0;0,92215;0,796903;-850;850;-600;1700;-10;10;-10;-0;0;-0;250;1,2;0,2;177;-1,2;-1;2555;0,07;1930;2861;8;56579;
13,3093;-0,32368;-1,933;228;96;2200;0;-0,0606879;0,11329;-0,0909806;-0,00909383;0,0170517;-0,0151406;-0,033336;-0,0439748;-0,067;0,0124952;-0,0146464;-0,0761929;0;0;0;0;0;0;0;0;0;0;0;0;-0,125363;0,235928;0,908689;-0,0481927;0,0986433;-0,167173;0,0281677;-0,00113856;0,000307108;0,104428;-0,168226;0;0,520926;-0,0492299;3,54179;1,4556e-06;6,77537e-05;0,000103741;0,000104859;-0,000609881;-0,0086597;-0,00593412;-0,00785398;0;0,92215;0,796903;-850;850;-600;1700;-10;10;-10;-0;0;-0;250;1,2;0,2;177;-1,2;-1;2555;0,07;1930;2861;8;56579;
13,3193;-0,32368;-1,925;205;82;2250;0;-0,0338939;0,0970791;-0,0860796;-0,00943104;0,0180176;-0,015997;-0,033336;-0,0439748;-0,075;-0,0145356;0,00175741;-0,0809112;0;0;0;0;0;0;0;0;0;0;0;0;-0,070395;0,206118;0,780705;-0,0484295;0,0988365;-0,166991;0,0282503;-0,0011419;0,000308009;0,104734;-0,168021;0;0,517192;-0,0491859;3,54739;2,49896e-06;7,55751e-05;3,86485e-05;5,79376e-05;-0,00040947;-0,00967266;-0,00541052;-0,00785398;0;0,92215;0,796903;-850;850;-600;1700;-10;10;-10;-0;0;-0;250;1,2;0,2;177;-1,2;-1;2555;0,07;1932;2867;8;56579;
13,3293;-0,32368;-1,925;205;82;2300;0;-0,0338939;0,0970791;-0,0860796;-0,00977001;0,0189884;-0,0168579;-0,033336;-0,0439748;-0,075;-0,0145356;0,00175741;-0,0809112;0;0;0;0;0;0;0;0;0;0;0;0;-0,0719593;0,210698;0,65272;-0,0484295;0,0988365;-0,166991;0,0282503;-0,0011419;0,000308009;0,104734;-0,168021;0;0,516611;-0,0491307;3,55443;3,57424e-06;8,33356e-05;-2,33487e-05;1,24448e-05;-0,000211507;-0,0105848;-0,00541052;-0,00785398;0;0,92215;0,796903;-850;850;-600;1700;-10;10;-10;-0;0;-0;250;1,2;0,2;177;-1,2;-1;2555;0,07;1932;2867;8;56579;
13,3393;-0,32368;-1,925;206;82;2350;0;-0,034033;0,0969575;-0,0821199;-0,0101121;0,0199632;-0,0176834;-0,033336;-0,0439748;-0,075;-0,0145005;0,00174209;-0,0849217;0;0;0;0;0;0;0;0;0;0;0;0;-0,0761494;0,215279;0,524736;-0,0485335;0,0986995;-0,167042;0,0282503;-0,0011419;0,000308009;0,104734;-0,168021;0;0,512261;-0,048039;3,55441;4,6731e-06;9,09887e-05;-8,39466e-05;-3,14742e-05;-1,6813e-05;-0,0114704;-0,00471239;-0,00767945;0;0,92215;0,796903;-850;850;-600;1700;-10;10;-10;-0;0;-0;250;1,2;0,2;177;-1,2;-1;2555;0,07;1932;2867;8;56579;
13,3492;-0,32368;-1,925;206;82;2400;0;-0,034033;0,0969575;-0,0821199;-0,0104486;0,0209217;-0,0184953;-0,033336;-0,0439748;-0,075;-0,0145005;0,00174209;-0,0849217;0;0;0;0;0;0;0;0;0;0;0;0;-0,0777696;0,219859;0,396751;-0,0485335;0,0986995;-0,167042;0,0282503;-0,0011419;0,000308009;0,104734;-0,168021;0;0,511795;-0,0479954;3,56009;5,78363e-06;9,85158e-05;-0,000141335;-7,42913e-05;0,000175762;-0,0122469;-0,00471239;-0,00767945;0;0,92215;0,796903;-850;850;-600;1700;-10;10;-10;-0;0;-0;250;1,2;0,2;177;-1,2;-1;2555;0,07;1932;2867;8;56579;
13,3593;-0,32368;-1,925;206;82;2450;0;-0,0342639;0,096707;-0,0772735;-0,0107955;0,0219008;-0,0192777;-0,033336;-0,0439748;-0,075;-0,0144336;0,0016215;-0,0899391;0;0;0;0;0;0;0;0;0;0;0;0;-0,0793898;0,22444;0,268767;-0,0486975;0,0983285;-0,167213;0,0282503;-0,0011419;0,000308009;0,104734;-0,168021;0;0,505274;-0,04036;3,56007;1,19245e-05;9,09692e-05;-0,000114694;-1,56239e-05;6,5653e-05;-0,0129612;-0,00366519;-0,00645772;0;0,92215;0,796903;-850;850;-600;1700;-10;10;-10;-0;0;-0;250;1,2;0,2;177;-1,2;-1;2555;0,07;1932;2867;8;56579;
13,3692;-0,32368;-1,925;206;82;2500;0;-0,0344771;0,0964497;-0,0714562;-0,0111367;0,0228553;-0,0199848;-0,033336;-0,0439748;-0,075;-0,0143251;0,00147715;-0,0959615;0;0;0;0;0;0;0;0;0;0;0;0;-0,08101;0,22902;0,140783;-0,0488023;0,0979268;-0,167418;0,0282503;-0,0011419;0,000308009;0,104734;-0,168021;0;0,496022;-0,0315984;3,56703;1,80729e-05;8,33487e-05;-8,65738e-05;4,43375e-05;-4,70046e-05;-0,0136683;-0,00226893;-0,00506145;0;0,92215;0,796903;-850;850;-600;1700;-10;10;-10;-0;0;-0;250;1,2;0,2;177;-1,2;-1;2555;0,07;1932;2867;8;56579;
13,3793;-0,32368;-1,925;206;82;2550;0;-0,0344771;0,0964497;-0,0714562;-0,0114852;0,0238301;-0,020707;-0,033336;-0,0439748;-0,075;-0,0143251;0,00147715;-0,0959615;0;0;0;0;0;0;0;0;0;0;0;0;-0,0826302;0,2336;0,0127984;-0,0488023;0,0979268;-0,167418;0,0282503;-0,0011419;0,000308009;0,104734;-0,168021;0;0,495358;-0,0315561;3,57539;2,42475e-05;7,56332e-05;-5,48118e-05;0,000100057;-0,000159144;-0,0142717;-0,00226893;-0,00506145;0;0,92215;0,796903;-850;850;-600;1700;-10;10;-10;-0;0;-0;250;1,2;0,2;177;-1,2;-1;2555;0,07;1932;2867;8;56579;
13,3893;-0,32368;-1,925;206;81;2589;0;-0,0347997;0,0960937;-0,0577199;-0,0118332;0,0247913;-0,0212843;-0,033336;-0,0439748;-0,075;-0,0141122;0,00126558;-0,109997;0;0;0;0;0;0;0;0;0;0;0;0;-0,0838939;0,234282;-0,0870294;-0,0489119;0,0973592;-0,167716;0,0282503;-0,0011419;0,000308009;0,104734;-0,168021;0;0,481257;-0,0195866;3,57537;3,0378e-05;6,78737e-05;-2,1531e-05;0,000151264;-0,000270399;-0,0149496;0;-0,00314159;0;0,92215;0,796903;-850;850;-600;1700;-10;10;-10;-0;0;-0;250;1,2;0,2;177;-1,2;-1;2555;0,07;1932;2867;8;56579;
13,3993;-0,32368;-1,925;207;81;2582;0;-0,0351727;0,0958175;-0,0449325;-0,0121843;0,0257476;-0,0217328;-0,033336;-0,0439748;-0,075;-0,0139017;0,00104675;-0,123023;0;0;0;0;0;0;0;0;0;0;0;0;-0,086552;0,233648;-0,0691115;-0,0490743;0,0968642;-0,167955;0,0282503;-0,0011419;0,000308009;0,104734;-0,168021;0;0,468916;-0,00976229;3,59513;3,64278e-05;6,01194e-05;1,556e-05;0,000198338;-0,000381178;-0,0156457;0,00174533;-0,0015708;0;0,92215;0,796903;-850;850;-600;1700;-10;10;-10;-0;0;-0;250;1,2;0,2;177;-1,2;-1;2555;0,07;1932;2867;8;56579;
13,4093;-0,32368;-1,925;207;81;2582;0;-0,0351727;0,0958175;-0,0449325;-0,0125344;0,0267013;-0,02218;-0,033336;-0,0439748;-0,075;-0,0139017;0,00104675;-0,123023;0;0;0;0;0;0;0;0;0;0;0;0;-0,086552;0,233648;-0,0691115;-0,0490743;0,0968642;-0,167955;0,0282503;-0,0011419;0,000308009;0,104734;-0,168021;0;0,467528;-0,00973338;3,61353;4,20293e-05;5,26532e-05;5,65925e-05;0,000234842;-0,000486598;-0,0162147;0,00174533;-0,0015708;0;0,92215;0,796903;-850;850;-600;1700;-10;10;-10;-0;0;-0;250;1,2;0,2;177;-1,2;-1;2555;0,07;1932;2867;8;56579;
13,4194;-0,32368;-1,925;207;81;2572;0;-0,0356727;0,0955337;-0,0282149;-0,0128943;0,0276651;-0,0224646;-0,033336;-0,0439748;-0,075;-0,0135588;0,000701315;-0,140056;0;0;0;0;0;0;0;0;0;0;0;0;-0,0862168;0,232744;-0,0435147;-0,0492315;0,096235;-0,168271;0,0282503;-0,0011419;0,000308009;0,104734;-0,168021;0;0,453508;0,00324447;3,61352;4,76562e-05;4,51304e-05;9,89552e-05;0,000272559;-0,000594806;-0,0168916;0,00401426;0,000523599;0;0,92215;0,796903;-850;850;-600;1700;-10;10;-10;-0;0;-0;250;1,2;0,2;177;-1,2;-1;2555;0,07;1932;2867;8;56579;
13,4292;-0,32368;-1,925;207;81;2556;0;-0,0363121;0,0953427;-0,00153018;-0,0132527;0,0286062;-0,0224798;-0,033336;-0,0439748;-0,075;-0,0131629;0,000170875;-0,16708;0;0;0;0;0;0;0;0;0;0;0;0;-0,0856805;0,231296;-0,00255969;-0,049475;0,0955136;-0,16861;0,0282503;-0,0011419;0,000308009;0,104734;-0,168021;0;0,441002;0,0193912;3,63759;5,32603e-05;3,76364e-05;0,000149231;0,000311377;-0,000704703;-0,0176311;0,00575959;0,00314159;0;0,92215;0,796903;-850;850;-600;1700;-10;10;-10;-0;0;-0;250;1,2;0,2;177;-1,2;-1;2555;0,07;1932;2867;8;56579;
13,4392;-0,32368;-1,925;208;81;2556;0;-0,0363121;0,0953427;-0,00153018;-0,0136148;0,0295571;-0,022495;-0,033336;-0,0439748;-0,075;-0,0131629;0,000170875;-0,16708;0;0;0;0;0;0;0;0;0;0;0;0;-0,0885363;0,231296;-0,00255969;-0,049475;0,0955136;-0,16861;0,0282503;-0,0011419;0,000308009;0,104734;-0,168021;0;0,438257;0,0192705;3,67601;5,8886e-05;3,00864e-05;0,000207424;0,000351193;-0,000817447;-0,0181787;0,00575959;0,00314159;0;0,92215;0,796903;-850;850;-600;1700;-10;10;-10;-0;0;-0;250;1,2;0,2;177;-1,2;-1;2555;0,07;1932;2867;8;56579;
13,4492;-0,32368;-1,925;208;81;2534;0;-0,0371602;0,0953392;0,034105;-0,0139853;0,0305075;-0,022155;-0,033336;-0,0439748;-0,075;-0,0127116;-0,000704518;-0,203093;0;0;0;0;0;0;0;0;0;0;0;0;-0,0877743;0,229305;0,0537534;-0,0498718;0,0946347;-0,168988;0,0282503;-0,0011419;0,000308009;0,104734;-0,168021;0;0,430782;0,0396113;3,67601;6,44667e-05;2,2573e-05;0,00026636;0,000391519;-0,000931338;-0,0190211;0,00698132;0,00645772;0;0,92215;0,796903;-850;850;-600;1700;-10;10;-10;-0;0;-0;250;1,2;0,2;177;-1,2;-1;2555;0,07;1932;2867;8;56579;
13,4593;-0,32368;-1,925;209;81;2510;0;-0,0381029;0,0955532;0,0748371;-0,014372;0,0314774;-0,0213954;-0,033336;-0,0439748;-0,075;-0,0123438;-0,00170206;-0,244092;0;0;0;0;0;0;0;0;0;0;0;0;-0,0897474;0,227133;0,115186;-0,0504468;0,0938511;-0,169255;0,0282503;-0,0011419;0,000308009;0,104734;-0,168021;0;0,42506;0,0552039;3,72732;7,00445e-05;1,50415e-05;0,00033491;0,000432738;-0,00104665;-0,0200553;0,00733038;0,00907571;0;0,92215;0,796903;-850;850;-600;1700;-10;10;-10;-0;0;-0;250;1,2;0,2;177;-1,2;-1;2555;0,07;1932;2867;8;56579;
13,4693;-0,32368;-1,925;209;81;2510;0;-0,0381029;0,0955532;0,0748371;-0,0147516;0,0324293;-0,0206499;-0,033336;-0,0439748;-0,075;-0,0123438;-0,00170206;-0,244092;0;0;0;0;0;0;0;0;0;0;0;0;-0,0897474;0,227133;0,115186;-0,0504468;0,0938511;-0,169255;0,0282503;-0,0011419;0,000308009;0,104734;-0,168021;0;0,42096;0,0546714;3,78599;7,55867e-05;7,54945e-06;0,000417475;0,00047448;-0,00116234;-0,0207857;0,00733038;0,00907571;0;0,92215;0,796903;-850;850;-600;1700;-10;10;-10;-0;0;-0;250;1,2;0,2;177;-1,2;-1;2555;0,07;1932;2867;8;56579;
13,4794;-0,32368;-1,925;210;81;2485;0;-0,0391011;0,0959758;0,116571;-0,0151453;0,0333955;-0,0194764;-0,033336;-0,0439748;-0,075;-0,0120894;-0,00298817;-0,286079;0;0;0;0;0;0;0;0;0;0;0;0;-0,09163;0,224871;0,179178;-0,0511905;0,0929876;-0,169508;0,0282503;-0,0011419;0,000308009;0,104734;-0,168021;0;0,422008;0,0714925;3,78601;8,11626e-05;2,47009e-08;0,000501066;0,000516996;-0,00127882;-0,021923;0,00715585;0,0118682;0;0,92215;0,796903;-850;850;-600;1700;-10;10;-10;-0;0;-0;250;1,2;0,2;177;-1,2;-1;2555;0,07;1932;2867;8;56579;
13,4893;-0,322917;-1,884;212;47;2453;0;-0,0417758;0,0557829;0,168974;-0,0155616;0,0339515;-0,0177922;-0,033336;-0,0360364;-0,116;-0,0107575;0,0379506;-0,337658;0;0;0;0;0;0;0;0;0;0;0;0;-0,0959314;0,128818;0,261088;-0,0525333;0,0937335;-0,168684;0,0286145;-0,000950065;0,000255661;0,106335;-0,166952;0;0,416758;0,0843095;3,84612;8,66832e-05;7,18724e-05;0,00019215;0,000859156;-0,00109442;-0,0232167;0,00733038;0,0141372;0;0,824305;0,734076;-850;850;-600;1700;-10;10;-10;-0;0;-0;250;1,2;0,2;177;-1,2;-1;2555;0,07;1932;2866;8;56579;
13,4992;-0,322917;-1,884;212;47;2453;0;-0,0417758;0,0557829;0,168974;-0,0159756;0,0345043;-0,0161177;-0,033336;-0,0360364;-0,116;-0,0107575;0,0379506;-0,337658;0;0;0;0;0;0;0;0;0;0;0;0;-0,0959314;0,128818;0,261088;-0,0525333;0,0937335;-0,168684;0,0286145;-0,000950065;0,000255661;0,106335;-0,166952;0;0,411483;0,0832423;3,92162;9,21924e-05;0,000144049;-9,79793e-05;0,00120279;-0,000908878;-0,0241102;0,00733038;0,0141372;0;0,824305;0,734076;-850;850;-600;1700;-10;10;-10;-0;0;-0;250;1,2;0,2;177;-1,2;-1;2555;0,07;1932;2866;8;56579;
13,5092;-0,322917;-1,884;213;48;2416;0;-0,0429061;0,0567794;0,230812;-0,0164021;0,0350686;-0,0138236;-0,033336;-0,0360364;-0,116;-0,0103345;0,0361175;-0,399737;0;0;0;0;0;0;0;0;0;0;0;0;-0,0971838;0,129574;0,355796;-0,0532405;0,0928969;-0,168925;0,0286145;-0,000950065;0,000255661;0,106335;-0,166952;0;0,406354;0,0955728;3,92166;9,76709e-05;0,000216265;-0,000388777;0,00154642;-0,000722691;-0,0256391;0,00820305;0,0162316;0;0,824305;0,734076;-850;850;-600;1700;-10;10;-10;-0;0;-0;250;1,2;0,2;177;-1,2;-1;2555;0,07;1932;2866;8;56579;
13,5193;-0,322917;-1,884;213;48;2416;0;-0,0429061;0,0567794;0,230812;-0,0168356;0,0356424;-0,0114913;-0,033336;-0,0360364;-0,116;-0,0103345;0,0361175;-0,399737;0;0;0;0;0;0;0;0;0;0;0;0;-0,0971838;0,129574;0,355796;-0,0532405;0,0928969;-0,168925;0,0286145;-0,000950065;0,000255661;0,106335;-0,166952;0;0,400206;0,0941268;4,01075;0,000103143;0,000288409;-0,000658466;0,00189008;-0,000536356;-0,0267646;0,00820305;0,0162316;0;0,824305;0,734076;-850;850;-600;1700;-10;10;-10;-0;0;-0;250;1,2;0,2;177;-1,2;-1;2555;0,07;1932;2866;8;56579;
13,5292;-0,322917;-1,884;214;49;2386;0;-0,0443457;0,0577468;0,280611;-0,017275;0,0362145;-0,00871126;-0,033336;-0,0360364;-0,116;-0,00945554;0,0343144;-0,449816;0;0;0;0;0;0;0;0;0;0;0;0;-0,0986428;0,130631;0,432587;-0,0538012;0,0920612;-0,169204;0,0286145;-0,000950065;0,000255661;0,106335;-0,166952;0;0,389094;0,105258;4,0108;9,36364e-05;0,000265852;-0,000491902;0,00193345;-0,000649355;-0,0278857;0,0101229;0,0181514;0;0,824305;0,734076;-850;850;-600;1700;-10;10;-10;-0;0;-0;250;1,2;0,2;177;-1,2;-1;2555;0,07;1932;2866;8;56579;
13,5393;-0,322917;-1,884;216;50;2352;0;-0,0464444;0,0587318;0,337401;-0,0177469;0,0368112;-0,00528293;-0,033336;-0,0360364;-0,116;-0,00793129;0,0325036;-0,506869;0;0;0;0;0;0;0;0;0;0;0;0;-0,102493;0,131397;0,519616;-0,0543757;0,0912354;-0,169468;0,0286145;-0,000950065;0,000255661;0,106335;-0,166952;0;0,368319;0,110951;4,08257;8,40415e-05;0,000242791;-0,00032327;0,00197701;-0,000762469;-0,029603;0,0129154;0,0193732;0;0,824305;0,734076;-850;850;-600;1700;-10;10;-10;-0;0;-0;250;1,2;0,2;177;-1,2;-1;2555;0,07;1932;2866;8;56579;
13,5494;-0,322917;-1,884;216;50;2352;0;-0,0464444;0,0587318;0,337401;-0,0182142;0,0374022;-0,00188799;-0,033336;-0,0360364;-0,116;-0,00793129;0,0325036;-0,506869;0;0;0;0;0;0;0;0;0;0;0;0;-0,102493;0,131397;0,519616;-0,0543757;0,0912354;-0,169468;0,0286145;-0,000950065;0,000255661;0,106335;-0,166952;0;0,363056;0,109366;4,16442;7,44666e-05;0,000219465;-0,000123279;0,0020211;-0,000865138;-0,0307223;0,0129154;0,0193732;0;0,824305;0,734076;-850;850;-600;1700;-10;10;-10;-0;0;-0;250;1,2;0,2;177;-1,2;-1;2555;0,07;1932;2866;8;56579;
13,5593;-0,322917;-1,884;218;51;2314;0;-0,048905;0,0597305;0,40022;-0,0186988;0,037994;0,00207739;-0,033336;-0,0360364;-0,116;-0,00595584;0,0308358;-0,56989;0;0;0;0;0;0;0;0;0;0;0;0;-0,106007;0,131859;0,616885;-0,0548608;0,0905664;-0,16967;0,0286145;-0,000950065;0,000255661;0,106335;-0,166952;0;0,347316;0,11232;4,1645;6,4845e-05;0,000195817;7,83963e-05;0,00206558;-0,000958425;-0,0324896;0,015708;0,0198968;0;0,824305;0,734076;-850;850;-600;1700;-10;10;-10;-0;0;-0;250;1,2;0,2;177;-1,2;-1;2555;0,07;1932;2866;8;56579;
13,5693;-0,322917;-1,884;220;51;2284;0;-0,0513683;0,0605578;0,450038;-0,0192134;0,0386007;0,00658586;-0,033336;-0,0360364;-0,116;-0,00412758;0,029239;-0,619911;0;0;0;0;0;0;0;0;0;0;0;0;-0,109737;0,13015;0,693675;-0,0554959;0,0897969;-0,169873;0,0286145;-0,000950065;0,000255661;0,106335;-0,166952;0;0,328198;0,114396;4,25505;5,52981e-05;0,00017252;0,000303415;0,00211089;-0,0010415;-0,0342912;0,0181514;0,0205949;0;0,824305;0,734076;-850;850;-600;1700;-10;10;-10;-0;0;-0;250;1,2;0,2;177;-1,2;-1;2555;0,07;1932;2866;8;56579;
13,5794;-0,322917;-1,884;220;51;2284;0;-0,0513683;0,0605578;0,450038;-0,019728;0,0392074;0,0110943;-0,033336;-0,0360364;-0,116;-0,00412758;0,029239;-0,619911;0;0;0;0;0;0;0;0;0;0;0;0;-0,109737;0,13015;0,693675;-0,0554959;0,0897969;-0,169873;0,0286145;-0,000950065;0,000255661;0,106335;-0,166952;0;0,323953;0,112916;4,32688;4,58134e-05;0,000149958;0,000555987;0,00215725;-0,00110546;-0,0355446;0,0181514;0,0205949;0;0,824305;0,734076;-850;850;-600;1700;-10;10;-10;-0;0;-0;250;1,2;0,2;177;-1,2;-1;2555;0,07;1932;2866;8;56579;
13,5894;-0,322917;-1,884;223;52;2261;0;-0,0540737;0,0611509;0,488833;-0,0202738;0,0398246;0,0160286;-0,033336;-0,0360364;-0,116;-0,00191303;0,0279248;-0,658924;0;0;0;0;0;0;0;0;0;0;0;0;-0,116209;0,131365;0,752548;-0,0559868;0,0890757;-0,170091;0,0286145;-0,000950065;0,000255661;0,106335;-0,166952;0;0,307705;0,115784;4,32699;3,64214e-05;0,000127623;0,000806138;0,0022036;-0,00116919;-0,0372018;0,0211185;0,0211185;0;0,824305;0,734076;-850;850;-600;1700;-10;10;-10;-0;0;-0;250;1,2;0,2;177;-1,2;-1;2555;0,07;1932;2866;8;56579;
13,5994;-0,322917;-1,884;225;52;2235;0;-0,0570522;0,0617339;0,531633;-0,0208403;0,0404376;0,0213072;-0,033336;-0,0360364;-0,116;0,000472368;0,0265868;-0,701922;0;0;0;0;0;0;0;0;0;0;0;0;-0,119867;0,129854;0,8191;-0,0565799;0,0883207;-0,170288;0,0286145;-0,000950065;0,000255661;0,106335;-0,166952;0;0,289432;0,116496;4,38297;2,70357e-05;0,000105263;0,00108767;0,00225098;-0,00123355;-0,0386963;0,023911;0,0214675;0;0,824305;0,734076;-850;850;-600;1700;-10;10;-10;-0;0;-0;250;1,2;0,2;177;-1,2;-1;2555;0,07;1932;2866;8;56579;
13,6092;-0,322917;-1,884;225;52;2235;0;-0,0570522;0,0617339;0,531633;-0,0214018;0,0410452;0,0265395;-0,033336;-0,0360364;-0,116;0,000472368;0,0265868;-0,701922;0;0;0;0;0;0;0;0;0;0;0;0;-0,119867;0,129854;0,8191;-0,0565799;0,0883207;-0,170288;0,0286145;-0,000950065;0,000255661;0,106335;-0,166952;0;0,286138;0,115171;4,44472;1,76926e-05;8,29776e-05;0,00139344;0,00229894;-0,00129812;-0,0397032;0,023911;0,0214675;0;0,824305;0,734076;-850;850;-600;1700;-10;10;-10;-0;0;-0;250;1,2;0,2;177;-1,2;-1;2555;0,07;1932;2866;8;56579;
13,6192;-0,322917;-1,884;228;53;2208;0;-0,0600242;0,0628248;0,577407;-0,0220031;0,0416745;0,032324;-0,033336;-0,0360364;-0,116;0,00280342;0,0246318;-0,747927;0;0;0;0;0;0;0;0;0;0;0;0;-0,125819;0,130752;0,888211;-0,0572207;0,0874566;-0,17052;0,0286145;-0,000950065;0,000255661;0,106335;-0,166952;0;0,273975;0,120785;4,44484;8,44476e-06;6,08691e-05;0,00169623;0,00234772;-0,00136275;-0,0411995;0,0261799;0,0225147;0;0,824305;0,734076;-850;850;-600;1700;-10;10;-10;-0;0;-0;250;1,2;0,2;177;-1,2;-1;2555;0,07;1932;2866;8;56579;
13,6293;-0,322917;-1,884;230;54;2188;0;-0,0627567;0,0636675;0,610187;-0,0226371;0,0423177;0,0384881;-0,033336;-0,0360364;-0,116;0,00481053;0,0228695;-0,780931;0;0;0;0;0;0;0;0;0;0;0;0;-0,129568;0,132012;0,939405;-0,0579462;0,086537;-0,170744;0,0286145;-0,000950065;0,000255661;0,106335;-0,166952;0;0,259518;0,124846;4,51089;-6,99656e-07;3,89347e-05;0,00201563;0,0023978;-0,00142715;-0,0426666;0,0282743;0,0235619;0;0,824305;0,734076;-850;850;-600;1700;-10;10;-10;-0;0;-0;250;1,2;0,2;177;-1,2;-1;2555;0,07;1932;2866;8;56579;
13,6392;-0,322917;-1,884;230;54;2188;0;-0,0627567;0,0636675;0,610187;-0,023254;0,0429436;0,0444869;-0,033336;-0,0360364;-0,116;0,00481053;0,0228695;-0,780931;0;0;0;0;0;0;0;0;0;0;0;0;-0,129568;0,132012;0,939405;-0,0579462;0,086537;-0,170744;0,0286145;-0,000950065;0,000255661;0,106335;-0,166952;0;0,257199;0,12373;4,55824;-9,80402e-06;1,70625e-05;0,00235558;0,00244867;-0,0014915;-0,0437212;0,0282743;0,0235619;0;0,824305;0,734076;-850;850;-600;1700;-10;10;-10;-0;0;-0;250;1,2;0,2;177;-1,2;-1;2555;0,07;1932;2866;8;56579;
13,6493;-0,322917;-1,884;233;55;2168;0;-0,0657126;0,0644195;0,643969;-0,0239214;0,0435979;0,051027;-0,033336;-0,0360364;-0,116;0,00717372;0,0213109;-0,814917;0;0;0;0;0;0;0;0;0;0;0;0;-0,135649;0,133227;0,990599;-0,0585389;0,0857304;-0,170949;0,0286145;-0,000950065;0,000255661;0,106335;-0,166952;0;0,24529;0,127392;4,55838;-1,88342e-05;-4,70454e-06;0,00269329;0,00250124;-0,00155585;-0,0451491;0,0305433;0,0242601;0;0,824305;0,734076;-850;850;-600;1700;-10;10;-10;-0;0;-0;250;1,2;0,2;177;-1,2;-1;2555;0,07;1932;2866;8;56579;
13,6594;-0,322917;-1,884;235;55;2145;0;-0,068575;0,0649157;0,680806;-0,0246098;0,0442495;0,0578609;-0,033336;-0,0360364;-0,116;0,00933172;0,020065;-0,851887;0;0;0;0;0;0;0;0;0;0;0;0;-0,139002;0,131814;1,04947;-0,0592433;0,0849807;-0,17108;0,0286145;-0,000950065;0,000255661;0,106335;-0,166952;0;0,23394;0,127116;4,60718;-2,77178e-05;-2,61766e-05;0,00304909;0,00255508;-0,00161926;-0,0465054;0,0322886;0,0244346;0;0,824305;0,734076;-850;850;-600;1700;-10;10;-10;-0;0;-0;250;1,2;0,2;177;-1,2;-1;2555;0,07;1932;2866;8;56579;
13,6693;-0,322917;-1,884;235;55;2145;0;-0,068575;0,0649157;0,680806;-0,0252917;0,0448951;0,0646316;-0,033336;-0,0360364;-0,116;0,00933172;0,020065;-0,851887;0;0;0;0;0;0;0;0;0;0;0;0;-0,139002;0,131814;1,04947;-0,0592433;0,0849807;-0,17108;0,0286145;-0,000950065;0,000255661;0,106335;-0,166952;0;0,231548;0,125816;4,66038;-3,65694e-05;-4,76083e-05;0,00342071;0,00261005;-0,00168278;-0,0475487;0,0322886;0,0244346;0;0,824305;0,734076;-850;850;-600;1700;-10;10;-10;-0;0;-0;250;1,2;0,2;177;-1,2;-1;2555;0,07;1932;2866;8;56579;
13,6794;-0,322917;-1,884;238;55;2123;0;-0,0715937;0,0652605;0,717648;-0,0260117;0,0455513;0,0718482;-0,033336;-0,0360364;-0,116;0,0115927;0,0189433;-0,888848;0;0;0;0;0;0;0;0;0;0;0;0;-0,144691;0,130462;1,10578;-0,060001;0,0842038;-0,1712;0,0286145;-0,000950065;0,000255661;0,106335;-0,166952;0;0,222562;0,125812;4,66054;-4,53576e-05;-6,90199e-05;0,00379154;0,00266745;-0,00174666;-0,0489915;0,0340339;0,0244346;0;0,824305;0,734076;-850;850;-600;1700;-10;10;-10;-0;0;-0;250;1,2;0,2;177;-1,2;-1;2555;0,07;1932;2866;8;56579;
13,6893;-0,322917;-1,884;238;55;2123;0;-0,0715937;0,0652605;0,717648;-0,0267232;0,0461999;0,0789802;-0,033336;-0,0360364;-0,116;0,0115927;0,0189433;-0,888848;0;0;0;0;0;0;0;0;0;0;0;0;-0,144691;0,130462;1,10578;-0,060001;0,0842038;-0,1712;0,0286145;-0,000950065;0,000255661;0,106335;-0,166952;0;0,220262;0,124512;4,71376;-5,40691e-05;-9,03196e-05;0,00417725;0,00272651;-0,00181041;-0,0501163;0,0340339;0,0244346;0;0,824305;0,734076;-850;850;-600;1700;-10;10;-10;-0;0;-0;250;1,2;0,2;177;-1,2;-1;2555;0,07;1932;2866;8;56579;
13,6995;-0,322917;-1,884;240;55;2109;0;-0,0742202;0,0652014;0,741505;-0,0274799;0,0468647;0,0865406;-0,033336;-0,0360364;-0,116;0,0135628;0,0183128;-0,912811;0;0;0;0;0;0;0;0;0;0;0;0;-0,148448;0,129601;1,14162;-0,0606575;0,0835142;-0,171307;0,0286145;-0,000950065;0,000255661;0,106335;-0,166952;0;0,211368;0,123619;4,71393;-6,26726e-05;-0,000111377;0,00457699;0,00278611;-0,00187391;-0,0511184;0,0357792;0,0242601;0;0,824305;0,734076;-850;850;-600;1700;-10;10;-10;-0;0;-0;250;1,2;0,2;177;-1,2;-1;2555;0,07;1932;2866;8;56579;
13,7093;-0,322917;-1,884;242;55;2094;0;-0,0771287;0,0651184;0,76634;-0,0282349;0,0475021;0,0940415;-0,033336;-0,0360364;-0,116;0,0157917;0,0176484;-0,937768;0;0;0;0;0;0;0;0;0;0;0;0;-0,15207;0,12868;1,18002;-0,0613369;0,0827668;-0,171428;0,0286145;-0,000950065;0,000255661;0,106335;-0,166952;0;0,200226;0,121898;4,74846;-7,12354e-05;-0,000132483;0,00497699;0,00284824;-0,0019382;-0,0523984;0,0376991;0,0240855;0;0,824305;0,734076;-850;850;-600;1700;-10;10;-10;-0;0;-0;250;1,2;0,2;177;-1,2;-1;2555;0,07;1932;2866;8;56579;
13,7192;-0,322917;-1,884;242;55;2094;0;-0,0771287;0,0651184;0,76634;-0,0290007;0,0481486;0,101651;-0,033336;-0,0360364;-0,116;0,0157917;0,0176484;-0,937768;0;0;0;0;0;0;0;0;0;0;0;0;-0,15207;0,12868;1,18002;-0,0613369;0,0827668;-0,171428;0,0286145;-0,000950065;0,000255661;0,106335;-0,166952;0;0,198804;0,121033;4,7844;-7,97577e-05;-0,000153597;0,00539527;0,00291232;-0,00200298;-0,0533298;0,0376991;0,0240855;0;0,824305;0,734076;-850;850;-600;1700;-10;10;-10;-0;0;-0;250;1,2;0,2;177;-1,2;-1;2555;0,07;1932;2866;8;56579;
13,7292;-0,00120995;-1,799;292;5;2083;0;-0,188234;-0,0890529;0,783183;-0,030884;0,0472576;0,109486;0;-0,0317536;-0,201;0,105705;0,151104;-0,954468;0;0;0;0;0;0;0;0;0;0;0;0;-0,267557;0,0116378;1,20817;-0,0825293;0,0620511;-0,171285;0,000111899;-0,000880997;8,88299e-07;0,110979;-0,166382;0;0,190909;0,120151;4,78458;0,000244679;-0,000131706;0,00496006;0,00457441;-0,0019674;-0,0544356;0,0392699;0,023911;0;1,5708;1;-850;850;-600;1700;-10;10;-10;-0;0;-0;250;1,2;0,2;177;-1,2;-1;2555;0,07;1938;2875;8;56579;
13,7393;-0,00120995;-1,799;338;-45;2074;0;-0,189261;-0,0905119;0,798866;-0,0327963;0,0463431;0,117558;0;-0,0317536;-0,201;0,106321;0,151512;-0,97033;0;0;0;0;0;0;0;0;0;0;0;0;-0,372811;-0,104281;1,23121;-0,0829401;0,0609998;-0,171464;0,000111899;-0,000880997;8,88299e-07;0,110979;-0,166382;0;0,179514;0,119567;4,80902;0,00056911;-0,000109701;0,00453411;0,00623796;-0,00193169;-0,0554813;0,0413643;0,023911;0;1,5708;1;-850;850;-600;1700;-10;10;-10;-0;0;-0;250;1,2;0,2;177;-1,2;-1;2555;0,07;1938;2875;8;56579;
13,7493;-0,00120995;-1,799;338;-76;2074;0;-0,189261;-0,0905119;0,798866;-0,0346915;0,0454367;0,125558;0;-0,0317536;-0,201;0,106321;0,151512;-0,97033;0;0;0;0;0;0;0;0;0;0;0;0;-0,372811;-0,176098;1,23121;-0,0829401;0,0609998;-0,171464;0,000111899;-0,000880997;8,88299e-07;0,110979;-0,166382;0;0,178697;0,119023;4,8318;0,000893267;-8,76506e-05;0,00411956;0,00790113;-0,00189566;-0,056294;0,0413643;0,023911;0;1,5708;1;-850;850;-600;1700;-10;10;-10;-0;0;-0;250;1,2;0,2;177;-1,2;-1;2555;0,07;1938;2875;8;56579;
13,7593;-0,00120995;-1,799;338;-77;2069;0;-0,190044;-0,0917653;0,807593;-0,0365851;0,0445224;0,133605;0;-0,0317536;-0,201;0,106765;0,151802;-0,979234;0;0;0;0;0;0;0;0;0;0;0;0;-0,371913;-0,177984;1,24401;-0,0832785;0,0600365;-0,17164;0,000111899;-0,000880997;8,88299e-07;0,110979;-0,166382;0;0,169138;0,119887;4,83199;0,00121855;-6,54365e-05;0,00370178;0,00957079;-0,00185929;-0,0572082;0,0432842;0,0240855;0;1,5708;1;-850;850;-600;1700;-10;10;-10;-0;0;-0;250;1,2;0,2;177;-1,2;-1;2555;0,07;1938;2875;8;56579;
13,7692;-0,00120995;-1,799;339;-78;2064;0;-0,190431;-0,0933886;0,814362;-0,0384681;0,043599;0,141657;0;-0,0317536;-0,201;0,106743;0,152484;-0,986129;0;0;0;0;0;0;0;0;0;0;0;0;-0,373314;-0,179859;1,25681;-0,0836883;0,0590951;-0,171767;0,000111899;-0,000880997;8,88299e-07;0,110979;-0,166382;0;0,16091;0,118713;4,84475;0,0011292;-9,09573e-05;0,00414078;0,00963934;-0,00192198;-0,0580341;0,044855;0,023911;0;1,5708;1;-850;850;-600;1700;-10;10;-10;-0;0;-0;250;1,2;0,2;177;-1,2;-1;2555;0,07;1938;2875;8;56579;
13,7794;-0,00120995;-1,799;339;-78;2064;0;-0,190431;-0,0933886;0,814362;-0,040408;0,0426476;0,149953;0;-0,0317536;-0,201;0,106743;0,152484;-0,986129;0;0;0;0;0;0;0;0;0;0;0;0;-0,373314;-0,179859;1,25681;-0,0836883;0,0590951;-0,171767;0,000111899;-0,000880997;8,88299e-07;0,110979;-0,166382;0;0,160588;0,118475;4,85469;0,00103795;-0,000116667;0,00459119;0,00970718;-0,00198474;-0,0587091;0,044855;0,023911;0;1,5708;1;-850;850;-600;1700;-10;10;-10;-0;0;-0;250;1,2;0,2;177;-1,2;-1;2555;0,07;1938;2875;8;56579;
13,7894;-0,00120995;-1,799;339;-80;2063;0;-0,190674;-0,0948559;0,817155;-0,0423123;0,0417003;0,158114;0;-0,0317536;-0,201;0,106654;0,153147;-0,989036;0;0;0;0;0;0;0;0;0;0;0;0;-0,373134;-0,18438;1,25937;-0,0840195;0,0582912;-0,17188;0,000111899;-0,000880997;8,88299e-07;0,110979;-0,166382;0;0,153666;0,117606;4,85489;0,000945274;-0,000142429;0,0050425;0,00978585;-0,00203549;-0,0594259;0,0462512;0,0237365;0;1,5708;1;-850;850;-600;1700;-10;10;-10;-0;0;-0;250;1,2;0,2;177;-1,2;-1;2555;0,07;1938;2875;8;56579;
13,7994;-0,00120995;-1,799;339;-81;2063;0;-0,19069;-0,0968196;0,816921;-0,0442201;0,0407316;0,166287;0;-0,0317536;-0,201;0,106259;0,154154;-0,988922;0;0;0;0;0;0;0;0;0;0;0;0;-0,373134;-0,186683;1,25937;-0,0844309;0,0573344;-0,172001;0,000111899;-0,000880997;8,88299e-07;0,110979;-0,166382;0;0,145762;0,115778;4,8591;0,000850483;-0,000168365;0,00550331;0,0098863;-0,00206307;-0,060069;0,047822;0,0233874;0;1,5708;1;-850;850;-600;1700;-10;10;-10;-0;0;-0;250;1,2;0,2;177;-1,2;-1;2555;0,07;1938;2875;8;56579;
13,8094;-0,00120995;-1,799;339;-81;2063;0;-0,19069;-0,0968196;0,816921;-0,0461267;0,0397636;0,174455;0;-0,0317536;-0,201;0,106259;0,154154;-0,988922;0;0;0;0;0;0;0;0;0;0;0;0;-0,373134;-0,186683;1,25937;-0,0844309;0,0573344;-0,172001;0,000111899;-0,000880997;8,88299e-07;0,110979;-0,166382;0;0,145766;0,115781;4,85896;0,00075701;-0,000193665;0,00596257;0,0100081;-0,00206001;-0,0606425;0,047822;0,0233874;0;1,5708;1;-850;850;-600;1700;-10;10;-10;-0;0;-0;250;1,2;0,2;177;-1,2;-1;2555;0,07;1938;2875;8;56579;
13,8192;-0,00120995;-1,799;339;-84;2065;0;-0,191006;-0,0993136;0,813526;-0,0480126;0,038783;0,182488;0;-0,0317536;-0,201;0,106329;0,15598;-0,985627;0;0;0;0;0;0;0;0;0;0;0;0;-0,373495;-0,193782;1,25425;-0,0846765;0,0566661;-0,172101;0,000111899;-0,000880997;8,88299e-07;0,110979;-0,166382;0;0,136259;0,10973;4,85916;0,000664727;-0,000217801;0,00642089;0,0101638;-0,00201447;-0,0611966;0,0497419;0,0221657;0;1,5708;1;-850;850;-600;1700;-10;10;-10;-0;0;-0;250;1,2;0,2;177;-1,2;-1;2555;0,07;1938;2875;8;56579;
13,8292;-0,00120995;-1,799;339;-84;2064;0;-0,191006;-0,0993136;0,813526;-0,0499204;0,037791;0,190613;0;-0,0317536;-0,201;0,106329;0,15598;-0,985627;0;0;0;0;0;0;0;0;0;0;0;0;-0,373314;-0,193688;1,25681;-0,0846765;0,0566661;-0,172101;0,000111899;-0,000880997;8,88299e-07;0,110979;-0,166382;0;0,136389;0,109834;4,85446;0,000573651;-0,000240848;0,00687822;0,0103405;-0,00193812;-0,061727;0,0497419;0,0221657;0;1,5708;1;-850;850;-600;1700;-10;10;-10;-0;0;-0;250;1,2;0,2;177;-1,2;-1;2555;0,07;1938;2875;8;56579;
13,8392;-0,00120995;-1,799;340;-87;2070;0;-0,191868;-0,102849;0,803808;-0,0518383;0,036763;0,198648;0;-0,0317536;-0,201;0,107155;0,159083;-0,976033;0;0;0;0;0;0;0;0;0;0;0;0;-0,376707;-0,201186;1,24145;-0,0847135;0,056234;-0,172225;0,000111899;-0,000880997;8,88299e-07;0,110979;-0,166382;0;0,121685;0,097724;4,85466;0,000482774;-0,000263328;0,00733478;0,0105178;-0,0018467;-0,0621714;0,0527089;0,0197222;0;1,5708;1;-850;850;-600;1700;-10;10;-10;-0;0;-0;250;1,2;0,2;177;-1,2;-1;2555;0,07;1938;2875;8;56579;
13,8494;-0,00120995;-1,799;341;-90;2076;0;-0,193113;-0,10717;0,794867;-0,0537977;0,0356756;0,206713;0;-0,0317536;-0,201;0,108451;0,163131;-0,967206;0;0;0;0;0;0;0;0;0;0;0;0;-0,380113;-0,208723;1,22609;-0,0846624;0,0559612;-0,172339;0,000111899;-0,000880997;8,88299e-07;0,110979;-0,166382;0;0,104683;0,0806534;4,84086;0,000392913;-0,000285525;0,00778602;0,0106938;-0,00175483;-0,0625362;0,0561996;0,0162316;0;1,5708;1;-850;850;-600;1700;-10;10;-10;-0;0;-0;250;1,2;0,2;177;-1,2;-1;2555;0,07;1938;2875;8;56579;
13,8615;-0,00120995;-1,799;342;-94;2084;0;-0,19353;-0,111106;0,781086;-0,0561384;0,0343318;0,21616;0;-0,0317536;-0,201;0,108849;0,166798;-0,953502;0;0;0;0;0;0;0;0;0;0;0;0;-0,3839;-0,218835;1,20561;-0,0846816;0,0556915;-0,172417;0,000111899;-0,000880997;8,88299e-07;0,110979;-0,166382;0;0,0910411;0,06521;4,82818;0,00030352;-0,000307585;0,00823339;0,0108698;-0,00166196;-0,0628036;0,0589921;0,01309;0;1,5708;1;-850;850;-600;1700;-10;10;-10;-0;0;-0;250;1,2;0,2;177;-1,2;-1;2555;0,07;1938;2875;8;56579;
13,8693;-0,00120995;-1,799;342;-94;2084;0;-0,19353;-0,111106;0,781086;-0,0576628;0,0334566;0,222312;0;-0,0317536;-0,201;0,108849;0,166798;-0,953502;0;0;0;0;0;0;0;0;0;0;0;0;-0,3839;-0,218835;1,20561;-0,0846816;0,0556915;-0,172417;0,000111899;-0,000880997;8,88299e-07;0,110979;-0,166382;0;0,0913996;0,0654668;4,80856;0,000214274;-0,000329595;0,00868005;0,0110464;-0,00156815;-0,0630719;0,0589921;0,01309;0;1,5708;1;-850;850;-600;1700;-10;10;-10;-0;0;-0;250;1,2;0,2;177;-1,2;-1;2555;0,07;1938;2875;8;56579;
13,8792;0,421947;-1,666;392;-144;2091;0;-0,313653;-0,171884;0,767957;-0,0607539;0,0317627;0,229881;0,044448;-0,044566;-0,334;0,204603;0,194138;-0,934129;0;0;0;0;0;0;0;0;0;0;0;0;-0,501611;-0,336235;1,18769;-0,10905;0,0222539;-0,166171;-0,0402578;-0,00128994;-0,000453572;0,114492;-0,158963;0;0,080051;0,0480082;4,80871;0,00058492;-0,00048587;0,00775238;0,0119594;-0,00219799;-0,0633091;0,0612611;0,00959931;0;2,35487;0,708043;-850;850;-600;1700;-10;10;-10;-0;0;-0;250;1,2;0,2;177;-1,2;-1;2555;0,07;1948;2884;8;56579;
13,8892;0,421947;-1,666;442;-145;2091;0;-0,313653;-0,171884;0,767957;-0,0639042;0,0300363;0,237594;0,044448;-0,044566;-0,334;0,204603;0,194138;-0,934129;0;0;0;0;0;0;0;0;0;0;0;0;-0,617793;-0,338567;1,18769;-0,10905;0,0222539;-0,166171;-0,0402578;-0,00128994;-0,000453572;0,114492;-0,158963;0;0,0803506;0,0481879;4,78999;0,000942139;-0,000635935;0,00685217;0,0128366;-0,002803;-0,0636142;0,0612611;0,00959931;0;2,35487;0,708043;-850;850;-600;1700;-10;10;-10;-0;0;-0;250;1,2;0,2;177;-1,2;-1;2555;0,07;1948;2884;8;56579;
13,8994;0,421947;-1,666;443;-149;2101;0;-0,312664;-0,176172;0,752057;-0,0670668;0,0282543;0,245201;0,044448;-0,044566;-0,334;0,203725;0,197974;-0,918361;0;0;0;0;0;0;0;0;0;0;0;0;-0,623079;-0,349557;1,1621;-0,108939;0,0218019;-0,166304;-0,0402578;-0,00128994;-0,000453572;0,114492;-0,158963;0;0,0715874;0,0341686;4,79018;0,00129884;-0,000785481;0,00594572;0,0137116;-0,00340503;-0,0638966;0,0630064;0,00680678;0;2,35487;0,708043;-850;850;-600;1700;-10;10;-10;-0;0;-0;250;1,2;0,2;177;-1,2;-1;2555;0,07;1948;2884;8;56579;
13,9093;0,421947;-1,666;442;-153;2109;0;-0,311447;-0,180325;0,73827;-0,0701632;0,0264615;0,252541;0,044448;-0,044566;-0,334;0,202578;0,201512;-0,904699;0;0;0;0;0;0;0;0;0;0;0;0;-0,623111;-0,360294;1,14162;-0,108869;0,0211873;-0,166429;-0,0402578;-0,00128994;-0,000453572;0,114492;-0,158963;0;0,0639912;0,0220021;4,76746;0,00165611;-0,000935064;0,0050375;0,0145886;-0,00400454;-0,0640469;0,0645772;0,00436332;0;2,35487;0,708043;-850;850;-600;1700;-10;10;-10;-0;0;-0;250;1,2;0,2;177;-1,2;-1;2555;0,07;1948;2884;8;56579;
13,9192;0,421947;-1,666;442;-153;2109;0;-0,311447;-0,180325;0,73827;-0,073259;0,0246691;0,259879;0,044448;-0,044566;-0,334;0,202578;0,201512;-0,904699;0;0;0;0;0;0;0;0;0;0;0;0;-0,623111;-0,360294;1,14162;-0,108869;0,0211873;-0,166429;-0,0402578;-0,00128994;-0,000453572;0,114492;-0,158963;0;0,0642409;0,022088;4,74779;0,00152704;-0,000920084;0,00547633;0,0147732;-0,0038965;-0,0643481;0,0645772;0,00436332;0;2,35487;0,708043;-850;850;-600;1700;-10;10;-10;-0;0;-0;250;1,2;0,2;177;-1,2;-1;2555;0,07;1948;2884;8;56579;
13,9292;0,421947;-1,666;441;-156;2117;0;-0,310523;-0,184078;0,724404;-0,0763565;0,0228329;0,267105;0,044448;-0,044566;-0,334;0,201787;0,204796;-0,89098;0;0;0;0;0;0;0;0;0;0;0;0;-0,623125;-0,368741;1,12114;-0,108736;0,0207179;-0,166575;-0,0402578;-0,00128994;-0,000453572;0,114492;-0,158963;0;0,0554044;0,0097184;4,74797;0,00140634;-0,000905492;0,00588368;0,0149432;-0,00379328;-0,0644817;0,0663225;0,00191986;0;2,35487;0,708043;-850;850;-600;1700;-10;10;-10;-0;0;-0;250;1,2;0,2;177;-1,2;-1;2555;0,07;1948;2884;8;56579;
13,9392;0,421947;-1,666;440;-159;2126;0;-0,309222;-0,187507;0,709707;-0,0794573;0,0209526;0,274222;0,044448;-0,044566;-0,334;0,200569;0,207697;-0,876401;0;0;0;0;0;0;0;0;0;0;0;0;-0,623414;-0,377419;1,09811;-0,108654;0,0201899;-0,166693;-0,0402578;-0,00128994;-0,000453572;0,114492;-0,158963;0;0,0485258;-0,000886946;4,72817;0,00127899;-0,000889489;0,0063046;0,015132;-0,00367107;-0,0646223;0,0677188;-0,000174533;0;2,35487;0,708043;-850;850;-600;1700;-10;10;-10;-0;0;-0;250;1,2;0,2;177;-1,2;-1;2555;0,07;1948;2884;8;56579;
13,9493;0,421947;-1,666;440;-159;2126;0;-0,309222;-0,187507;0,709707;-0,0825626;0,0190696;0,281349;0,044448;-0,044566;-0,334;0,200569;0,207697;-0,876401;0;0;0;0;0;0;0;0;0;0;0;0;-0,623414;-0,377419;1,09811;-0,108654;0,0201899;-0,166693;-0,0402578;-0,00128994;-0,000453572;0,114492;-0,158963;0;0,0487262;-0,000890609;4,70718;0,00114959;-0,000872497;0,00672515;0,0153446;-0,00353384;-0,0648878;0,0677188;-0,000174533;0;2,35487;0,708043;-850;850;-600;1700;-10;10;-10;-0;0;-0;250;1,2;0,2;177;-1,2;-1;2555;0,07;1948;2884;8;56579;
13,9593;0,421947;-1,666;439;-162;2137;0;-0,307998;-0,191729;0,690592;-0,0856622;0,0171401;0,288299;0,044448;-0,044566;-0,334;0,199558;0,211411;-0,857486;0;0;0;0;0;0;0;0;0;0;0;0;-0,624267;-0,386518;1,06995;-0,10844;0,0196819;-0,166894;-0,0402578;-0,00128994;-0,000453572;0,114492;-0,158963;0;0,0371475;-0,0160304;4,70736;0,00102129;-0,000855358;0,00714315;0,0155808;-0,00338378;-0,0649681;0,0699877;-0,00314159;0;2,35487;0,708043;-850;850;-600;1700;-10;10;-10;-0;0;-0;250;1,2;0,2;177;-1,2;-1;2555;0,07;1948;2884;8;56579;
13,9693;0,421947;-1,666;439;-165;2145;0;-0,307782;-0,195137;0,678388;-0,0887336;0,0151928;0,295069;0,044448;-0,044566;-0,334;0,199659;0,214483;-0,845526;0;0;0;0;0;0;0;0;0;0;0;0;-0,626604;-0,395137;1,04947;-0,108123;0,0193461;-0,167138;-0,0402578;-0,00128994;-0,000453572;0,114492;-0,158963;0;0,0239165;-0,0295465;4,68;0,000899772;-0,000838196;0,00753377;0,0158398;-0,00321561;-0,0650348;0,0726057;-0,00575959;0;2,35487;0,708043;-850;850;-600;1700;-10;10;-10;-0;0;-0;250;1,2;0,2;177;-1,2;-1;2555;0,07;1948;2884;8;56579;
13,9794;0,421947;-1,666;439;-165;2144;0;-0,307782;-0,195137;0,678388;-0,0918225;0,0132344;0,301877;0,044448;-0,044566;-0,334;0,199659;0,214483;-0,845526;0;0;0;0;0;0;0;0;0;0;0;0;-0,626312;-0,394953;1,05203;-0,108123;0,0193461;-0,167138;-0,0402578;-0,00128994;-0,000453572;0,114492;-0,158963;0;0,0239977;-0,0296468;4,66259;0,000774683;-0,000820336;0,00793398;0,0161348;-0,0030374;-0,0652612;0,0726057;-0,00575959;0;2,35487;0,708043;-850;850;-600;1700;-10;10;-10;-0;0;-0;250;1,2;0,2;177;-1,2;-1;2555;0,07;1948;2884;8;56579;
13,9893;0,421947;-1,666;439;-169;2159;0;-0,307686;-0,199506;0,653355;-0,0948852;0,0112485;0,308381;0,044448;-0,044566;-0,334;0,200191;0,218648;-0,820922;0;0;0;0;0;0;0;0;0;0;0;0;-0,630694;-0,40734;1,01364;-0,107494;0,0191419;-0,167567;-0,0402578;-0,00128994;-0,000453572;0,114492;-0,158963;0;0,000639564;-0,0503076;4,66275;0,000649911;-0,000802409;0,00833363;0,0164316;-0,00285464;-0,0652494;0,0771436;-0,00977384;0;2,35487;0,708043;-850;850;-600;1700;-10;10;-10;-0;0;-0;250;1,2;0,2;177;-1,2;-1;2555;0,07;1948;2884;8;56579;
13,9994;0,421947;-1,666;439;-169;2159;0;-0,307686;-0,199506;0,653355;-0,0979931;0,0092333;0,31498;0,044448;-0,044566;-0,334;0,200191;0,218648;-0,820922;0;0;0;0;0;0;0;0;0;0;0;0;-0,630694;-0,40734;1,01364;-0,107494;0,0191419;-0,167567;-0,0402578;-0,00128994;-0,000453572;0,114492;-0,158963;0;0,000644023;-0,0506583;4,62687;0,000525666;-0,000784468;0,00872268;0,0167285;-0,002668;-0,0654093;0,0771436;-0,00977384;0;2,35487;0,708043;-850;850;-600;1700;-10;10;-10;-0;0;-0;250;1,2;0,2;177;-1,2;-1;2555;0,07;1948;2884;8;56579;
14,0092;0,421947;-1,666;439;-172;2166;0;-0,308097;-0,202977;0,641702;-0,100999;0,00725306;0,321241;0,044448;-0,044566;-0,334;0,201115;0,221916;-0,809618;0;0;0;0;0;0;0;0;0;0;0;0;-0,632739;-0,415902;0,995718;-0,106983;0,0189395;-0,167916;-0,0402578;-0,00128994;-0,000453572;0,114492;-0,158963;0;-0,0183526;-0,0669385;4,62702;0,000402378;-0,000766638;0,00910315;0,0170243;-0,00248035;-0,0655738;0,0808087;-0,0129154;0;2,35487;0,708043;-850;850;-600;1700;-10;10;-10;-0;0;-0;250;1,2;0,2;177;-1,2;-1;2555;0,07;1948;2884;8;56579;
14,0192;0,421947;-1,666;438;-175;2183;0;-0,30696;-0,206274;0,613058;-0,104082;0,00518124;0,327398;0,044448;-0,044566;-0,334;0,200513;0,224929;-0,781347;0;0;0;0;0;0;0;0;0;0;0;0;-0,635282;-0,426463;0,952204;-0,106448;0,0186551;-0,168288;-0,0402578;-0,00128994;-0,000453572;0,114492;-0,158963;0;-0,0383762;-0,0834866;4,6104;0,000279298;-0,000748758;0,00948326;0,017321;-0,00228874;-0,0654596;0,0846485;-0,016057;0;2,35487;0,708043;-850;850;-600;1700;-10;10;-10;-0;0;-0;250;1,2;0,2;177;-1,2;-1;2555;0,07;1948;2884;8;56579;
14,0292;0,421947;-1,666;438;-175;2183;0;-0,30696;-0,206274;0,613058;-0,107149;0,00312015;0,333524;0,044448;-0,044566;-0,334;0,200513;0,224929;-0,781347;0;0;0;0;0;0;0;0;0;0;0;0;-0,635282;-0,426463;0,952204;-0,106448;0,0186551;-0,168288;-0,0402578;-0,00128994;-0,000453572;0,114492;-0,158963;0;-0,0386795;-0,0841464;4,5693;0,000157511;-0,000730994;0,00984806;0,0176162;-0,00209483;-0,0655663;0,0846485;-0,016057;0;2,35487;0,708043;-850;850;-600;1700;-10;10;-10;-0;0;-0;250;1,2;0,2;177;-1,2;-1;2555;0,07;1948;2884;8;56579;
14,0397;0,421947;-1,666;438;-177;2193;0;-0,306203;-0,208956;0,596838;-0,11035;0,000935927;0,339763;0,044448;-0,044566;-0,334;0,200113;0,227406;-0,765374;0;0;0;0;0;0;0;0;0;0;0;0;-0,638192;-0,433303;0,926607;-0,10609;0,0184499;-0,168536;-0,0402578;-0,00128994;-0,000453572;0,114492;-0,158963;0;-0,0523976;-0,0978617;4,56945;3,60513e-05;-0,000713248;0,010212;0,0179121;-0,00189887;-0,0655193;0,0872665;-0,018675;0;2,35487;0,708043;-850;850;-600;1700;-10;10;-10;-0;0;-0;250;1,2;0,2;177;-1,2;-1;2555;0,07;1948;2884;8;56579;
14,0493;0,421947;-1,666;437;-179;2205;0;-0,304997;-0,211595;0,576587;-0,113292;-0,00110533;0,345325;0,044448;-0,044566;-0,334;0,19929;0,229778;-0,745393;0;0;0;0;0;0;0;0;0;0;0;0;-0,639236;-0,440587;0,89589;-0,105706;0,0181829;-0,168806;-0,0402578;-0,00128994;-0,000453572;0,114492;-0,158963;0;-0,0673278;-0,112073;4,54624;-8,45099e-05;-0,000695551;0,0105683;0,0182079;-0,00169966;-0,0653705;0,090059;-0,021293;0;2,35487;0,708043;-850;850;-600;1700;-10;10;-10;-0;0;-0;250;1,2;0,2;177;-1,2;-1;2555;0,07;1948;2884;8;56579;
14,0593;0,421947;-1,666;437;-179;2205;0;-0,304997;-0,211595;0,576587;-0,116344;-0,00322275;0,351095;0,044448;-0,044566;-0,334;0,19929;0,229778;-0,745393;0;0;0;0;0;0;0;0;0;0;0;0;-0,639236;-0,440587;0,89589;-0,105706;0,0181829;-0,168806;-0,0402578;-0,00128994;-0,000453572;0,114492;-0,158963;0;-0,0676991;-0,112691;4,51722;-0,000205772;-0,000677674;0,0109133;0,0185075;-0,00149544;-0,0654851;0,090059;-0,021293;0;2,35487;0,708043;-850;850;-600;1700;-10;10;-10;-0;0;-0;250;1,2;0,2;177;-1,2;-1;2555;0,07;1948;2884;8;56579;
14,0693;0,421947;-1,666;436;-181;2215;0;-0,303797;-0,214022;0,559475;-0,119379;-0,00536062;0,356684;0,044448;-0,044566;-0,334;0,1984;0,232022;-0,728495;0;0;0;0;0;0;0;0;0;0;0;0;-0,639676;-0,44752;0,870294;-0,105397;0,0179998;-0,169019;-0,0402578;-0,00128994;-0,000453572;0,114492;-0,158963;0;-0,0797048;-0,12654;4,51736;-0,000324634;-0,000660132;0,0112511;0,0188029;-0,00129244;-0,0654305;0,0923279;-0,023911;0;2,35487;0,708043;-850;850;-600;1700;-10;10;-10;-0;0;-0;250;1,2;0,2;177;-1,2;-1;2555;0,07;1948;2884;8;56579;
14,0794;0,421947;-1,666;435;-184;2225;0;-0,302386;-0,216401;0,542419;-0,122419;-0,0075361;0,362136;0,044448;-0,044566;-0,334;0,19727;0,234197;-0,711636;0;0;0;0;0;0;0;0;0;0;0;0;-0,640093;-0,456975;0,844697;-0,105115;0,0177959;-0,169216;-0,0402578;-0,00128994;-0,000453572;0,114492;-0,158963;0;-0,0912085;-0,141042;4,49286;-0,0004436;-0,000642473;0,0115821;0,0191011;-0,00108396;-0,0653526;0,0944223;-0,026529;0;2,35487;0,708043;-850;850;-600;1700;-10;10;-10;-0;0;-0;250;1,2;0,2;177;-1,2;-1;2555;0,07;1948;2884;8;56579;
14,0895;0,421947;-1,666;435;-184;2225;0;-0,302386;-0,216401;0,542419;-0,125471;-0,00972067;0,367612;0,044448;-0,044566;-0,334;0,19727;0,234197;-0,711636;0;0;0;0;0;0;0;0;0;0;0;0;-0,640093;-0,456975;0,844697;-0,105115;0,0177959;-0,169216;-0,0402578;-0,00128994;-0,000453572;0,114492;-0,158963;0;-0,0916275;-0,14169;4,46843;-0,000561725;-0,000624911;0,0119011;0,0193989;-0,000874176;-0,0654586;0,0944223;-0,026529;0;2,35487;0,708043;-850;850;-600;1700;-10;10;-10;-0;0;-0;250;1,2;0,2;177;-1,2;-1;2555;0,07;1948;2884;8;56579;
14,0994;0,421947;-1,666;434;-185;2235;0;-0,301022;-0,218274;0,526528;-0,128468;-0,0118934;0,372853;0,044448;-0,044566;-0,334;0,196146;0,235933;-0,695907;0;0;0;0;0;0;0;0;0;0;0;0;-0,640489;-0,461519;0,8191;-0,104876;0,0176589;-0,169379;-0,0402578;-0,00128994;-0,000453572;0,114492;-0,158963;0;-0,100946;-0,153801;4,46856;-0,000680491;-0,000607152;0,0122227;0,019701;-0,000658771;-0,0654086;0,0961676;-0,0287979;0;2,35487;0,708043;-850;850;-600;1700;-10;10;-10;-0;0;-0;250;1,2;0,2;177;-1,2;-1;2555;0,07;1948;2884;8;56579;
14,1093;0,945885;-1,607;388;-223;2232;0;-0,247568;-0,263111;0,530675;-0,130919;-0,0144982;0,378107;0,100008;-0,0427201;-0,393;0,12809;0,236759;-0,688885;0;0;0;0;0;0;0;0;0;0;0;0;-0,525502;-0,555297;0,826779;-0,119478;-0,0263514;-0,158211;-0,0853072;-0,00118549;-0,000934447;0,108225;-0,14494;0;-0,108865;-0,16475;4,4458;-0,000243504;-0,000571311;0,0119419;0,0196998;0,000153973;-0,0653702;0,0975639;-0,0307178;0;2,73789;0,392828;-850;850;-600;1700;-10;10;-10;-0;0;-0;250;1,2;0,2;177;-1,2;-1;2555;0,07;1957;2890;8;56579;
14,1192;0,945885;-1,607;388;-223;2232;0;-0,247568;-0,263111;0,530675;-0,133366;-0,0170995;0,383354;0,100008;-0,0427201;-0,393;0,12809;0,236759;-0,688885;0;0;0;0;0;0;0;0;0;0;0;0;-0,525502;-0,555297;0,826779;-0,119478;-0,0263514;-0,158211;-0,0853072;-0,00118549;-0,000934447;0,108225;-0,14494;0;-0,108741;-0,164563;4,4519;0,000196216;-0,000535224;0,0116515;0,0197003;0,000974021;-0,0654887;0,0975639;-0,0307178;0;2,73789;0,392828;-850;850;-600;1700;-10;10;-10;-0;0;-0;250;1,2;0,2;177;-1,2;-1;2555;0,07;1957;2890;8;56579;
14,1292;0,945885;-1,607;386;-224;2245;0;-0,245219;-0,264217;0,510086;-0,135819;-0,019742;0,388455;0,100008;-0,0427201;-0,393;0,126026;0,237658;-0,668477;0;0;0;0;0;0;0;0;0;0;0;0;-0,523567;-0,561028;0,793503;-0,119193;-0,0265589;-0,158391;-0,0853072;-0,00118549;-0,000934447;0,108225;-0,14494;0;-0,114348;-0,174841;4,45203;0,000635733;-0,00049926;0,0113599;0,0197009;0,00179466;-0,0653956;0,0986111;-0,0326377;0;2,73789;0,392828;-850;850;-600;1700;-10;10;-10;-0;0;-0;250;1,2;0,2;177;-1,2;-1;2555;0,07;1957;2890;8;56579;
14,1393;0,945885;-1,607;385;-225;2251;0;-0,243761;-0,26519;0,498623;-0,138281;-0,0224206;0,393492;0,100008;-0,0427201;-0,393;0,124811;0,238411;-0,657159;0;0;0;0;0;0;0;0;0;0;0;0;-0,522461;-0,56503;0,778145;-0,11895;-0,0267788;-0,158536;-0,0853072;-0,00118549;-0,000934447;0,108225;-0,14494;0;-0,119679;-0,183322;4,42251;0,00107482;-0,000463376;0,0110606;0,0197019;0,00261678;-0,0653319;0,0994838;-0,0340339;0;2,73789;0,392828;-850;850;-600;1700;-10;10;-10;-0;0;-0;250;1,2;0,2;177;-1,2;-1;2555;0,07;1957;2890;8;56579;
14,1492;0,945885;-1,607;385;-225;2251;0;-0,243761;-0,26519;0,498623;-0,140699;-0,0250513;0,398438;0,100008;-0,0427201;-0,393;0,124811;0,238411;-0,657159;0;0;0;0;0;0;0;0;0;0;0;0;-0,522461;-0,56503;0,778145;-0,11895;-0,0267788;-0,158536;-0,0853072;-0,00118549;-0,000934447;0,108225;-0,14494;0;-0,120042;-0,18388;4,40612;0,000973167;-0,000475996;0,0113422;0,0199998;0,00283923;-0,0653896;0,0994838;-0,0340339;0;2,73789;0,392828;-850;850;-600;1700;-10;10;-10;-0;0;-0;250;1,2;0,2;177;-1,2;-1;2555;0,07;1957;2890;8;56579;
14,1593;0,945885;-1,607;383;-226;2260;0;-0,24155;-0,2665;0,484132;-0,143142;-0,0277464;0,403334;0,100008;-0,0427201;-0,393;0,122785;0,239517;-0,642772;0;0;0;0;0;0;0;0;0;0;0;0;-0,51952;-0,569802;0,755108;-0,118766;-0,026983;-0,15864;-0,0853072;-0,00118549;-0,000934447;0,108225;-0,14494;0;-0,121926;-0,195186;4,40624;0,000868723;-0,000488797;0,0116276;0,0202998;0,00306504;-0,0653002;0,0998328;-0,0361283;0;2,73789;0,392828;-850;850;-600;1700;-10;10;-10;-0;0;-0;250;1,2;0,2;177;-1,2;-1;2555;0,07;1957;2890;8;56579;
14,1697;0,945885;-1,607;382;-227;2269;0;-0,239487;-0,267099;0,46886;-0,145629;-0,03052;0,408203;0,100008;-0,0427201;-0,393;0,120873;0,239914;-0,627579;0;0;0;0;0;0;0;0;0;0;0;0;-0,519064;-0,574595;0,73207;-0,118613;-0,0271848;-0,158719;-0,0853072;-0,00118549;-0,000934447;0,108225;-0,14494;0;-0,124287;-0,202558;4,38549;0,000762371;-0,000501675;0,0119037;0,0205875;0,00330107;-0,0652529;0,100182;-0,03735;0;2,73789;0,392828;-850;850;-600;1700;-10;10;-10;-0;0;-0;250;1,2;0,2;177;-1,2;-1;2555;0,07;1957;2890;8;56579;
14,1792;0,945885;-1,607;382;-227;2269;0;-0,239487;-0,267099;0,46886;-0,147899;-0,0330521;0,412647;0,100008;-0,0427201;-0,393;0,120873;0,239914;-0,627579;0;0;0;0;0;0;0;0;0;0;0;0;-0,519064;-0,574595;0,73207;-0,118613;-0,0271848;-0,158719;-0,0853072;-0,00118549;-0,000934447;0,108225;-0,14494;0;-0,124788;-0,203375;4,36362;0,000653452;-0,000514663;0,0121765;0,0208644;0,00354662;-0,0653129;0,100182;-0,03735;0;2,73789;0,392828;-850;850;-600;1700;-10;10;-10;-0;0;-0;250;1,2;0,2;177;-1,2;-1;2555;0,07;1957;2890;8;56579;
14,1894;0,945885;-1,607;380;-228;2276;0;-0,237688;-0,268087;0,45747;-0,150318;-0,0357804;0,417303;0,100008;-0,0427201;-0,393;0,119206;0,24076;-0,616263;0;0;0;0;0;0;0;0;0;0;0;0;-0,515599;-0,578898;0,714153;-0,118482;-0,0273271;-0,158793;-0,0853072;-0,00118549;-0,000934447;0,108225;-0,14494;0;-0,125736;-0,21287;4,36373;0,000543839;-0,000527485;0,0124503;0,0211318;0,00380505;-0,0652541;0,100356;-0,0390954;0;2,73789;0,392828;-850;850;-600;1700;-10;10;-10;-0;0;-0;250;1,2;0,2;177;-1,2;-1;2555;0,07;1957;2890;8;56579;
14,1994;0,945885;-1,607;380;-228;2276;0;-0,237688;-0,268087;0,45747;-0,152692;-0,0384583;0,421873;0,100008;-0,0427201;-0,393;0,119206;0,24076;-0,616263;0;0;0;0;0;0;0;0;0;0;0;0;-0,515599;-0,578898;0,714153;-0,118482;-0,0273271;-0,158793;-0,0853072;-0,00118549;-0,000934447;0,108225;-0,14494;0;-0,126112;-0,213506;4,34744;0,000435066;-0,000539454;0,0127129;0,0213729;0,00408029;-0,0653327;0,100356;-0,0390954;0;2,73789;0,392828;-850;850;-600;1700;-10;10;-10;-0;0;-0;250;1,2;0,2;177;-1,2;-1;2555;0,07;1957;2890;8;56579;
14,2093;0,945885;-1,607;378;-229;2284;0;-0,235337;-0,269173;0,444141;-0,155025;-0,0411261;0,426275;0,100008;-0,0427201;-0,393;0,116805;0,24188;-0,602903;0;0;0;0;0;0;0;0;0;0;0;0;-0,512327;-0,583472;0,693675;-0,118532;-0,0272933;-0,158762;-0,0853072;-0,00118549;-0,000934447;0,108225;-0,14494;0;-0,121344;-0,226839;4,34755;0,000326722;-0,000551355;0,012967;0,0216137;0,0043565;-0,0654264;0,0994838;-0,0415388;0;2,73789;0,392828;-850;850;-600;1700;-10;10;-10;-0;0;-0;250;1,2;0,2;177;-1,2;-1;2555;0,07;1957;2890;8;56579;
14,2192;0,945885;-1,607;376;-230;2290;0;-0,233014;-0,270179;0,43296;-0,157346;-0,0438179;0,430588;0,100008;-0,0427201;-0,393;0,114346;0,242912;-0,591624;0;0;0;0;0;0;0;0;0;0;0;0;-0,508574;-0,587551;0,678317;-0,118669;-0,0272666;-0,158664;-0,0853072;-0,00118549;-0,000934447;0,108225;-0,14494;0;-0,114116;-0,240057;4,32846;0,000218334;-0,000563197;0,0132216;0,0218547;0,00463607;-0,065401;0,0980875;-0,0438078;0;2,73789;0,392828;-850;850;-600;1700;-10;10;-10;-0;0;-0;250;1,2;0,2;177;-1,2;-1;2555;0,07;1957;2890;8;56579;
14,2292;0,945885;-1,607;376;-230;2290;0;-0,233014;-0,270179;0,43296;-0,159672;-0,0465146;0,43491;0,100008;-0,0427201;-0,393;0,114346;0,242912;-0,591624;0;0;0;0;0;0;0;0;0;0;0;0;-0,508574;-0,587551;0,678317;-0,118669;-0,0272666;-0,158664;-0,0853072;-0,00118549;-0,000934447;0,108225;-0,14494;0;-0,114449;-0,240758;4,31247;0,000109932;-0,00057498;0,0134714;0,0220966;0,00491882;-0,0654818;0,0980875;-0,0438078;0;2,73789;0,392828;-850;850;-600;1700;-10;10;-10;-0;0;-0;250;1,2;0,2;177;-1,2;-1;2555;0,07;1957;2890;8;56579;
14,2394;0,945885;-1,607;374;-230;2298;0;-0,230982;-0,270909;0,420695;-0,162017;-0,0492646;0,43918;0,100008;-0,0427201;-0,393;0,112241;0,243714;-0,579318;0;0;0;0;0;0;0;0;0;0;0;0;-0,505234;-0,589604;0,65784;-0,11874;-0,0271952;-0,158623;-0,0853072;-0,00118549;-0,000934447;0,108225;-0,14494;0;-0,10965;-0,252255;4,31257;4,00261e-06;-0,000586502;0,0137148;0,0223332;0,00519694;-0,0654344;0,0972148;-0,0459022;0;2,73789;0,392828;-850;850;-600;1700;-10;10;-10;-0;0;-0;250;1,2;0,2;177;-1,2;-1;2555;0,07;1957;2890;8;56579;
14,2492;0,945885;-1,607;373;-231;2306;0;-0,228777;-0,271351;0,406533;-0,164259;-0,0519246;0,443165;0,100008;-0,0427201;-0,393;0,109965;0,244172;-0,565105;0;0;0;0;0;0;0;0;0;0;0;0;-0,504426;-0,59422;0,637362;-0,118811;-0,0271794;-0,158572;-0,0853072;-0,00118549;-0,000934447;0,108225;-0,14494;0;-0,105188;-0,262676;4,29502;-0,000102629;-0,00059805;0,0139535;0,0225714;0,0054799;-0,0653684;0,0963422;-0,0476475;0;2,73789;0,392828;-850;850;-600;1700;-10;10;-10;-0;0;-0;250;1,2;0,2;177;-1,2;-1;2555;0,07;1957;2890;8;56579;
14,2593;0,945885;-1,607;373;-231;2306;0;-0,228777;-0,271351;0,406533;-0,166577;-0,0546734;0,447284;0,100008;-0,0427201;-0,393;0,109965;0,244172;-0,565105;0;0;0;0;0;0;0;0;0;0;0;0;-0,504426;-0,59422;0,637362;-0,118811;-0,0271794;-0,158572;-0,0853072;-0,00118549;-0,000934447;0,108225;-0,14494;0;-0,105576;-0,263642;4,27472;-0,000208808;-0,000609507;0,0141859;0,0228091;0,00576421;-0,0654065;0,0963422;-0,0476475;0;2,73789;0,392828;-850;850;-600;1700;-10;10;-10;-0;0;-0;250;1,2;0,2;177;-1,2;-1;2555;0,07;1957;2890;8;56579;
14,2693;0,945885;-1,607;371;-231;2316;0;-0,226677;-0,271542;0,390292;-0,168849;-0,0573951;0,451195;0,100008;-0,0427201;-0,393;0,107831;0,244451;-0,548854;0;0;0;0;0;0;0;0;0;0;0;0;-0,501456;-0,596797;0,611765;-0,118845;-0,0270919;-0,158562;-0,0853072;-0,00118549;-0,000934447;0,108225;-0,14494;0;-0,102676;-0,273287;4,27482;-0,000313658;-0,00062082;0,014415;0,0230439;0,00604691;-0,0652797;0,0958186;-0,0493928;0;2,73789;0,392828;-850;850;-600;1700;-10;10;-10;-0;0;-0;250;1,2;0,2;177;-1,2;-1;2555;0,07;1957;2890;8;56579;
14,2794;1,76735;-1,619;421;-266;2317;0;-0,322166;-0,313187;0,388127;-0,172099;-0,0605545;0,455111;0,188904;-0,0524682;-0,381;0,199759;0,234446;-0,5253;0;0;0;0;0;0;0;0;0;0;0;0;-0,630531;-0,687137;0,609205;-0,122407;-0,0787404;-0,137173;-0,131858;-0,00123257;-0,00181532;0,0895294;-0,120802;0;-0,0992281;-0,28025;4,25153;0,000471832;-0,000729554;0,0147558;0,0235762;0,00542935;-0,0651122;0,0951204;-0,05044;0;2,87067;0,26762;-850;850;-600;1700;-10;10;-10;-0;0;-0;250;1,2;0,2;177;-1,2;-1;2555;0,07;1965;2900;8;56579;
14,2893;1,76735;-1,619;452;-266;2317;0;-0,322166;-0,313187;0,388127;-0,175279;-0,063646;0,458942;0,188904;-0,0524682;-0,381;0,199759;0,234446;-0,5253;0;0;0;0;0;0;0;0;0;0;0;0;-0,710276;-0,687137;0,609205;-0,122407;-0,0787404;-0,137173;-0,131858;-0,00123257;-0,00181532;0,0895294;-0,120802;0;-0,0992821;-0,280403;4,24851;0,00125779;-0,000838432;0,0150917;0,0241107;0,00481455;-0,0650848;0,0951204;-0,05044;0;2,87067;0,26762;-850;850;-600;1700;-10;10;-10;-0;0;-0;250;1,2;0,2;177;-1,2;-1;2555;0,07;1965;2900;8;56579;
