time 	e1	e2	ctrlpitch	ctrlroll	ctrlthrust	ctrlyaw	edx	edy	edz	cumulx	cumuly	cumulz	x	y	z	dxr	dyr	dzr	dxrT	dyrT	dzrT	dxrUn	dyrUn	dzrUn	x_pred	y_pred	z_pred	dx_pred	dy_pred	dz_pred	ux	uy	uz	dxd	dyd	dzd	Perpx	Tangx	Perpy	Tangy	Perpz	Tanz	ax	ay	az	err_sti_x	err_sti_y	err_sti_z	err_sti_dx	err_sti_dy	err_sti_dz	pitch	roll	yaw	yawd	eyaw	kpvx	kpvy	kpvz	kpyaw	kivx	kivy	kivz	kdvx	kdvy	kdvz	kdyaw	ktg	veld	pitchoff	ke1	ke2	gravity	thr_vel	gps_accuracy	height_accuracy	gps_sat_num	gps_status
14.9448	0.106473	-1.977	50	50	1450	0	-0.0385774	0.0960301	0.0155767	-0.000346425	0.00086235	0.000139879	0.011112	0.00671988	-0.023	-0.00831296	-0.000797091	-0.185082	0	0	0	0	0	0	0.011112	0.00671988	-0.023	-0.01	0	-0.185	0.205665	0.0810057	2.82845	-0.0468903	0.095233	-0.169505	-0.00919795	0.00017464	1.54953e-05	0.103665	-0.170789	-0	0	-0	9.81	0	0	0	0	0	0	0.00506145	-0.0162316	0	-2.59769	-0.517476	-1080	1080	-600	1700	-0	0	-0	-0	0	-0	250	1.2	0.2	177	-1.2	-1	2555	0.07	1967	2274	9	56579	
14.946	0.106473	-1.977	100	100	1500	0	-0.0385774	0.0960301	0.0155767	-0.00039237	0.000976722	0.000158431	0.011112	0.00671988	-0.023	-0.00831296	-0.000797091	-0.185082	0	0	0	0	0	0	0.0110127	0.00671988	-0.0248374	-0.01	0	-0.185	0.129036	0.167558	2.70047	-0.0468903	0.095233	-0.169505	-0.00919795	0.00017464	1.54953e-05	0.103665	-0.170789	-0	0.440713	-0.0991514	3.70118	0	0	0	0	0	0	0.00506145	-0.0162316	0	-2.59769	-0.517476	-1080	1080	-600	1700	-0	0	-0	-0	0	-0	250	1.2	0.2	177	-1.2	-1	2555	0.07	1967	2274	9	56579	
14.956	0.106473	-1.977	150	103	1550	0	-0.0385725	0.0960299	0.0155902	-0.000778365	0.00193769	0.000314441	0.011112	0.00671988	-0.023	-0.00837755	-0.000797138	-0.185079	0	0	0	0	0	0	0.0109229	0.00671988	-0.0264987	-0.00870348	0.00051066	-0.167169	0.0467625	0.178334	2.57249	-0.04695	0.0952328	-0.169489	-0.00919795	0.00017464	1.54953e-05	0.103665	-0.170789	-0	0.442839	-0.0991514	3.70118	0	0	0	0	0	0	0.00471239	-0.0162316	0	-2.59769	-0.517476	-1080	1080	-600	1700	-0	0	-0	-0	0	-0	250	1.2	0.2	177	-1.2	-1	2555	0.07	1967	2274	9	56579	
14.9661	0.106473	-1.977	200	103	1600	0	-0.0385676	0.0960297	0.0156036	-0.00116489	0.0029001	0.000470821	0.011112	0.00671988	-0.023	-0.00844215	-0.000797186	-0.185076	0	0	0	0	0	0	0.010939	0.00673079	-0.0263319	-0.006379	0.00220845	-0.128997	-0.04112	0.184087	2.4445	-0.0470097	0.0952325	-0.169472	-0.00919795	0.00017464	1.54953e-05	0.103665	-0.170789	-0	0.444965	-0.0991511	3.7012	6.65543e-07	0	1.23126e-05	0	0	0	0.00436332	-0.0162316	0	-2.59769	-0.517476	-1080	1080	-600	1700	-0	0	-0	-0	0	-0	250	1.2	0.2	177	-1.2	-1	2555	0.07	1967	2274	9	56579	
14.9759	0.106473	-1.977	218	103	1650	0	-0.0385676	0.0960297	0.0156036	-0.00154459	0.00384552	0.000624438	0.011112	0.00671988	-0.023	-0.00844215	-0.000797186	-0.185076	0	0	0	0	0	0	0.0109287	0.00674262	-0.0263485	-0.00795055	0.00345312	-0.131383	-0.0755887	0.18984	2.31652	-0.0470097	0.0952325	-0.169472	-0.00919795	0.00017464	1.54953e-05	0.103665	-0.170789	-0	0.444963	-0.0991507	3.70122	1.93756e-06	0	3.58449e-05	-8.72036e-06	-3.4347e-06	-0.000119928	0.00436332	-0.0162316	0	-2.59769	-0.517476	-1080	1080	-600	1700	-0	0	-0	-0	0	-0	250	1.2	0.2	177	-1.2	-1	2555	0.07	1967	2274	9	56579	
14.9859	0.106473	-1.977	218	103	1700	0	-0.0385651	0.0960268	0.0156271	-0.00192962	0.00480425	0.000780459	0.011112	0.00671988	-0.023	-0.00847444	-0.000764908	-0.185075	0	0	0	0	0	0	0.0109084	0.00674661	-0.0265099	-0.00963276	0.00382304	-0.131369	-0.0778792	0.195592	2.18853	-0.0470396	0.0952619	-0.169447	-0.00919795	0.00017464	1.54953e-05	0.103665	-0.170789	-0	0.446027	-0.100217	3.70122	3.16119e-06	-7.71863e-08	5.94124e-05	-3.43329e-05	-1.90558e-05	-0.000516055	0.00418879	-0.0164061	0	-2.59769	-0.517476	-1080	1080	-600	1700	-0	0	-0	-0	0	-0	250	1.2	0.2	177	-1.2	-1	2555	0.07	1967	2274	9	56579	
14.9961	0.106473	-1.968	228	99	1750	0	-0.0479905	0.0925257	0.0157256	-0.0024173	0.00574449	0.000940263	0.011112	0.00671988	-0.032	0.000774924	0.00300268	-0.184974	0	0	0	0	0	0	0.0111023	0.00677449	-0.0367979	-0.00156717	0.00555136	-0.113352	-0.0997205	0.193531	2.06055	-0.0472156	0.0955283	-0.169248	-0.00922857	0.000175221	1.55469e-05	0.10401	-0.170577	-0	0.446024	-0.0991502	3.70125	4.98648e-06	-3.03636e-07	3.13485e-06	4.48387e-05	-5.3442e-05	-0.00104998	0.00418879	-0.0162316	0	-2.59769	-0.517476	-1080	1080	-600	1700	-0	0	-0	-0	0	-0	250	1.2	0.2	177	-1.2	-1	2555	0.07	1966	2273	9	56579	
15.0059	0.106473	-1.968	228	99	1800	0	-0.0479905	0.0925257	0.0157256	-0.00288804	0.00665208	0.00109452	0.011112	0.00671988	-0.032	0.000774924	0.00300268	-0.184974	0	0	0	0	0	0	0.0110931	0.00677598	-0.0368601	-0.00226512	0.005715	-0.117282	-0.10257	0.19906	1.93256	-0.0472156	0.0955283	-0.169248	-0.00922857	0.000175221	1.55469e-05	0.10401	-0.170577	-0	0.446014	-0.0991479	3.70139	7.01238e-06	-5.69596e-07	-5.14937e-05	0.000140688	-9.14825e-05	-0.00158362	0.00418879	-0.0162316	0	-2.59769	-0.517476	-1080	1080	-600	1700	-0	0	-0	-0	0	-0	250	1.2	0.2	177	-1.2	-1	2555	0.07	1966	2273	9	56579	
15.016	0.106473	-1.968	228	99	1850	0	-0.0480151	0.0924879	0.017709	-0.00337323	0.00758667	0.00127346	0.011112	0.00671988	-0.032	0.000783301	0.00300251	-0.186974	0	0	0	0	0	0	0.0110922	0.00677797	-0.0369539	-0.00253839	0.0058307	-0.122875	-0.105419	0.20459	1.80458	-0.0472318	0.0954904	-0.169265	-0.00922857	0.000175221	1.55469e-05	0.10401	-0.170577	-0	0.446014	-0.0980819	3.70139	7.10974e-06	-1.11555e-06	-3.52893e-06	0.000156355	-0.000146979	-0.00231988	0.00418879	-0.016057	0	-2.59769	-0.517476	-1080	1080	-600	1700	-0	0	-0	-0	0	-0	250	1.2	0.2	177	-1.2	-1	2555	0.07	1966	2273	9	56579	
15.0259	0.106473	-1.968	228	99	1900	0	-0.0480931	0.0924052	0.0216515	-0.00385229	0.00850712	0.00148913	0.011112	0.00671988	-0.032	0.000766721	0.00293341	-0.190976	0	0	0	0	0	0	0.0110858	0.00677693	-0.0370826	-0.00299768	0.00583202	-0.13086	-0.108268	0.210119	1.67659	-0.0473263	0.0953386	-0.169324	-0.00922857	0.000175221	1.55469e-05	0.10401	-0.170577	-0	0.446868	-0.0937739	3.70425	7.29891e-06	-1.67573e-06	4.49993e-05	0.000178972	-0.000204044	-0.00305596	0.00401426	-0.0153589	0	-2.59769	-0.517476	-1080	1080	-600	1700	-0	0	-0	-0	0	-0	250	1.2	0.2	177	-1.2	-1	2555	0.07	1966	2273	9	56579	
15.0361	0.106473	-1.968	228	99	1950	0	-0.0480931	0.0924052	0.0216515	-0.00434005	0.00944429	0.00170872	0.011112	0.00671988	-0.032	0.000766721	0.00293341	-0.190976	0	0	0	0	0	0	0.0110848	0.00677877	-0.0371145	-0.00309301	0.00601612	-0.134533	-0.111117	0.215649	1.54861	-0.0473263	0.0953386	-0.169324	-0.00922857	0.000175221	1.55469e-05	0.10401	-0.170577	-0	0.446453	-0.0936868	3.70992	7.49736e-06	-2.25805e-06	9.4664e-05	0.00020442	-0.000262498	-0.00373893	0.00401426	-0.0153589	0	-2.59769	-0.517476	-1080	1080	-600	1700	-0	0	-0	-0	0	-0	250	1.2	0.2	177	-1.2	-1	2555	0.07	1966	2273	9	56579	
15.046	0.106473	-1.968	229	99	2000	0	-0.0481823	0.0923418	0.0255206	-0.00481618	0.0103568	0.00196092	0.011112	0.00671988	-0.032	0.000850845	0.00275663	-0.194979	0	0	0	0	0	0	0.0110845	0.00677934	-0.0372161	-0.00315433	0.00613513	-0.1428	-0.116201	0.221178	1.42063	-0.0473314	0.0950984	-0.169458	-0.00922857	0.000175221	1.55469e-05	0.10401	-0.170577	-0	0.444329	-0.0862349	3.70992	7.75804e-06	-2.82615e-06	0.000145278	0.000234272	-0.000320576	-0.00437766	0.00436332	-0.0141372	0	-2.59769	-0.517476	-1080	1080	-600	1700	-0	0	-0	-0	0	-0	250	1.2	0.2	177	-1.2	-1	2555	0.07	1966	2273	9	56579	
15.0559	0.106473	-1.968	229	99	2050	0	-0.0481823	0.0923418	0.0255206	-0.00529598	0.0112763	0.00221505	0.011112	0.00671988	-0.032	0.000850845	0.00275663	-0.194979	0	0	0	0	0	0	0.0110831	0.00678209	-0.0372822	-0.00327271	0.00636484	-0.146141	-0.119106	0.226708	1.29264	-0.0473314	0.0950984	-0.169458	-0.00922857	0.000175221	1.55469e-05	0.10401	-0.170577	-0	0.443923	-0.0861562	3.7155	8.03171e-06	-3.41915e-06	0.000196777	0.000265417	-0.000381154	-0.00498652	0.00436332	-0.0141372	0	-2.59769	-0.517476	-1080	1080	-600	1700	-0	0	-0	-0	0	-0	250	1.2	0.2	177	-1.2	-1	2555	0.07	1966	2273	9	56579	
15.0659	0.106473	-1.968	229	99	2100	0	-0.0483104	0.0922429	0.0314048	-0.00577696	0.0121947	0.00252772	0.011112	0.00671988	-0.032	0.00101735	0.00266605	-0.20098	0	0	0	0	0	0	0.0110829	0.00678251	-0.0374384	-0.00335296	0.00647724	-0.156401	-0.122011	0.232237	1.16466	-0.0472931	0.0949089	-0.169575	-0.00922857	0.000175221	1.55469e-05	0.10401	-0.170577	-0	0.43968	-0.0808382	3.7155	8.30641e-06	-4.01339e-06	0.000248913	0.000296944	-0.000442475	-0.00556823	0.00506145	-0.0132645	0	-2.59769	-0.517476	-1080	1080	-600	1700	-0	0	-0	-0	0	-0	250	1.2	0.2	177	-1.2	-1	2555	0.07	1966	2273	9	56579	
15.0759	0.106473	-1.968	229	99	2150	0	-0.0484913	0.092081	0.0383863	-0.00626265	0.013117	0.0029122	0.011112	0.00671988	-0.032	0.00105278	0.0027226	-0.20798	0	0	0	0	0	0	0.0110815	0.00678384	-0.0376597	-0.00347999	0.00663602	-0.167305	-0.124916	0.237766	1.03667	-0.0474385	0.0948036	-0.169593	-0.00922857	0.000175221	1.55469e-05	0.10401	-0.170577	-0	0.439068	-0.0796637	3.72397	8.5954e-06	-4.63505e-06	0.000301703	0.000329652	-0.000506085	-0.00618645	0.00506145	-0.01309	0	-2.59769	-0.517476	-1080	1080	-600	1700	-0	0	-0	-0	0	-0	250	1.2	0.2	177	-1.2	-1	2555	0.07	1966	2273	9	56579	
15.086	0.106473	-1.968	229	99	2200	0	-0.0484913	0.092081	0.0383863	-0.00675338	0.0140489	0.00330067	0.011112	0.00671988	-0.032	0.00105278	0.0027226	-0.20798	0	0	0	0	0	0	0.0110812	0.00678434	-0.0376372	-0.00354143	0.00675286	-0.171425	-0.127821	0.243296	0.908689	-0.0474385	0.0948036	-0.169593	-0.00922857	0.000175221	1.55469e-05	0.10401	-0.170577	-0	0.438343	-0.0795321	3.73402	8.88491e-06	-5.25702e-06	0.000355717	0.000362953	-0.000570417	-0.00669893	0.00506145	-0.01309	0	-2.59769	-0.517476	-1080	1080	-600	1700	-0	0	-0	-0	0	-0	250	1.2	0.2	177	-1.2	-1	2555	0.07	1966	2273	9	56579	
15.0964	0.106473	-1.968	229	99	2250	0	-0.0486784	0.0918735	0.0483936	-0.00726003	0.0150051	0.00380435	0.011112	0.00671988	-0.032	0.000913154	0.00277742	-0.21798	0	0	0	0	0	0	0.0110802	0.00678628	-0.0379709	-0.00364099	0.00694236	-0.185139	-0.130726	0.248825	0.780705	-0.0477652	0.094651	-0.169587	-0.00922857	0.000175221	1.55469e-05	0.10401	-0.170577	-0	0.443632	-0.0774114	3.73402	9.1894e-06	-5.89509e-06	0.000412182	0.000397672	-0.000636622	-0.0072047	0.00418879	-0.0127409	0	-2.59769	-0.517476	-1080	1080	-600	1700	-0	0	-0	-0	0	-0	250	1.2	0.2	177	-1.2	-1	2555	0.07	1966	2273	9	56579	
15.1059	0.106473	-1.968	229	99	2300	0	-0.0488957	0.09171	0.0533852	-0.00772243	0.0158724	0.00430921	0.011112	0.00671988	-0.032	0.000739495	0.00272438	-0.222982	0	0	0	0	0	0	0.011079	0.00678838	-0.0381632	-0.00374478	0.0071399	-0.19386	-0.133631	0.254355	0.65272	-0.0481562	0.0944344	-0.169597	-0.00922857	0.000175221	1.55469e-05	0.10401	-0.170577	-0	0.447855	-0.0740542	3.74843	9.49839e-06	-6.54169e-06	0.000468727	0.000433195	-0.000704358	-0.00772203	0.00331613	-0.0122173	0	-2.59769	-0.517476	-1080	1080	-600	1700	-0	0	-0	-0	0	-0	250	1.2	0.2	177	-1.2	-1	2555	0.07	1966	2273	9	56579	
15.1159	0.106473	-1.968	229	99	2350	0	-0.0488957	0.09171	0.0533852	-0.00821476	0.0167958	0.00484675	0.011112	0.00671988	-0.032	0.000739495	0.00272438	-0.222982	0	0	0	0	0	0	0.0110772	0.00679193	-0.038264	-0.0038867	0.00741002	-0.197359	-0.136536	0.259884	0.524736	-0.0481562	0.0944344	-0.169597	-0.00922857	0.000175221	1.55469e-05	0.10401	-0.170577	-0	0.447324	-0.0739664	3.75562	9.82255e-06	-7.21772e-06	0.000529518	0.000470265	-0.00077504	-0.0081075	0.00331613	-0.0122173	0	-2.59769	-0.517476	-1080	1080	-600	1700	-0	0	-0	-0	0	-0	250	1.2	0.2	177	-1.2	-1	2555	0.07	1966	2273	9	56579	
15.1259	0.106473	-1.968	230	98	2400	0	-0.0492075	0.0914722	0.0633358	-0.0087032	0.0177038	0.00547542	0.011112	0.00671988	-0.032	0.000609992	0.00264324	-0.232984	0	0	0	0	0	0	0.0110779	0.0067905	-0.038457	-0.00389807	0.00743166	-0.21172	-0.142122	0.262734	0.396751	-0.0485975	0.0941154	-0.169648	-0.00922857	0.000175221	1.55469e-05	0.10401	-0.170577	-0	0.451539	-0.0686833	3.75562	1.01519e-05	-7.90235e-06	0.00059112	0.000507694	-0.000846403	-0.0084987	0.00261799	-0.0113446	0	-2.59769	-0.517476	-1080	1080	-600	1700	-0	0	-0	-0	0	-0	250	1.2	0.2	177	-1.2	-1	2555	0.07	1966	2273	9	56579	
15.136	0.106473	-1.968	230	98	2450	0	-0.0495955	0.0913063	0.0721666	-0.00920396	0.0186257	0.00620408	0.011112	0.00671988	-0.032	0.000506843	0.00223852	-0.241989	0	0	0	0	0	0	0.0110773	0.00679154	-0.0387223	-0.00397444	0.007577	-0.224633	-0.145083	0.268208	0.268767	-0.0490886	0.0935448	-0.169823	-0.00922857	0.000175221	1.55469e-05	0.10401	-0.170577	-0	0.453624	-0.0558712	3.76994	1.04996e-05	-8.62127e-06	0.000653622	0.000546476	-0.000920341	-0.00894413	0.0020944	-0.00925025	0	-2.59769	-0.517476	-1080	1080	-600	1700	-0	0	-0	-0	0	-0	250	1.2	0.2	177	-1.2	-1	2555	0.07	1966	2273	9	56579	
15.146	0.106473	-1.968	230	98	2500	0	-0.0495955	0.0913063	0.0721666	-0.00970091	0.0195406	0.00692719	0.011112	0.00671988	-0.032	0.000506843	0.00223852	-0.241989	0	0	0	0	0	0	0.0110779	0.00679037	-0.0386172	-0.00401761	0.00758276	-0.228726	-0.148043	0.273682	0.140783	-0.0490886	0.0935448	-0.169823	-0.00922857	0.000175221	1.55469e-05	0.10401	-0.170577	-0	0.452669	-0.0557536	3.78266	1.08343e-05	-9.31459e-06	0.000717012	0.000584744	-0.0009933	-0.0092414	0.0020944	-0.00925025	0	-2.59769	-0.517476	-1080	1080	-600	1700	-0	0	-0	-0	0	-0	250	1.2	0.2	177	-1.2	-1	2555	0.07	1966	2273	9	56579	
15.1562	0.106473	-1.968	231	98	2502	0	-0.0501228	0.0911505	0.0868996	-0.0102134	0.0204725	0.00781565	0.011112	0.00671988	-0.032	0.000583114	0.00165962	-0.256994	0	0	0	0	0	0	0.0110747	0.00679417	-0.0392217	-0.00424397	0.00785418	-0.247301	-0.150957	0.273901	0.135663	-0.0495397	0.0928101	-0.170094	-0.00922857	0.000175221	1.55469e-05	0.10401	-0.170577	-0	0.45162	-0.0389226	3.78266	1.1182e-05	-1.00334e-05	0.000784441	0.000624611	-0.0010693	-0.00956607	0.00226893	-0.00645772	0	-2.59769	-0.517476	-1080	1080	-600	1700	-0	0	-0	-0	0	-0	250	1.2	0.2	177	-1.2	-1	2555	0.07	1966	2273	9	56579	
15.1659	0.106473	-1.968	231	98	2493	0	-0.0507438	0.0910807	0.102582	-0.010706	0.0213568	0.00881163	0.011112	0.00671988	-0.032	0.000857653	0.000952943	-0.272997	0	0	0	0	0	0	0.0110741	0.00679521	-0.0396955	-0.00432188	0.00799807	-0.267208	-0.150414	0.272915	0.158701	-0.0498862	0.0920337	-0.170415	-0.00922857	0.000175221	1.55469e-05	0.10401	-0.170577	-0	0.444804	-0.0209653	3.80387	1.15231e-05	-1.07393e-05	0.000850707	0.000664844	-0.00114524	-0.0100094	0.00314159	-0.00349066	0	-2.59769	-0.517476	-1080	1080	-600	1700	-0	0	-0	-0	0	-0	250	1.2	0.2	177	-1.2	-1	2555	0.07	1966	2273	9	56579	
15.176	0.106473	-1.968	231	98	2493	0	-0.0507438	0.0910807	0.102582	-0.0112156	0.0222713	0.00984165	0.011112	0.00671988	-0.032	0.000857653	0.000952943	-0.272997	0	0	0	0	0	0	0.0110725	0.00679812	-0.039778	-0.00445048	0.00818352	-0.269807	-0.150414	0.272915	0.158701	-0.0498862	0.0920337	-0.170415	-0.00922857	0.000175221	1.55469e-05	0.10401	-0.170577	-0	0.443132	-0.0208865	3.82645	1.19005e-05	-1.14906e-05	0.000923745	0.000707766	-0.00122467	-0.0102693	0.00314159	-0.00349066	0	-2.59769	-0.517476	-1080	1080	-600	1700	-0	0	-0	-0	0	-0	250	1.2	0.2	177	-1.2	-1	2555	0.07	1966	2273	9	56579	
15.1859	0.106473	-1.968	232	98	2481	0	-0.0517052	0.0910076	0.122208	-0.0117294	0.0231757	0.011056	0.011112	0.00671988	-0.032	0.00158527	0.00020455	-0.292996	0	0	0	0	0	0	0.011073	0.00679567	-0.0402354	-0.0044411	0.00806386	-0.289759	-0.152461	0.271602	0.189417	-0.0501199	0.0912122	-0.170787	-0.00922857	0.000175221	1.55469e-05	0.10401	-0.170577	-0	0.429592	-0.00417731	3.82645	1.22787e-05	-1.22426e-05	0.00100058	0.000750917	-0.00130453	-0.0105269	0.00541052	-0.000698132	0	-2.59769	-0.517476	-1080	1080	-600	1700	-0	0	-0	-0	0	-0	250	1.2	0.2	177	-1.2	-1	2555	0.07	1966	2273	9	56579	
15.1959	0.106473	-1.968	234	98	2467	0	-0.052954	0.0910144	0.145792	-0.0122588	0.0240857	0.0125138	0.011112	0.00671988	-0.032	0.00276631	-0.000608573	-0.316987	0	0	0	0	0	0	0.0110733	0.0067951	-0.0409151	-0.00442897	0.00804174	-0.313343	-0.157113	0.270069	0.225252	-0.0501877	0.0904059	-0.171196	-0.00922857	0.000175221	1.55469e-05	0.10401	-0.170577	-0	0.407863	0.0114333	3.85471	1.26732e-05	-1.30243e-05	0.00107829	0.000795384	-0.00138629	-0.0109984	0.00872665	0.00191986	0	-2.59769	-0.517476	-1080	1080	-600	1700	-0	0	-0	-0	0	-0	250	1.2	0.2	177	-1.2	-1	2555	0.07	1966	2273	9	56579	
15.206	0.106473	-1.968	234	98	2467	0	-0.052954	0.0910144	0.145792	-0.0127925	0.025003	0.0139831	0.011112	0.00671988	-0.032	0.00276631	-0.000608573	-0.316987	0	0	0	0	0	0	0.0110743	0.00679317	-0.0407843	-0.00440167	0.00794243	-0.313111	-0.157113	0.270069	0.225252	-0.0501877	0.0904059	-0.171196	-0.00922857	0.000175221	1.55469e-05	0.10401	-0.170577	-0	0.405538	0.0113681	3.88866	1.30592e-05	-1.37743e-05	0.00115979	0.000839331	-0.00146609	-0.011268	0.00872665	0.00191986	0	-2.59769	-0.517476	-1080	1080	-600	1700	-0	0	-0	-0	0	-0	250	1.2	0.2	177	-1.2	-1	2555	0.07	1966	2273	9	56579	
15.2159	0.106473	-1.967	246	69	2446	0	-0.0641442	0.0645665	0.180418	-0.0134297	0.0256443	0.0157752	0.011112	0.00671988	-0.033	0.0137949	0.0250632	-0.351974	0	0	0	0	0	0	0.0116726	0.00739351	-0.0428757	0.0154915	0.0279918	-0.347129	-0.188561	0.188561	0.279006	-0.0503493	0.0896297	-0.171556	-0.00923198	0.000175286	1.55527e-05	0.104049	-0.170554	-0	0.386977	0.0258366	3.88866	1.3446e-05	-1.4526e-05	0.00123888	0.00108343	-0.0013466	-0.0116542	0.0118682	0.00436332	0	-2.59769	-0.517476	-1080	1080	-600	1700	-0	0	-0	-0	0	-0	250	1.2	0.2	177	-1.2	-1	2555	0.07	1966	2273	9	56579	
15.226	0.106473	-1.967	246	69	2446	0	-0.0641442	0.0645665	0.180418	-0.0140757	0.0262946	0.0175924	0.011112	0.00671988	-0.033	0.0137949	0.0250632	-0.351974	0	0	0	0	0	0	0.011672	0.00739363	-0.0428389	0.0154172	0.0279833	-0.346444	-0.188561	0.188561	0.279006	-0.0503493	0.0896297	-0.171556	-0.00923198	0.000175286	1.55527e-05	0.104049	-0.170554	-0	0.383719	0.0256191	3.93852	1.38227e-05	-1.52592e-05	0.00131676	0.00132756	-0.00122597	-0.0120433	0.0118682	0.00436332	0	-2.59769	-0.517476	-1080	1080	-600	1700	-0	0	-0	-0	0	-0	250	1.2	0.2	177	-1.2	-1	2555	0.07	1966	2273	9	56579	
15.236	0.106473	-1.967	247	69	2428	0	-0.0654992	0.0648096	0.210072	-0.0147343	0.0269463	0.0197046	0.011112	0.00671988	-0.033	0.0147989	0.0238771	-0.382014	0	0	0	0	0	0	0.0116691	0.00739016	-0.0436884	0.0151077	0.0271588	-0.375942	-0.189885	0.187173	0.32508	-0.0507003	0.0886867	-0.171942	-0.00923198	0.000175286	1.55527e-05	0.104049	-0.170554	-0	0.370424	0.0430398	3.93852	8.21491e-06	-2.19978e-05	0.00141555	0.00137266	-0.00130591	-0.0123921	0.0141372	0.00733038	0	-2.59769	-0.517476	-1080	1080	-600	1700	-0	0	-0	-0	0	-0	250	1.2	0.2	177	-1.2	-1	2555	0.07	1966	2273	9	56579	
15.246	0.106473	-1.967	249	70	2402	0	-0.0670037	0.0652705	0.2538	-0.0154005	0.0275952	0.0222279	0.011112	0.00671988	-0.033	0.0156987	0.0224492	-0.426058	0	0	0	0	0	0	0.0116581	0.00736405	-0.0449741	0.0144694	0.0255339	-0.418926	-0.193217	0.187852	0.391632	-0.051305	0.0877197	-0.172259	-0.00923198	0.000175286	1.55527e-05	0.104049	-0.170554	-0	0.360623	0.0590032	3.98122	2.59928e-06	-2.87539e-05	0.00151421	0.00141862	-0.00138597	-0.0131899	0.0153589	0.0101229	0	-2.59769	-0.517476	-1080	1080	-600	1700	-0	0	-0	-0	0	-0	250	1.2	0.2	177	-1.2	-1	2555	0.07	1966	2273	9	56579	
15.256	0.106473	-1.967	249	70	2402	0	-0.0670037	0.0652705	0.2538	-0.016072	0.0282494	0.0247715	0.011112	0.00671988	-0.033	0.0156987	0.0224492	-0.426058	0	0	0	0	0	0	0.0116549	0.00736014	-0.0449109	0.0144653	0.0255085	-0.418521	-0.193217	0.187852	0.391632	-0.051305	0.0877197	-0.172259	-0.00923198	0.000175286	1.55527e-05	0.104049	-0.170554	-0	0.356728	0.0583659	4.04418	-2.98329e-06	-3.547e-05	0.00162131	0.00146764	-0.0014577	-0.0136915	0.0153589	0.0101229	0	-2.59769	-0.517476	-1080	1080	-600	1700	-0	0	-0	-0	0	-0	250	1.2	0.2	177	-1.2	-1	2555	0.07	1966	2273	9	56579	
15.266	0.106473	-1.967	250	70	2374	0	-0.0685131	0.0655793	0.30065	-0.0167565	0.0289046	0.0277753	0.011112	0.00671988	-0.033	0.0165027	0.0213966	-0.473074	0	0	0	0	0	0	0.0116519	0.00735671	-0.046254	0.0144092	0.0254836	-0.463981	-0.193616	0.185662	0.463303	-0.0520105	0.0869759	-0.172424	-0.00923198	0.000175286	1.55527e-05	0.104049	-0.170554	-0	0.35271	0.066416	4.04418	-8.45662e-06	-4.19265e-05	0.00174132	0.00152307	-0.00151316	-0.0142335	0.016057	0.0115192	0	-2.59769	-0.517476	-1080	1080	-600	1700	-0	0	-0	-0	0	-0	250	1.2	0.2	177	-1.2	-1	2555	0.07	1966	2273	9	56579	
15.2759	0.106473	-1.967	253	71	2341	0	-0.0706097	0.0658129	0.35648	-0.0174556	0.0295562	0.0313048	0.011112	0.00671988	-0.033	0.0179556	0.0204729	-0.529055	0	0	0	0	0	0	0.0116474	0.00735252	-0.0478322	0.0143577	0.0254823	-0.518777	-0.198768	0.185696	0.547773	-0.0526541	0.0862858	-0.172576	-0.00923198	0.000175286	1.55527e-05	0.104049	-0.170554	-0	0.339649	0.069617	4.11163	-1.38892e-05	-4.83331e-05	0.00186051	0.00157845	-0.00156828	-0.0153389	0.0176278	0.0122173	0	-2.59769	-0.517476	-1080	1080	-600	1700	-0	0	-0	-0	0	-0	250	1.2	0.2	177	-1.2	-1	2555	0.07	1966	2273	9	56579	
15.286	0.106473	-1.967	253	71	2341	0	-0.0706097	0.0658129	0.35648	-0.0181683	0.0302205	0.0349031	0.011112	0.00671988	-0.033	0.0179556	0.0204729	-0.529055	0	0	0	0	0	0	0.0116437	0.00734782	-0.0477326	0.0143716	0.0254429	-0.518152	-0.198768	0.185696	0.547773	-0.0526541	0.0862858	-0.172576	-0.00923198	0.000175286	1.55527e-05	0.104049	-0.170554	-0	0.334858	0.0686349	4.19202	-1.92803e-05	-5.46919e-05	0.00199285	0.00163428	-0.00162304	-0.0159882	0.0176278	0.0122173	0	-2.59769	-0.517476	-1080	1080	-600	1700	-0	0	-0	-0	0	-0	250	1.2	0.2	177	-1.2	-1	2555	0.07	1966	2273	9	56579	
15.296	0.106473	-1.967	255	71	2317	0	-0.0726764	0.0657714	0.395306	-0.0188997	0.0308824	0.0388814	0.011112	0.00671988	-0.033	0.01946	0.0198846	-0.568023	0	0	0	0	0	0	0.0116402	0.00734304	-0.0487826	0.0143258	0.0253865	-0.554946	-0.201906	0.183792	0.609205	-0.0532165	0.085656	-0.172717	-0.00923198	0.000175286	1.55527e-05	0.104049	-0.170554	-0	0.324091	0.0705958	4.19202	-2.4619e-05	-6.10001e-05	0.00214074	0.00169054	-0.0016777	-0.016479	0.0195477	0.0125664	0	-2.59769	-0.517476	-1080	1080	-600	1700	-0	0	-0	-0	0	-0	250	1.2	0.2	177	-1.2	-1	2555	0.07	1966	2273	9	56579	
15.3059	0.106473	-1.967	258	71	2295	0	-0.0750893	0.0658842	0.433065	-0.0196388	0.0315308	0.0431437	0.011112	0.00671988	-0.033	0.02127	0.0189719	-0.60599	0	0	0	0	0	0	0.0116372	0.00734162	-0.0498633	0.0142144	0.0253951	-0.59131	-0.207677	0.182047	0.665519	-0.0538193	0.0848561	-0.172925	-0.00923198	0.000175286	1.55527e-05	0.104049	-0.170554	-0	0.308266	0.0747467	4.24792	-2.99332e-05	-6.72766e-05	0.002288	0.0017468	-0.00173211	-0.017357	0.0218166	0.013439	0	-2.59769	-0.517476	-1080	1080	-600	1700	-0	0	-0	-0	0	-0	250	1.2	0.2	177	-1.2	-1	2555	0.07	1966	2273	9	56579	
15.3159	0.106473	-1.967	258	71	2295	0	-0.0750893	0.0658842	0.433065	-0.0203921	0.0321919	0.0474886	0.011112	0.00671988	-0.033	0.02127	0.0189719	-0.60599	0	0	0	0	0	0	0.0116357	0.00734023	-0.0498277	0.0141741	0.0253842	-0.590706	-0.207677	0.182047	0.665519	-0.0538193	0.0848561	-0.172925	-0.00923198	0.000175286	1.55527e-05	0.104049	-0.170554	-0	0.305253	0.0740161	4.30229	-3.52257e-05	-7.35205e-05	0.00244614	0.00180365	-0.00178608	-0.0178686	0.0218166	0.013439	0	-2.59769	-0.517476	-1080	1080	-600	1700	-0	0	-0	-0	0	-0	250	1.2	0.2	177	-1.2	-1	2555	0.07	1966	2273	9	56579	
15.3259	0.106473	-1.967	260	71	2276	0	-0.0775714	0.0660848	0.464793	-0.0211677	0.0328526	0.0521356	0.011112	0.00671988	-0.033	0.0232324	0.0179601	-0.637951	0	0	0	0	0	0	0.0116312	0.00733515	-0.0506499	0.0140713	0.0253123	-0.620994	-0.211041	0.18054	0.714153	-0.0543391	0.0840449	-0.173158	-0.00923198	0.000175286	1.55527e-05	0.104049	-0.170554	-0	0.291815	0.0797832	4.30229	-4.04775e-05	-7.97378e-05	0.00261477	0.00186151	-0.00184003	-0.0183355	0.0242601	0.0144862	0	-2.59769	-0.517476	-1080	1080	-600	1700	-0	0	-0	-0	0	-0	250	1.2	0.2	177	-1.2	-1	2555	0.07	1966	2273	9	56579	
15.336	0.106473	-1.967	263	71	2259	0	-0.0799736	0.0664827	0.492506	-0.0219723	0.0335215	0.0570907	0.011112	0.00671988	-0.033	0.0249871	0.0165981	-0.665925	0	0	0	0	0	0	0.0116259	0.00733009	-0.0513492	0.0139743	0.0252609	-0.647984	-0.217033	0.179191	0.757667	-0.0549865	0.0830808	-0.173419	-0.00923198	0.000175286	1.55527e-05	0.104049	-0.170554	-0	0.27797	0.0877002	4.34797	-4.57039e-05	-8.59287e-05	0.00278271	0.00191965	-0.00189376	-0.0190869	0.0263545	0.016057	0	-2.59769	-0.517476	-1080	1080	-600	1700	-0	0	-0	-0	0	-0	250	1.2	0.2	177	-1.2	-1	2555	0.07	1966	2273	9	56579	
15.346	0.106473	-1.967	263	71	2259	0	-0.0799736	0.0664827	0.492506	-0.0227736	0.0341875	0.0620251	0.011112	0.00671988	-0.033	0.0249871	0.0165981	-0.665925	0	0	0	0	0	0	0.0116222	0.00732547	-0.0512182	0.0139604	0.0252286	-0.647588	-0.217033	0.179191	0.757667	-0.0549865	0.0830808	-0.173419	-0.00923198	0.000175286	1.55527e-05	0.104049	-0.170554	-0	0.275939	0.0870595	4.38787	-5.08738e-05	-9.20554e-05	0.00295846	0.00197868	-0.00194666	-0.019535	0.0263545	0.016057	0	-2.59769	-0.517476	-1080	1080	-600	1700	-0	0	-0	-0	0	-0	250	1.2	0.2	177	-1.2	-1	2555	0.07	1966	2273	9	56579	
15.356	0.106473	-1.967	265	72	2246	0	-0.0821128	0.0669677	0.514232	-0.0235938	0.0348565	0.0671618	0.011112	0.00671988	-0.033	0.0264569	0.0151276	-0.687906	0	0	0	0	0	0	0.0116221	0.00732713	-0.0519165	0.0137932	0.0252193	-0.668067	-0.220799	0.180669	0.790943	-0.0556559	0.0820954	-0.173674	-0.00923198	0.000175286	1.55527e-05	0.104049	-0.170554	-0	0.266488	0.0965216	4.38787	-5.60283e-05	-9.81761e-05	0.00314251	0.00203912	-0.00199943	-0.0199364	0.0280998	0.0178024	0	-2.59769	-0.517476	-1080	1080	-600	1700	-0	0	-0	-0	0	-0	250	1.2	0.2	177	-1.2	-1	2555	0.07	1966	2273	9	56579	
15.3659	0.106473	-1.967	265	72	2246	0	-0.0821128	0.0669677	0.514232	-0.0244092	0.0355215	0.0722681	0.011112	0.00671988	-0.033	0.0264569	0.0151276	-0.687906	0	0	0	0	0	0	0.0116175	0.00732336	-0.0518026	0.0136821	0.0251845	-0.667245	-0.220799	0.180669	0.790943	-0.0556559	0.0820954	-0.173674	-0.00923198	0.000175286	1.55527e-05	0.104049	-0.170554	-0	0.26495	0.0959647	4.41915	-6.11441e-05	-0.000104248	0.00332517	0.00209968	-0.00205185	-0.0203416	0.0280998	0.0178024	0	-2.59769	-0.517476	-1080	1080	-600	1700	-0	0	-0	-0	0	-0	250	1.2	0.2	177	-1.2	-1	2555	0.07	1966	2273	9	56579	
15.3761	0.106473	-1.967	268	73	2235	0	-0.0843035	0.0677653	0.532904	-0.0252671	0.0362111	0.0776915	0.011112	0.00671988	-0.033	0.0280459	0.0132632	-0.706885	0	0	0	0	0	0	0.0116148	0.0073201	-0.0522731	0.0136525	0.0251925	-0.685957	-0.227204	0.18228	0.8191	-0.0562576	0.0810285	-0.173981	-0.00923198	0.000175286	1.55527e-05	0.104049	-0.170554	-0	0.254613	0.108194	4.41915	-6.6257e-05	-0.000110334	0.00351477	0.00216189	-0.00210416	-0.0207318	0.0300197	0.0200713	0	-2.59769	-0.517476	-1080	1080	-600	1700	-0	0	-0	-0	0	-0	250	1.2	0.2	177	-1.2	-1	2555	0.07	1966	2273	9	56579	
15.386	0.106473	-1.921	260	57	2226	0	-0.0771692	0.0528076	0.548332	-0.0260346	0.0367363	0.0831447	0.011112	0.00671988	-0.079	0.0191186	0.0285534	-0.721568	0	0	0	0	0	0	0.0116091	0.0079132	-0.0987273	0.0136122	0.0452132	-0.699448	-0.206405	0.141764	0.842137	-0.0580506	0.0813609	-0.173235	-0.00939118	0.000178309	1.58209e-05	0.105843	-0.169437	-0	0.242121	0.118886	4.44604	-7.1302e-05	-0.000116356	0.00324336	0.00222494	-0.00195632	-0.0212683	0.0321141	0.0221657	0	-2.59769	-0.517476	-1080	1080	-600	1700	-0	0	-0	-0	0	-0	250	1.2	0.2	177	-1.2	-1	2555	0.07	1967	2274	9	56579	
15.3962	0.106473	-1.921	260	57	2226	0	-0.0771692	0.0528076	0.548332	-0.0268151	0.0372704	0.0886905	0.011112	0.00671988	-0.079	0.0191186	0.0285534	-0.721568	0	0	0	0	0	0	0.0116091	0.00791708	-0.0989728	0.0135194	0.0452728	-0.699075	-0.206405	0.141764	0.842137	-0.0580506	0.0813609	-0.173235	-0.00939118	0.000178309	1.58209e-05	0.105843	-0.169437	-0	0.241118	0.118394	4.46825	-7.63465e-05	-0.000122378	0.00297523	0.00228862	-0.00180777	-0.0216198	0.0321141	0.0221657	0	-2.59769	-0.517476	-1080	1080	-600	1700	-0	0	-0	-0	0	-0	250	1.2	0.2	177	-1.2	-1	2555	0.07	1967	2274	9	56579	
15.406	0.106473	-1.921	261	57	2221	0	-0.0785724	0.0528015	0.555177	-0.0275866	0.0377889	0.0941423	0.011112	0.00671988	-0.079	0.0196812	0.0275821	-0.728585	0	0	0	0	0	0	0.011604	0.00790967	-0.0990449	0.0136157	0.044886	-0.705344	-0.208422	0.141446	0.854935	-0.0588912	0.0803835	-0.173408	-0.00939118	0.000178309	1.58209e-05	0.105843	-0.169437	-0	0.234598	0.123986	4.46825	-8.13265e-05	-0.000134332	0.00317285	0.0023526	-0.00185999	-0.0219058	0.0333358	0.0232129	0	-2.59769	-0.517476	-1080	1080	-600	1700	-0	0	-0	-0	0	-0	250	1.2	0.2	177	-1.2	-1	2555	0.07	1967	2274	9	56579	
15.4159	0.106473	-1.921	263	56	2221	0	-0.0798459	0.0525059	0.55603	-0.0283786	0.0383097	0.0996576	0.011112	0.00671988	-0.079	0.0202124	0.0269931	-0.729592	0	0	0	0	0	0	0.0116107	0.00789932	-0.0990983	0.0140009	0.0440951	-0.705758	-0.213382	0.138965	0.854935	-0.0596335	0.079499	-0.173562	-0.00939118	0.000178309	1.58209e-05	0.105843	-0.169437	-0	0.226728	0.127479	4.47811	-8.63365e-05	-0.000146398	0.00337414	0.00241792	-0.00191313	-0.0222074	0.0347321	0.023911	0	-2.59769	-0.517476	-1080	1080	-600	1700	-0	0	-0	-0	0	-0	250	1.2	0.2	177	-1.2	-1	2555	0.07	1967	2274	9	56579	
15.4259	0.106473	-1.921	263	56	2221	0	-0.0798459	0.0525059	0.55603	-0.0291812	0.0388374	0.105246	0.011112	0.00671988	-0.079	0.0202124	0.0269931	-0.729592	0	0	0	0	0	0	0.0116025	0.00787811	-0.0987443	0.0140609	0.0440364	-0.705955	-0.213382	0.138965	0.854935	-0.0596335	0.079499	-0.173562	-0.00939118	0.000178309	1.58209e-05	0.105843	-0.169437	-0	0.226676	0.127449	4.47933	-9.12364e-05	-0.000158248	0.00357378	0.00248151	-0.00196179	-0.022443	0.0347321	0.023911	0	-2.59769	-0.517476	-1080	1080	-600	1700	-0	0	-0	-0	0	-0	250	1.2	0.2	177	-1.2	-1	2555	0.07	1967	2274	9	56579	
15.4359	0.106473	-1.921	264	56	2221	0	-0.0812017	0.0521387	0.555868	-0.029986	0.0393542	0.110756	0.011112	0.00671988	-0.079	0.0208073	0.0264174	-0.729596	0	0	0	0	0	0	0.011599	0.00787103	-0.098622	0.0139828	0.0439976	-0.705745	-0.215862	0.138965	0.854935	-0.0603944	0.0785561	-0.173728	-0.00939118	0.000178309	1.58209e-05	0.105843	-0.169437	-0	0.218309	0.13117	4.47933	-9.61985e-05	-0.000169984	0.00377378	0.0025412	-0.00200255	-0.0226743	0.0363028	0.0246091	0	-2.59769	-0.517476	-1080	1080	-600	1700	-0	0	-0	-0	0	-0	250	1.2	0.2	177	-1.2	-1	2555	0.07	1967	2274	9	56579	
15.446	0.106473	-1.921	266	56	2222	0	-0.0825807	0.0518793	0.554682	-0.0308211	0.0398788	0.116365	0.011112	0.00671988	-0.079	0.0215231	0.0257375	-0.7286	0	0	0	0	0	0	0.0115941	0.00786185	-0.0984493	0.0139034	0.0439355	-0.704821	-0.220921	0.139028	0.852376	-0.0610576	0.0776168	-0.173918	-0.00939118	0.000178309	1.58209e-05	0.105843	-0.169437	-0	0.209022	0.135826	4.4791	-0.00010107	-0.000181486	0.00396984	0.00260018	-0.00204263	-0.0228932	0.0380482	0.0254818	0	-2.59769	-0.517476	-1080	1080	-600	1700	-0	0	-0	-0	0	-0	250	1.2	0.2	177	-1.2	-1	2555	0.07	1967	2274	9	56579	
15.4559	0.106473	-1.921	266	56	2222	0	-0.0825807	0.0518793	0.554682	-0.0316441	0.0403959	0.121893	0.011112	0.00671988	-0.079	0.0215231	0.0257375	-0.7286	0	0	0	0	0	0	0.0115932	0.00786005	-0.098417	0.013865	0.0439443	-0.704764	-0.220921	0.139028	0.852376	-0.0610576	0.0776168	-0.173918	-0.00939118	0.000178309	1.58209e-05	0.105843	-0.169437	-0	0.209089	0.13587	4.47739	-0.000105921	-0.000192952	0.00416529	0.00266011	-0.00208245	-0.0231149	0.0380482	0.0254818	0	-2.59769	-0.517476	-1080	1080	-600	1700	-0	0	-0	-0	0	-0	250	1.2	0.2	177	-1.2	-1	2555	0.07	1967	2274	9	56579	
15.466	0.106473	-1.921	267	55	2224	0	-0.083854	0.0515866	0.550489	-0.0324876	0.0409148	0.12743	0.011112	0.00671988	-0.079	0.0220861	0.0250011	-0.724612	0	0	0	0	0	0	0.011593	0.00786258	-0.0983364	0.0137294	0.0439678	-0.700644	-0.223603	0.136668	0.847256	-0.0617679	0.0765877	-0.174124	-0.00939118	0.000178309	1.58209e-05	0.105843	-0.169437	-0	0.199789	0.141452	4.47739	-0.000110754	-0.0002044	0.00436027	0.00272123	-0.0021219	-0.0233072	0.0397935	0.026529	0	-2.59769	-0.517476	-1080	1080	-600	1700	-0	0	-0	-0	0	-0	250	1.2	0.2	177	-1.2	-1	2555	0.07	1967	2274	9	56579	
15.476	0.106473	-1.921	268	55	2227	0	-0.0846489	0.0510223	0.545382	-0.0333348	0.0414254	0.132888	0.011112	0.00671988	-0.079	0.0221314	0.0246765	-0.719626	0	0	0	0	0	0	0.0115878	0.00785326	-0.0980301	0.0136528	0.0439533	-0.695782	-0.226391	0.136853	0.839577	-0.0625175	0.0756988	-0.174245	-0.00939118	0.000178309	1.58209e-05	0.105843	-0.169437	-0	0.194428	0.144407	4.47136	-0.000115564	-0.000215798	0.00455438	0.00278256	-0.00216133	-0.0234495	0.0408407	0.0270526	0	-2.59769	-0.517476	-1080	1080	-600	1700	-0	0	-0	-0	0	-0	250	1.2	0.2	177	-1.2	-1	2555	0.07	1967	2274	9	56579	
15.486	0.106473	-1.921	268	55	2227	0	-0.0846489	0.0510223	0.545382	-0.0341805	0.0419352	0.138337	0.011112	0.00671988	-0.079	0.0221314	0.0246765	-0.719626	0	0	0	0	0	0	0.0115877	0.00785381	-0.0980361	0.0135997	0.0439461	-0.695727	-0.226391	0.136853	0.839577	-0.0625175	0.0756988	-0.174245	-0.00939118	0.000178309	1.58209e-05	0.105843	-0.169437	-0	0.194696	0.144605	4.464	-0.000120397	-0.000227277	0.00474862	0.00284555	-0.00220119	-0.0236339	0.0408407	0.0270526	0	-2.59769	-0.517476	-1080	1080	-600	1700	-0	0	-0	-0	0	-0	250	1.2	0.2	177	-1.2	-1	2555	0.07	1967	2274	9	56579	
15.4959	0.106473	-1.921	268	54	2230	0	-0.0851723	0.0500171	0.540355	-0.0350256	0.0424315	0.143699	0.011112	0.00671988	-0.079	0.0217551	0.0248431	-0.714637	0	0	0	0	0	0	0.0115829	0.00784298	-0.0977193	0.0135475	0.0438823	-0.691013	-0.226696	0.134546	0.831898	-0.0634173	0.0748603	-0.174282	-0.00939118	0.000178309	1.58209e-05	0.105843	-0.169437	-0	0.191899	0.143673	4.464	-0.00012516	-0.000238623	0.00493913	0.0029091	-0.00224077	-0.0238163	0.0413643	0.0268781	0	-2.59769	-0.517476	-1080	1080	-600	1700	-0	0	-0	-0	0	-0	250	1.2	0.2	177	-1.2	-1	2555	0.07	1967	2274	9	56579	
15.506	0.106473	-1.921	269	52	2234	0	-0.0855153	0.0490371	0.534344	-0.0358894	0.0429268	0.149097	0.011112	0.00671988	-0.079	0.0212477	0.0250351	-0.708651	0	0	0	0	0	0	0.01158	0.00783842	-0.0974633	0.0134925	0.0438855	-0.685158	-0.229597	0.129796	0.821659	-0.0642676	0.0740722	-0.174307	-0.00939118	0.000178309	1.58209e-05	0.105843	-0.169437	-0	0.190291	0.142933	4.45677	-0.000129926	-0.000249984	0.00512986	0.00297322	-0.0022803	-0.0239392	0.0417134	0.0267035	0	-2.59769	-0.517476	-1080	1080	-600	1700	-0	0	-0	-0	0	-0	250	1.2	0.2	177	-1.2	-1	2555	0.07	1967	2274	9	56579	
15.5159	0.106473	-1.921	269	52	2234	0	-0.0855153	0.0490371	0.534344	-0.0367354	0.0434119	0.154383	0.011112	0.00671988	-0.079	0.0212477	0.0250351	-0.708651	0	0	0	0	0	0	0.0115756	0.00782701	-0.0972759	0.0135266	0.04384	-0.685366	-0.229597	0.129796	0.821659	-0.0642676	0.0740722	-0.174307	-0.00939118	0.000178309	1.58209e-05	0.105843	-0.169437	-0	0.190599	0.143164	4.44811	-0.000134622	-0.000261186	0.00531657	0.00303758	-0.00231902	-0.0241087	0.0417134	0.0267035	0	-2.59769	-0.517476	-1080	1080	-600	1700	-0	0	-0	-0	0	-0	250	1.2	0.2	177	-1.2	-1	2555	0.07	1967	2274	9	56579	
15.526	0.106473	-1.921	270	52	2235	0	-0.0861247	0.0482198	0.532304	-0.037603	0.0438977	0.159745	0.011112	0.00671988	-0.079	0.0210056	0.0249852	-0.706662	0	0	0	0	0	0	0.0115746	0.0078247	-0.0971901	0.013477	0.0437551	-0.683565	-0.232195	0.129854	0.8191	-0.0651191	0.0732051	-0.174357	-0.00939118	0.000178309	1.58209e-05	0.105843	-0.169437	-0	0.187793	0.143164	4.44811	-0.000139304	-0.000272377	0.00550129	0.00310269	-0.0023579	-0.0243172	0.042237	0.0267035	0	-2.59769	-0.517476	-1080	1080	-600	1700	-0	0	-0	-0	0	-0	250	1.2	0.2	177	-1.2	-1	2555	0.07	1967	2274	9	56579	
15.536	0.106473	-1.921	270	52	2235	0	-0.0861247	0.0482198	0.532304	-0.0384671	0.0443815	0.165085	0.011112	0.00671988	-0.079	0.0210056	0.0249852	-0.706662	0	0	0	0	0	0	0.0115699	0.00781358	-0.0970345	0.0134479	0.0436435	-0.683871	-0.232195	0.129854	0.8191	-0.0651191	0.0732051	-0.174357	-0.00939118	0.000178309	1.58209e-05	0.105843	-0.169437	-0	0.187896	0.143243	4.44517	-0.000143927	-0.000283418	0.00568355	0.00316724	-0.00239619	-0.024523	0.042237	0.0267035	0	-2.59769	-0.517476	-1080	1080	-600	1700	-0	0	-0	-0	0	-0	250	1.2	0.2	177	-1.2	-1	2555	0.07	1967	2274	9	56579	
15.5459	0.106473	-1.921	270	51	2237	0	-0.0867379	0.0473451	0.529259	-0.0393214	0.0448478	0.170299	0.011112	0.00671988	-0.079	0.0208884	0.0250884	-0.703664	0	0	0	0	0	0	0.0115699	0.00781443	-0.0969566	0.0133939	0.0436598	-0.680793	-0.232403	0.127471	0.81398	-0.0658495	0.0724335	-0.174405	-0.00939118	0.000178309	1.58209e-05	0.105843	-0.169437	-0	0.184153	0.142307	4.44517	-0.000148563	-0.000294491	0.00586586	0.00323262	-0.00243383	-0.0247177	0.0429351	0.026529	0	-2.59769	-0.517476	-1080	1080	-600	1700	-0	0	-0	-0	0	-0	250	1.2	0.2	177	-1.2	-1	2555	0.07	1967	2274	9	56579	
15.556	0.106473	-1.921	271	50	2239	0	-0.0871493	0.0464794	0.526243	-0.0402053	0.0453192	0.175636	0.011112	0.00671988	-0.079	0.0205316	0.0251868	-0.700674	0	0	0	0	0	0	0.0115658	0.00780608	-0.0967305	0.0133642	0.0436485	-0.677916	-0.235111	0.125084	0.808861	-0.0666178	0.0716662	-0.174431	-0.00939118	0.000178309	1.58209e-05	0.105843	-0.169437	-0	0.18243	0.141486	4.44079	-0.000153142	-0.000305427	0.00604619	0.00329814	-0.00247026	-0.024879	0.0432842	0.0263545	0	-2.59769	-0.517476	-1080	1080	-600	1700	-0	0	-0	-0	0	-0	250	1.2	0.2	177	-1.2	-1	2555	0.07	1967	2274	9	56579	
15.566	0.106473	-1.921	271	50	2239	0	-0.0871493	0.0464794	0.526243	-0.041077	0.0457841	0.180899	0.011112	0.00671988	-0.079	0.0205316	0.0251868	-0.700674	0	0	0	0	0	0	0.0115628	0.00779879	-0.0966114	0.0133787	0.0436154	-0.678021	-0.235111	0.125084	0.808861	-0.0666178	0.0716662	-0.174431	-0.00939118	0.000178309	1.58209e-05	0.105843	-0.169437	-0	0.182578	0.141601	4.43645	-0.000157714	-0.000316357	0.0062255	0.0033641	-0.0025068	-0.0250708	0.0432842	0.0263545	0	-2.59769	-0.517476	-1080	1080	-600	1700	-0	0	-0	-0	0	-0	250	1.2	0.2	177	-1.2	-1	2555	0.07	1967	2274	9	56579	
15.576	0.106473	-1.921	271	49	2241	0	-0.0874329	0.0456426	0.522237	-0.0419506	0.0462401	0.186118	0.011112	0.00671988	-0.079	0.0199859	0.025178	-0.696694	0	0	0	0	0	0	0.0115615	0.00779557	-0.0964513	0.0133381	0.0435491	-0.674137	-0.235321	0.122692	0.803742	-0.067447	0.0708206	-0.174457	-0.00939118	0.000178309	1.58209e-05	0.105843	-0.169437	-0	0.18164	0.141601	4.43645	-0.000162255	-0.000327228	0.00640295	0.00343051	-0.00254332	-0.0252518	0.0434587	0.0263545	0	-2.59769	-0.517476	-1080	1080	-600	1700	-0	0	-0	-0	0	-0	250	1.2	0.2	177	-1.2	-1	2555	0.07	1967	2274	9	56579	
15.5859	0.106473	-1.921	271	48	2244	0	-0.0875889	0.0447683	0.518253	-0.0428211	0.0466851	0.191268	0.011112	0.00671988	-0.079	0.0193573	0.0252939	-0.692712	0	0	0	0	0	0	0.011558	0.00778814	-0.0962238	0.0132978	0.0434938	-0.670278	-0.235636	0.12035	0.796063	-0.0682316	0.0700622	-0.174458	-0.00939118	0.000178309	1.58209e-05	0.105843	-0.169437	-0	0.181835	0.140814	4.43068	-0.000166762	-0.000338015	0.00657903	0.00349671	-0.00257947	-0.0253916	0.0434587	0.0261799	0	-2.59769	-0.517476	-1080	1080	-600	1700	-0	0	-0	-0	0	-0	250	1.2	0.2	177	-1.2	-1	2555	0.07	1967	2274	9	56579	
15.5961	0.106473	-1.921	271	48	2244	0	-0.0875889	0.0447683	0.518253	-0.0437128	0.0471408	0.196544	0.011112	0.00671988	-0.079	0.0193573	0.0252939	-0.692712	0	0	0	0	0	0	0.0115579	0.00778878	-0.0962321	0.013269	0.043484	-0.670233	-0.235636	0.12035	0.796063	-0.0682316	0.0700622	-0.174458	-0.00939118	0.000178309	1.58209e-05	0.105843	-0.169437	-0	0.182029	0.140964	4.42494	-0.000171278	-0.00034882	0.00675433	0.00356364	-0.00261512	-0.025571	0.0434587	0.0261799	0	-2.59769	-0.517476	-1080	1080	-600	1700	-0	0	-0	-0	0	-0	250	1.2	0.2	177	-1.2	-1	2555	0.07	1967	2274	9	56579	
15.6059	0.106473	-1.921	271	47	2246	0	-0.0877538	0.0436782	0.514285	-0.0445675	0.0475663	0.201553	0.011112	0.00671988	-0.079	0.0187072	0.0256382	-0.688721	0	0	0	0	0	0	0.0115525	0.00777406	-0.0958901	0.0133163	0.0433841	-0.666594	-0.235846	0.117948	0.790943	-0.0690466	0.0693164	-0.174436	-0.00939118	0.000178309	1.58209e-05	0.105843	-0.169437	-0	0.182029	0.138146	4.42494	-0.000175728	-0.000359479	0.00692618	0.00363051	-0.00264998	-0.0257478	0.0434587	0.0256563	0	-2.59769	-0.517476	-1080	1080	-600	1700	-0	0	-0	-0	0	-0	250	1.2	0.2	177	-1.2	-1	2555	0.07	1967	2274	9	56579	
15.6159	0.212541	-1.852	307	-3	2248	0	-0.12076	-0.0102142	0.510572	-0.0457826	0.0474635	0.206691	0.022224	0.0134398	-0.148	0.0420961	0.0744477	-0.682869	0	0	0	0	0	0	0.0242262	0.0151314	-0.165092	0.0633248	0.0633754	-0.660616	-0.326376	-0.0075358	0.785824	-0.0786644	0.0642335	-0.172296	-0.0191737	0.000365759	6.47823e-05	0.108254	-0.167073	-0	0.182222	0.133589	4.41923	-6.86724e-05	-0.00030276	0.00640659	0.00419992	-0.00248421	-0.0258659	0.0434587	0.0247837	0	-2.59769	-0.517476	-1080	1080	-600	1700	-0	0	-0	-0	0	-0	250	1.2	0.2	177	-1.2	-1	2555	0.07	1973	2277	9	56579	
15.6259	0.212541	-1.852	307	-11	2248	0	-0.12076	-0.0102142	0.510572	-0.0469892	0.0473614	0.211792	0.022224	0.0134398	-0.148	0.0420961	0.0744477	-0.682869	0	0	0	0	0	0	0.0242629	0.0151439	-0.165183	0.0634385	0.0633377	-0.660883	-0.326376	-0.0276312	0.785824	-0.0786644	0.0642335	-0.172296	-0.0191737	0.000365759	6.47823e-05	0.108254	-0.167073	-0	0.182403	0.133722	4.41388	3.7541e-05	-0.000246369	0.00588794	0.00476409	-0.00231883	-0.0260193	0.0434587	0.0247837	0	-2.59769	-0.517476	-1080	1080	-600	1700	-0	0	-0	-0	0	-0	250	1.2	0.2	177	-1.2	-1	2555	0.07	1973	2277	9	56579	
15.6361	0.212541	-1.852	306	-12	2251	0	-0.120258	-0.0115019	0.50663	-0.0482186	0.0472438	0.216972	0.022224	0.0134398	-0.148	0.0408638	0.0749061	-0.678899	0	0	0	0	0	0	0.0242609	0.0151425	-0.165062	0.0625069	0.062047	-0.656956	-0.324301	-0.0301833	0.778145	-0.0793941	0.0634042	-0.172269	-0.0191737	0.000365759	6.47823e-05	0.108254	-0.167073	-0	0.183344	0.131839	4.41388	1.75302e-05	-0.000263276	0.00605876	0.0048308	-0.00235256	-0.026193	0.0432842	0.0244346	0	-2.59769	-0.517476	-1080	1080	-600	1700	-0	0	-0	-0	0	-0	250	1.2	0.2	177	-1.2	-1	2555	0.07	1973	2277	9	56579	
15.646	0.212541	-1.852	306	-14	2255	0	-0.119647	-0.0131728	0.499675	-0.0493972	0.0471141	0.221893	0.022224	0.0134398	-0.148	0.0396142	0.0759977	-0.67186	0	0	0	0	0	0	0.0242116	0.0150851	-0.164645	0.0607655	0.0593373	-0.650217	-0.324877	-0.0352764	0.767906	-0.0800332	0.0628249	-0.172185	-0.0191737	0.000365759	6.47823e-05	0.108254	-0.167073	-0	0.184479	0.12538	4.40821	-2.71855e-06	-0.0002802	0.00622941	0.00489597	-0.00238571	-0.0262935	0.0431096	0.0232129	0	-2.59769	-0.517476	-1080	1080	-600	1700	-0	0	-0	-0	0	-0	250	1.2	0.2	177	-1.2	-1	2555	0.07	1973	2277	9	56579	
15.656	0.212541	-1.852	306	-14	2255	0	-0.119647	-0.0131728	0.499675	-0.0506008	0.0469816	0.22692	0.022224	0.0134398	-0.148	0.0396142	0.0759977	-0.67186	0	0	0	0	0	0	0.024232	0.0150992	-0.164875	0.0606364	0.058897	-0.649929	-0.324877	-0.0352764	0.767906	-0.0800332	0.0628249	-0.172185	-0.0191737	0.000365759	6.47823e-05	0.108254	-0.167073	-0	0.184821	0.125612	4.39819	-2.32756e-05	-0.000297384	0.00640161	0.00497159	-0.00240637	-0.0264352	0.0431096	0.0232129	0	-2.59769	-0.517476	-1080	1080	-600	1700	-0	0	-0	-0	0	-0	250	1.2	0.2	177	-1.2	-1	2555	0.07	1973	2277	9	56579	
15.666	0.212541	-1.852	305	-15	2259	0	-0.119004	-0.0146691	0.492728	-0.0517896	0.046835	0.231842	0.022224	0.0134398	-0.148	0.0382701	0.0767268	-0.664864	0	0	0	0	0	0	0.0242092	0.0150776	-0.164444	0.0607505	0.0588015	-0.643365	-0.322933	-0.0378631	0.757667	-0.0807342	0.0620577	-0.172136	-0.0191737	0.000365759	6.47823e-05	0.108254	-0.167073	-0	0.185765	0.121835	4.39819	-4.31952e-05	-0.000313873	0.00656841	0.00506413	-0.00239973	-0.0265734	0.0429351	0.0225147	0	-2.59769	-0.517476	-1080	1080	-600	1700	-0	0	-0	-0	0	-0	250	1.2	0.2	177	-1.2	-1	2555	0.07	1973	2277	9	56579	
15.6758	0.212541	-1.852	304	-17	2261	0	-0.11851	-0.0161562	0.488767	-0.0529514	0.0466766	0.236634	0.022224	0.0134398	-0.148	0.0371518	0.0775929	-0.660832	0	0	0	0	0	0	0.0242033	0.0150718	-0.164286	0.0607263	0.0586982	-0.639528	-0.320696	-0.0429495	0.752548	-0.081358	0.0614366	-0.172065	-0.0191737	0.000365759	6.47823e-05	0.108254	-0.167073	-0	0.187055	0.116384	4.38819	-6.33644e-05	-0.000330542	0.00673791	0.00515819	-0.00238865	-0.0266745	0.0427606	0.0214675	0	-2.59769	-0.517476	-1080	1080	-600	1700	-0	0	-0	-0	0	-0	250	1.2	0.2	177	-1.2	-1	2555	0.07	1973	2277	9	56579	
15.6859	0.212541	-1.852	304	-17	2261	0	-0.11851	-0.0161562	0.488767	-0.054141	0.0465145	0.24154	0.022224	0.0134398	-0.148	0.0371518	0.0775929	-0.660832	0	0	0	0	0	0	0.0241785	0.0150498	-0.164054	0.0608309	0.0586818	-0.639826	-0.320696	-0.0429495	0.752548	-0.081358	0.0614366	-0.172065	-0.0191737	0.000365759	6.47823e-05	0.108254	-0.167073	-0	0.187251	0.116506	4.38249	-8.315e-05	-0.000346865	0.0069018	0.00525037	-0.00237671	-0.0268403	0.0427606	0.0214675	0	-2.59769	-0.517476	-1080	1080	-600	1700	-0	0	-0	-0	0	-0	250	1.2	0.2	177	-1.2	-1	2555	0.07	1973	2277	9	56579	
15.6959	0.212541	-1.852	304	-18	2267	0	-0.117978	-0.0175173	0.479772	-0.0553272	0.0463383	0.246364	0.022224	0.0134398	-0.148	0.0360962	0.0783135	-0.651817	0	0	0	0	0	0	0.0241664	0.0150381	-0.163677	0.060916	0.0585827	-0.631128	-0.321547	-0.0455965	0.73719	-0.0818813	0.0607962	-0.172044	-0.0191737	0.000365759	6.47823e-05	0.108254	-0.167073	-0	0.186305	0.112718	4.38249	-0.000102846	-0.000363105	0.00706387	0.00534265	-0.00236375	-0.0269545	0.0429351	0.0207694	0	-2.59769	-0.517476	-1080	1080	-600	1700	-0	0	-0	-0	0	-0	250	1.2	0.2	177	-1.2	-1	2555	0.07	1973	2277	9	56579	
15.706	0.212541	-1.852	304	-18	2267	0	-0.117978	-0.0175173	0.479772	-0.0565123	0.0461624	0.251183	0.022224	0.0134398	-0.148	0.0360962	0.0783135	-0.651817	0	0	0	0	0	0	0.0241559	0.0150273	-0.163585	0.0609767	0.0584837	-0.631257	-0.321547	-0.0455965	0.73719	-0.0818813	0.0607962	-0.172044	-0.0191737	0.000365759	6.47823e-05	0.108254	-0.167073	-0	0.186749	0.112987	4.36954	-0.000122281	-0.000379115	0.0072235	0.00543383	-0.00235064	-0.0270656	0.0429351	0.0207694	0	-2.59769	-0.517476	-1080	1080	-600	1700	-0	0	-0	-0	0	-0	250	1.2	0.2	177	-1.2	-1	2555	0.07	1973	2277	9	56579	
15.7159	0.212541	-1.852	304	-20	2271	0	-0.11771	-0.0193898	0.471695	-0.057677	0.0459705	0.255851	0.022224	0.0134398	-0.148	0.035368	0.0796731	-0.6437	0	0	0	0	0	0	0.0241504	0.0150232	-0.163309	0.0609564	0.058456	-0.623373	-0.322115	-0.0507521	0.726951	-0.082342	0.0602833	-0.172005	-0.0191737	0.000365759	6.47823e-05	0.108254	-0.167073	-0	0.182953	0.103494	4.36954	-0.000141638	-0.000395043	0.00737973	0.00552435	-0.00233652	-0.0271839	0.0436332	0.0190241	0	-2.59769	-0.517476	-1080	1080	-600	1700	-0	0	-0	-0	0	-0	250	1.2	0.2	177	-1.2	-1	2555	0.07	1973	2277	9	56579	
15.7259	0.212541	-1.852	303	-22	2276	0	-0.117564	-0.0210831	0.464595	-0.0588549	0.0457593	0.260505	0.022224	0.0134398	-0.148	0.0348314	0.0808654	-0.636587	0	0	0	0	0	0	0.0241557	0.0150287	-0.163176	0.060871	0.0583937	-0.616506	-0.320285	-0.05595	0.714153	-0.0827325	0.0597823	-0.171992	-0.0191737	0.000365759	6.47823e-05	0.108254	-0.167073	-0	0.178589	0.0951521	4.35791	-0.000161045	-0.000410991	0.00753629	0.005615	-0.00232129	-0.0272315	0.0445059	0.0174533	0	-2.59769	-0.517476	-1080	1080	-600	1700	-0	0	-0	-0	0	-0	250	1.2	0.2	177	-1.2	-1	2555	0.07	1973	2277	9	56579	
15.7359	0.212541	-1.852	303	-22	2276	0	-0.117564	-0.0210831	0.464595	-0.0600305	0.0455485	0.265151	0.022224	0.0134398	-0.148	0.0348314	0.0808654	-0.636587	0	0	0	0	0	0	0.024137	0.0150123	-0.16301	0.0609204	0.0583502	-0.616727	-0.320285	-0.05595	0.714153	-0.0827325	0.0597823	-0.171992	-0.0191737	0.000365759	6.47823e-05	0.108254	-0.167073	-0	0.178924	0.0953305	4.34768	-0.000180305	-0.000426822	0.00768935	0.00570541	-0.00230585	-0.0273578	0.0445059	0.0174533	0	-2.59769	-0.517476	-1080	1080	-600	1700	-0	0	-0	-0	0	-0	250	1.2	0.2	177	-1.2	-1	2555	0.07	1973	2277	9	56579	
15.746	0.212541	-1.852	303	-24	2281	0	-0.117379	-0.0227633	0.456486	-0.0612149	0.0453188	0.269757	0.022224	0.0134398	-0.148	0.034317	0.0821494	-0.628457	0	0	0	0	0	0	0.024125	0.0150008	-0.162676	0.0609477	0.0581986	-0.609096	-0.320988	-0.0611703	0.701354	-0.0830622	0.0593861	-0.171971	-0.0191737	0.000365759	6.47823e-05	0.108254	-0.167073	-0	0.17416	0.0857983	4.34768	-0.000199595	-0.00044269	0.0078409	0.00579658	-0.00228981	-0.0274726	0.0453786	0.015708	0	-2.59769	-0.517476	-1080	1080	-600	1700	-0	0	-0	-0	0	-0	250	1.2	0.2	177	-1.2	-1	2555	0.07	1973	2277	9	56579	
15.756	0.212541	-1.852	303	-26	2285	0	-0.116975	-0.0243539	0.449439	-0.0623858	0.045075	0.274256	0.022224	0.0134398	-0.148	0.0334778	0.0832789	-0.621357	0	0	0	0	0	0	0.0241131	0.0149887	-0.162368	0.0610077	0.058099	-0.602388	-0.321551	-0.0663838	0.691115	-0.0834975	0.058925	-0.171919	-0.0191737	0.000365759	6.47823e-05	0.108254	-0.167073	-0	0.172622	0.0773841	4.33601	-0.000218671	-0.00045837	0.00799057	0.00588711	-0.00227336	-0.0275152	0.0457276	0.0141372	0	-2.59769	-0.517476	-1080	1080	-600	1700	-0	0	-0	-0	0	-0	250	1.2	0.2	177	-1.2	-1	2555	0.07	1973	2277	9	56579	
15.766	0.212541	-1.852	303	-26	2285	0	-0.116975	-0.0243539	0.449439	-0.0635512	0.0448324	0.278734	0.022224	0.0134398	-0.148	0.0334778	0.0832789	-0.621357	0	0	0	0	0	0	0.024116	0.0149924	-0.162413	0.0609473	0.0580375	-0.602389	-0.321551	-0.0663838	0.691115	-0.0834975	0.058925	-0.171919	-0.0191737	0.000365759	6.47823e-05	0.108254	-0.167073	-0	0.172942	0.0775276	4.32586	-0.000237749	-0.000474037	0.00813787	0.00597797	-0.00225528	-0.0276346	0.0457276	0.0141372	0	-2.59769	-0.517476	-1080	1080	-600	1700	-0	0	-0	-0	0	-0	250	1.2	0.2	177	-1.2	-1	2555	0.07	1973	2277	9	56579	
15.7759	0.212541	-1.852	302	-27	2290	0	-0.116553	-0.0256614	0.441395	-0.0647152	0.0445761	0.283142	0.022224	0.0134398	-0.148	0.0326998	0.0841735	-0.613282	0	0	0	0	0	0	0.0241057	0.0149825	-0.162098	0.0609394	0.0578828	-0.594766	-0.3197	-0.0690878	0.678317	-0.0838528	0.058512	-0.171887	-0.0191737	0.000365759	6.47823e-05	0.108254	-0.167073	-0	0.171029	0.0708281	4.32586	-0.000256703	-0.000489579	0.00828203	0.00606819	-0.00223621	-0.0277411	0.0460767	0.0129154	0	-2.59769	-0.517476	-1080	1080	-600	1700	-0	0	-0	-0	0	-0	250	1.2	0.2	177	-1.2	-1	2555	0.07	1973	2277	9	56579	
15.7881	1.05148	-1.805	352	-77	2287	0	-0.326157	-0.307331	0.445117	-0.0686881	0.0408325	0.288564	0.11112	0.0195685	-0.195	0.200962	0.310124	-0.60106	0	0	0	0	0	0	0.121853	0.0220323	-0.209032	0.34123	0.0878127	-0.588001	-0.44678	-0.196738	0.685996	-0.125195	0.00279284	-0.155943	-0.0872919	0.00050129	0.000439245	0.0996222	-0.14985	-0	0.166596	0.0671412	4.31428	0.000615164	-0.000443721	0.00795548	0.00896479	-0.00191591	-0.0277773	0.0469494	0.0122173	0	-2.96728	-0.173434	-1080	1080	-600	1700	-0	0	-0	-0	0	-0	250	1.2	0.2	177	-1.2	-1	2555	0.07	1974	2281	9	56579	
15.796	1.05148	-1.805	402	-127	2287	0	-0.326157	-0.307331	0.445117	-0.071257	0.0384119	0.29207	0.11112	0.0195685	-0.195	0.200962	0.310124	-0.60106	0	0	0	0	0	0	0.122252	0.0220461	-0.209136	0.34157	0.0878246	-0.588211	-0.574067	-0.324384	0.685996	-0.125195	0.00279284	-0.155943	-0.0872919	0.00050129	0.000439245	0.0996222	-0.14985	-0	0.166434	0.0670757	4.31964	0.00148415	-0.000397923	0.0076269	0.0118515	-0.00159517	-0.0278895	0.0469494	0.0122173	0	-2.96728	-0.173434	-1080	1080	-600	1700	-0	0	-0	-0	0	-0	250	1.2	0.2	177	-1.2	-1	2555	0.07	1974	2281	9	56579	
15.806	1.05148	-1.805	452	-177	2293	0	-0.324198	-0.309453	0.435849	-0.0744866	0.0353292	0.296412	0.11112	0.0195685	-0.195	0.199113	0.311491	-0.591893	0	0	0	0	0	0	0.12294	0.0222243	-0.21006	0.339561	0.0862558	-0.577921	-0.702919	-0.453062	0.670638	-0.125085	0.00203731	-0.156043	-0.0872919	0.00050129	0.000439245	0.0996222	-0.14985	-0	0.161645	0.0651594	4.31964	0.0013692	-0.000424311	0.00777719	0.0119455	-0.00157174	-0.0279859	0.047822	0.0118682	0	-2.96728	-0.173434	-1080	1080	-600	1700	-0	0	-0	-0	0	-0	250	1.2	0.2	177	-1.2	-1	2555	0.07	1974	2281	9	56579	
15.8159	1.05148	-1.805	502	-227	2299	0	-0.322249	-0.311515	0.426587	-0.0776795	0.0322427	0.300638	0.11112	0.0195685	-0.195	0.197332	0.312695	-0.582774	0	0	0	0	0	0	0.12213	0.0219887	-0.2085	0.336505	0.0826559	-0.570188	-0.832102	-0.582192	0.65528	-0.124917	0.00118047	-0.156187	-0.0872919	0.00050129	0.000439245	0.0996222	-0.14985	-0	0.155316	0.0653177	4.3063	0.00125771	-0.000449123	0.00791875	0.0120299	-0.00154996	-0.0279837	0.0490438	0.0118682	0	-2.96728	-0.173434	-1080	1080	-600	1700	-0	0	-0	-0	0	-0	250	1.2	0.2	177	-1.2	-1	2555	0.07	1974	2281	9	56579	
15.8259	1.05148	-1.805	525	-277	2299	0	-0.322249	-0.311515	0.426587	-0.0809194	0.0291107	0.304927	0.11112	0.0195685	-0.195	0.197332	0.312695	-0.582774	0	0	0	0	0	0	0.122024	0.0219349	-0.20841	0.332691	0.0788235	-0.570369	-0.890551	-0.709859	0.65528	-0.124917	0.00118047	-0.156187	-0.0872919	0.00050129	0.000439245	0.0996222	-0.14985	-0	0.155693	0.065476	4.29296	0.00113943	-0.000475698	0.00806945	0.0121343	-0.00151249	-0.0280846	0.0490438	0.0118682	0	-2.96728	-0.173434	-1080	1080	-600	1700	-0	0	-0	-0	0	-0	250	1.2	0.2	177	-1.2	-1	2555	0.07	1974	2281	9	56579	
15.8364	1.05148	-1.805	523	-327	2302	0	-0.320399	-0.313621	0.42027	-0.0842912	0.0258102	0.30935	0.11112	0.0195685	-0.195	0.195629	0.314022	-0.576579	0	0	0	0	0	0	0.12117	0.0217003	-0.206879	0.330528	0.0760906	-0.566354	-0.886627	-0.83828	0.647601	-0.12477	0.000401442	-0.156309	-0.0872919	0.00050129	0.000439245	0.0996222	-0.14985	-0	0.149917	0.0635503	4.29296	0.00103761	-0.000498082	0.00819431	0.0122592	-0.00144457	-0.0281938	0.0500909	0.0115192	0	-2.96728	-0.173434	-1080	1080	-600	1700	-0	0	-0	-0	0	-0	250	1.2	0.2	177	-1.2	-1	2555	0.07	1974	2281	9	56579	
15.8459	1.05148	-1.805	521	-340	2306	0	-0.318835	-0.315628	0.41378	-0.0872908	0.0228407	0.313243	0.11112	0.0195685	-0.195	0.194273	0.315347	-0.570255	0	0	0	0	0	0	0.121809	0.021827	-0.207877	0.32576	0.0711718	-0.559216	-0.883073	-0.87288	0.637362	-0.124562	-0.000281414	-0.156474	-0.0872919	0.00050129	0.000439245	0.0996222	-0.14985	-0	0.142451	0.0607618	4.28387	0.000928845	-0.000521686	0.00832807	0.0124318	-0.00133308	-0.02825	0.0514872	0.0109956	0	-2.96728	-0.173434	-1080	1080	-600	1700	-0	0	-0	-0	0	-0	250	1.2	0.2	177	-1.2	-1	2555	0.07	1974	2281	9	56579	
15.8559	1.05148	-1.805	521	-340	2306	0	-0.318835	-0.315628	0.41378	-0.0904824	0.0196813	0.317385	0.11112	0.0195685	-0.195	0.194273	0.315347	-0.570255	0	0	0	0	0	0	0.121928	0.0218206	-0.208133	0.324154	0.0669351	-0.558936	-0.883073	-0.87288	0.637362	-0.124562	-0.000281414	-0.156474	-0.0872919	0.00050129	0.000439245	0.0996222	-0.14985	-0	0.142692	0.0608645	4.27452	0.000826722	-0.00054335	0.00844879	0.0126297	-0.00119174	-0.028348	0.0514872	0.0109956	0	-2.96728	-0.173434	-1080	1080	-600	1700	-0	0	-0	-0	0	-0	250	1.2	0.2	177	-1.2	-1	2555	0.07	1974	2281	9	56579	
15.866	1.05148	-1.805	519	-342	2309	0	-0.31722	-0.317531	0.409443	-0.0936945	0.016466	0.321531	0.11112	0.0195685	-0.195	0.192734	0.316715	-0.565976	0	0	0	0	0	0	0.121709	0.021733	-0.207669	0.324736	0.0644171	-0.555531	-0.879119	-0.879119	0.629683	-0.124485	-0.000815895	-0.156533	-0.0872919	0.00050129	0.000439245	0.0996222	-0.14985	-0	0.139795	0.0560342	4.27452	0.000719877	-0.000565925	0.00857749	0.012872	-0.00100354	-0.0284758	0.0520108	0.0101229	0	-2.96728	-0.173434	-1080	1080	-600	1700	-0	0	-0	-0	0	-0	250	1.2	0.2	177	-1.2	-1	2555	0.07	1974	2281	9	56579	
15.8765	1.05148	-1.805	518	-345	2311	0	-0.316276	-0.320165	0.406051	-0.0970186	0.013101	0.325799	0.11112	0.0195685	-0.195	0.192116	0.319063	-0.562841	0	0	0	0	0	0	0.121642	0.0217082	-0.207522	0.324872	0.0637869	-0.553775	-0.877327	-0.88754	0.624564	-0.12416	-0.00110156	-0.15679	-0.0872919	0.00050129	0.000439245	0.0996222	-0.14985	-0	0.128349	0.0415898	4.26828	0.00061201	-0.000588403	0.00870856	0.0131299	-0.000773339	-0.0285862	0.0541052	0.00750492	0	-2.96728	-0.173434	-1080	1080	-600	1700	-0	0	-0	-0	0	-0	250	1.2	0.2	177	-1.2	-1	2555	0.07	1974	2281	9	56579	
15.886	1.05148	-1.805	518	-345	2311	0	-0.316276	-0.320165	0.406051	-0.100022	0.0100604	0.329655	0.11112	0.0195685	-0.195	0.192116	0.319063	-0.562841	0	0	0	0	0	0	0.121457	0.0216686	-0.207238	0.325287	0.064098	-0.554118	-0.877327	-0.88754	0.624564	-0.12416	-0.00110156	-0.15679	-0.0872919	0.00050129	0.000439245	0.0996222	-0.14985	-0	0.128462	0.0416264	4.26339	0.000507727	-0.000609719	0.00883333	0.0133787	-0.000521399	-0.0287287	0.0541052	0.00750492	0	-2.96728	-0.173434	-1080	1080	-600	1700	-0	0	-0	-0	0	-0	250	1.2	0.2	177	-1.2	-1	2555	0.07	1974	2281	9	56579	
15.8961	1.05148	-1.805	518	-349	2313	0	-0.316452	-0.323533	0.402192	-0.103217	0.00679405	0.333715	0.11112	0.0195685	-0.195	0.192979	0.322572	-0.559524	0	0	0	0	0	0	0.121771	0.0217356	-0.20776	0.32444	0.0629471	-0.552643	-0.878086	-0.898528	0.619444	-0.123473	-0.000960933	-0.157332	-0.0872919	0.00050129	0.000439245	0.0996222	-0.14985	-0	0.104266	0.014521	4.26339	0.000400243	-0.000631577	0.00896125	0.0136354	-0.000253623	-0.0288843	0.0584685	0.00261799	0	-2.96728	-0.173434	-1080	1080	-600	1700	-0	0	-0	-0	0	-0	250	1.2	0.2	177	-1.2	-1	2555	0.07	1974	2281	9	56579	
15.906	1.05148	-1.805	518	-349	2313	0	-0.316452	-0.323533	0.402192	-0.106342	0.00359884	0.337687	0.11112	0.0195685	-0.195	0.192979	0.322572	-0.559524	0	0	0	0	0	0	0.121549	0.0216855	-0.207415	0.324952	0.0632564	-0.553083	-0.878086	-0.898528	0.619444	-0.123473	-0.000960933	-0.157332	-0.0872919	0.00050129	0.000439245	0.0996222	-0.14985	-0	0.104371	0.0145355	4.25784	0.000296412	-0.000652672	0.00908417	0.0138836	6.54489e-06	-0.0290337	0.0584685	0.00261799	0	-2.96728	-0.173434	-1080	1080	-600	1700	-0	0	-0	-0	0	-0	250	1.2	0.2	177	-1.2	-1	2555	0.07	1974	2281	9	56579	
15.9158	1.05148	-1.805	519	-354	2316	0	-0.31743	-0.327852	0.396848	-0.109476	0.000362283	0.341605	0.11112	0.0195685	-0.195	0.194951	0.327475	-0.554958	0	0	0	0	0	0	0.121486	0.0216725	-0.207304	0.324996	0.0631999	-0.552169	-0.881784	-0.912481	0.611765	-0.122478	-0.000377428	-0.15811	-0.0872919	0.00050129	0.000439245	0.0996222	-0.14985	-0	0.0694896	-0.0271329	4.25784	0.000189536	-0.000674417	0.00921221	0.0141401	0.000278002	-0.0291878	0.0647517	-0.00488692	0	-2.96728	-0.173434	-1080	1080	-600	1700	-0	0	-0	-0	0	-0	250	1.2	0.2	177	-1.2	-1	2555	0.07	1974	2281	9	56579	
15.9259	1.05148	-1.805	520	-358	2320	0	-0.318329	-0.331971	0.391616	-0.112666	-0.0029644	0.345529	0.11112	0.0195685	-0.195	0.196741	0.332308	-0.550412	0	0	0	0	0	0	0.121224	0.021613	-0.206863	0.325562	0.0635753	-0.551678	-0.88587	-0.924302	0.601526	-0.121588	0.000336803	-0.158796	-0.0872919	0.00050129	0.000439245	0.0996222	-0.14985	-0	0.0385353	-0.0698654	4.25014	8.70896e-05	-0.000695213	0.00933416	0.0143862	0.000540705	-0.0293245	0.0703368	-0.0125664	0	-2.96728	-0.173434	-1080	1080	-600	1700	-0	0	-0	-0	0	-0	250	1.2	0.2	177	-1.2	-1	2555	0.07	1974	2281	9	56579	
15.9359	1.05148	-1.805	520	-358	2320	0	-0.318329	-0.331971	0.391616	-0.115877	-0.00631299	0.34948	0.11112	0.0195685	-0.195	0.196741	0.332308	-0.550412	0	0	0	0	0	0	0.121297	0.0216296	-0.207009	0.325221	0.0631262	-0.551537	-0.88587	-0.924302	0.601526	-0.121588	0.000336803	-0.158796	-0.0872919	0.00050129	0.000439245	0.0996222	-0.14985	-0	0.0385875	-0.0699601	4.24261	-1.60295e-05	-0.000716143	0.00945655	0.0146349	0.000807312	-0.0294721	0.0703368	-0.0125664	0	-2.96728	-0.173434	-1080	1080	-600	1700	-0	0	-0	-0	0	-0	250	1.2	0.2	177	-1.2	-1	2555	0.07	1974	2281	9	56579	
15.9459	1.05148	-1.805	521	-362	2323	0	-0.318969	-0.33584	0.385625	-0.119055	-0.00965896	0.353322	0.11112	0.0195685	-0.195	0.198165	0.336918	-0.545015	0	0	0	0	0	0	0.121221	0.0216099	-0.206852	0.325197	0.062826	-0.54985	-0.889583	-0.935752	0.593847	-0.120804	0.00107819	-0.15939	-0.0872919	0.00050129	0.000439245	0.0996222	-0.14985	-0	0.0113804	-0.111737	4.24261	-0.000116287	-0.000736431	0.00957426	0.0148774	0.00106952	-0.0296043	0.0752237	-0.0200713	0	-2.96728	-0.173434	-1080	1080	-600	1700	-0	0	-0	-0	0	-0	250	1.2	0.2	177	-1.2	-1	2555	0.07	1974	2281	9	56579	
15.9561	1.05148	-1.805	521	-366	2327	0	-0.319374	-0.339724	0.378605	-0.122295	-0.0131058	0.357163	0.11112	0.0195685	-0.195	0.199331	0.341557	-0.538563	0	0	0	0	0	0	0.121239	0.0216113	-0.206821	0.324954	0.0624232	-0.546937	-0.891114	-0.947633	0.583609	-0.120043	0.00183269	-0.159957	-0.0872919	0.00050129	0.000439245	0.0996222	-0.14985	-0	-0.0148783	-0.154719	4.23398	-0.000217986	-0.000757028	0.00969428	0.015125	0.00133808	-0.0297088	0.0799361	-0.0277507	0	-2.96728	-0.173434	-1080	1080	-600	1700	-0	0	-0	-0	0	-0	250	1.2	0.2	177	-1.2	-1	2555	0.07	1974	2281	9	56579	
15.966	1.05148	-1.805	521	-366	2327	0	-0.319374	-0.339724	0.378605	-0.125479	-0.0164929	0.360938	0.11112	0.0195685	-0.195	0.199331	0.341557	-0.538563	0	0	0	0	0	0	0.121218	0.0216075	-0.206812	0.324861	0.0622516	-0.546972	-0.891114	-0.947633	0.583609	-0.120043	0.00183269	-0.159957	-0.0872919	0.00050129	0.000439245	0.0996222	-0.14985	-0	-0.0149053	-0.154999	4.22388	-0.00031923	-0.000777491	0.00981308	0.0153736	0.00161047	-0.0298306	0.0799361	-0.0277507	0	-2.96728	-0.173434	-1080	1080	-600	1700	-0	0	-0	-0	0	-0	250	1.2	0.2	177	-1.2	-1	2555	0.07	1974	2281	9	56579	
