time 	e1	e2	ctrlpitch	ctrlroll	ctrlthrust	ctrlyaw	edx	edy	edz	cumulx	cumuly	cumulz	x_pred	y_pred	z_pred	dxr_pred	dyr_pred	dzr_pred	dxrT	dyrT	dzrT	dxrUn	dyrUn	dzrUn	x	y	z	dx	dy	dz	ux	uy	uz	dxd	dyd	dzd	Perpx	Tangx	Perpy	Tangy	Perpz	Tanz	ax	ay	az	pitch	roll	yaw	yawd	eyaw	kpvx	kpvy	kpvz	kpyaw	kivx	kivy	kivz	kdvx	kdvy	kdvz	kdyaw	ktg	veld	pitchoff	ke1	ke2	gravity	thr_vel	gps_accuracy	height_accuracy	gps_sat_num	gps_status
12.5688	1.1983	-1.61958	43	-50	1450	50	0.123692	-0.0800933	-0.135224	0.00120822	-0.000782351	-0.00132086	-0.0130445	-0.0353395	-0.380424	0	0	0	0	0	0	0	0	0	-0.011112	-0.033336	-0.353	0	0	0	0.216989	-0.0810057	2.82845	0.123692	-0.0800933	-0.135224	-0.0353902	0.0960141	-0.0958779	-0.0354405	-0.138131	-0	0	-0	9.81	0.0289725	-0.00767945	0	1.21719	0.938131	-1080	1080	-600	1700	-10	10	-10	-0	0	-0	250	-1.2	0.2	177	-1.2	-1	2555	0.07	2058	2785	8	56579	
12.5692	1.1983	-1.61958	43	-86	1500	100	0.123692	-0.0800933	-0.135224	0.00125089	-0.000809983	-0.00136752	-0.0130445	-0.0353395	-0.380424	0	0	0	0	0	0	0	0	0	-0.011112	-0.033336	-0.353	0	0	0	0.224471	-0.144112	2.70047	0.123692	-0.0800933	-0.135224	-0.0353902	0.0960141	-0.0958779	-0.0354405	-0.138131	-0	0.305397	-0.0485796	3.48402	0.0289725	-0.00767945	0	1.21719	0.938131	-1080	1080	-600	1700	-10	10	-10	-0	0	-0	250	-1.2	0.2	177	-1.2	-1	2555	0.07	2058	2785	8	56579	
12.5792	1.1983	-1.61958	43	-86	1550	150	0.123596	-0.0801071	-0.137086	0.00248661	-0.00161089	-0.00273811	-0.0130445	-0.0353395	-0.380424	9.57102e-05	1.37743e-05	0.00186286	0	0	0	0	0	0	-0.011112	-0.033336	-0.353	0	0	0	0.231954	-0.148916	2.57249	0.123692	-0.0800933	-0.135224	-0.0353902	0.0960141	-0.0958779	-0.0354405	-0.138131	-0	0.305397	-0.0485796	3.48402	0.0289725	-0.00767945	0	1.21719	0.938131	-1080	1080	-600	1700	-10	10	-10	-0	0	-0	250	-1.2	0.2	177	-1.2	-1	2555	0.07	2058	2785	8	56579	
12.5891	1.1983	-1.61858	43	-86	1600	200	0.123478	-0.0801121	-0.138906	0.00371621	-0.00240865	-0.00412133	-0.0130444	-0.0353396	-0.381423	0.00022397	-4.87117e-06	0.0037058	0	0	0	0	0	0	-0.011112	-0.033336	-0.354	0	0	0	0.239436	-0.153719	2.4445	0.123702	-0.080117	-0.1352	-0.0354004	0.0960425	-0.0959062	-0.0354507	-0.138087	-0	0.306631	-0.0486004	3.4813	0.0287979	-0.00767945	0	1.2172	0.938132	-1080	1080	-600	1700	-10	10	-10	-0	0	-0	250	-1.2	0.2	177	-1.2	-1	2555	0.07	2058	2785	8	56579	
12.5993	1.1983	-1.61858	43	-86	1650	250	0.123141	-0.0800798	-0.143359	0.00496264	-0.00321922	-0.0055724	-0.0130438	-0.0353398	-0.381416	0.00053876	-3.48621e-05	0.00813688	0	0	0	0	0	0	-0.011112	-0.033336	-0.354	0	0	0	0.246918	-0.158523	2.31652	0.12368	-0.0801147	-0.135222	-0.0353987	0.0960428	-0.0959066	-0.035449	-0.138087	-0	0.307863	-0.0486208	3.47865	0.0286234	-0.00767945	0	1.21721	0.938138	-1080	1080	-600	1700	-10	10	-10	-0	0	-0	250	-1.2	0.2	177	-1.2	-1	2555	0.07	2058	2785	8	56579	
12.6091	1.1983	-1.61861	44	-86	1700	300	0.12268	-0.080026	-0.149325	0.0061757	-0.00401051	-0.00704893	-0.0130421	-0.0353408	-0.381395	0.00100316	-8.2128e-05	0.0141025	0	0	0	0	0	0	-0.011112	-0.033336	-0.354	0	0	0	0.252504	-0.163327	2.18853	0.123683	-0.0801081	-0.135222	-0.0353936	0.0960441	-0.0959078	-0.0354439	-0.138088	-0	0.308177	-0.0486703	3.47221	0.0286234	-0.00767945	0	1.21726	0.938155	-1080	1080	-600	1700	-10	10	-10	-0	0	-0	250	-1.2	0.2	177	-1.2	-1	2555	0.07	2058	2785	8	56579	
12.6191	1.1983	-1.61865	45	-86	1750	350	0.122055	-0.0799465	-0.156778	0.00738564	-0.00480302	-0.00860306	-0.0130382	-0.0353429	-0.381348	0.00163611	-0.000146428	0.0215534	0	0	0	0	0	0	-0.011112	-0.033336	-0.354	0	0	0	0.257979	-0.168131	2.06055	0.123691	-0.0800929	-0.135224	-0.0353819	0.0960469	-0.0959106	-0.0354322	-0.13809	-0	0.308596	-0.0487365	3.46358	0.0286234	-0.00767945	0	1.21738	0.938196	-1080	1080	-600	1700	-10	10	-10	-0	0	-0	250	-1.2	0.2	177	-1.2	-1	2555	0.07	2058	2785	8	56579	
12.6291	1.1983	-1.61874	45	-86	1800	400	0.121243	-0.0798074	-0.165461	0.00860025	-0.00560253	-0.0102606	-0.0130308	-0.0353471	-0.381264	0.0024399	-0.000233177	0.0301977	0	0	0	0	0	0	-0.011112	-0.033336	-0.354	0	0	0	0.265349	-0.172934	1.93256	0.123683	-0.0800405	-0.135263	-0.0353597	0.0960524	-0.0959161	-0.03541	-0.138094	-0	0.310228	-0.0499287	3.45281	0.0284489	-0.00785398	0	1.2176	0.938273	-1080	1080	-600	1700	-10	10	-10	-0	0	-0	250	-1.2	0.2	177	-1.2	-1	2555	0.07	2058	2785	8	56579	
12.6392	1.1983	-1.61987	47	-85	1850	450	0.120219	-0.0795311	-0.175388	0.00981675	-0.00640731	-0.0120354	-0.0130183	-0.0353545	-0.380125	0.00343732	-0.000346891	0.0400052	0	0	0	0	0	0	-0.011112	-0.033336	-0.353	0	0	0	0.268593	-0.175672	1.80458	0.123656	-0.079878	-0.135383	-0.0353115	0.0960336	-0.0958973	-0.0353616	-0.138145	-0	0.313061	-0.0522506	3.44027	0.0280998	-0.00820305	0	1.21798	0.938404	-1080	1080	-600	1700	-10	10	-10	-0	0	-0	250	-1.2	0.2	177	-1.2	-1	2555	0.07	2058	2785	8	56579	
12.6492	1.1983	-1.62009	48	-85	1900	500	0.11908	-0.0792401	-0.186331	0.0110067	-0.00719916	-0.0138974	-0.0129984	-0.0353663	-0.379912	0.0046372	-0.000473781	0.0509066	0	0	0	0	0	0	-0.011112	-0.033336	-0.353	0	0	0	0.273732	-0.18042	1.67659	0.123717	-0.0797139	-0.135425	-0.0352513	0.0960489	-0.0959126	-0.0353014	-0.138154	-0	0.314878	-0.0534824	3.42593	0.0279253	-0.00837758	0	1.21859	0.938612	-1080	1080	-600	1700	-10	10	-10	-0	0	-0	250	-1.2	0.2	177	-1.2	-1	2555	0.07	2058	2785	8	56579	
12.6593	1.1983	-1.6204	49	-85	1950	550	0.117744	-0.078984	-0.198227	0.0121919	-0.00799421	-0.0158928	-0.0129685	-0.0353842	-0.379603	0.00603543	-0.000613584	0.0627916	0	0	0	0	0	0	-0.011112	-0.033336	-0.353	0	0	0	0.27876	-0.185168	1.54861	0.12378	-0.0795975	-0.135436	-0.035161	0.0960722	-0.0959357	-0.035211	-0.138168	-0	0.315658	-0.0536148	3.41013	0.0279253	-0.00837758	0	1.21949	0.938925	-1080	1080	-600	1700	-10	10	-10	-0	0	-0	250	-1.2	0.2	177	-1.2	-1	2555	0.07	2058	2785	8	56579	
12.6692	1.19829	-1.61982	51	-85	2000	600	0.116267	-0.0786274	-0.210802	0.013343	-0.00877262	-0.0179797	-0.0129262	-0.0354098	-0.380179	0.00765439	-0.00076636	0.0753766	0	0	0	0	0	0	-0.011112	-0.033336	-0.354	0	0	0	0.281445	-0.189916	1.42063	0.123922	-0.0793937	-0.135425	-0.0350433	0.0961338	-0.0959972	-0.0350932	-0.138142	-0	0.317623	-0.0537587	3.39296	0.0277507	-0.00837758	0	1.22078	0.939368	-1080	1080	-600	1700	-10	10	-10	-0	0	-0	250	-1.2	0.2	177	-1.2	-1	2555	0.07	2058	2785	8	56579	
12.6792	1.19849	-1.61639	33	-42	2050	650	0.132931	-0.0392302	-0.223166	0.0146716	-0.00916473	-0.0202102	-0.00175582	-0.0354456	-0.383612	0.00954022	-0.000932626	0.0886702	0	0	0	0	0	0	0	-0.033336	-0.358	0	0	0	0.329642	-0.0962035	1.29264	0.142471	-0.0401629	-0.134495	-0.00506175	0.102313	-0.102184	-0.00506813	-0.137983	-0	0.321887	-0.0539108	3.3748	0.0272271	-0.00837758	0	1.5213	0.998775	-1080	1080	-600	1700	-10	10	-10	-0	0	-0	250	-1.2	0.2	177	-1.2	-1	2555	0.07	2058	2786	8	56579	
12.6892	1.19848	-1.61111	35	-41	2100	700	0.131043	-0.0386776	-0.236697	0.0159903	-0.00955394	-0.0225921	-0.00167851	-0.0354932	-0.388886	0.0116712	-0.00111766	0.102351	0	0	0	0	0	0	0	-0.033336	-0.364	0	0	0	0.332998	-0.0962038	1.16466	0.142714	-0.0397953	-0.134346	-0.00484039	0.102483	-0.102353	-0.00484651	-0.137747	-0	0.32728	-0.0540603	3.35695	0.026529	-0.00837758	0	1.52354	0.998884	-1080	1080	-600	1700	-10	10	-10	-0	0	-0	250	-1.2	0.2	177	-1.2	-1	2555	0.07	2058	2786	8	56579	
12.6994	1.19848	-1.61203	37	-41	2150	750	0.128865	-0.0385046	-0.250897	0.0173033	-0.00994626	-0.0251485	-0.00157738	-0.035556	-0.387967	0.0139315	-0.000872484	0.116515	0	0	0	0	0	0	0	-0.033336	-0.364	0	0	0	0.336131	-0.0984943	1.03667	0.142797	-0.0393771	-0.134382	-0.00454009	0.102469	-0.102339	-0.00454585	-0.137788	-0	0.328271	-0.054224	3.33741	0.026529	-0.00837758	0	1.52646	0.999017	-1080	1080	-600	1700	-10	10	-10	-0	0	-0	250	-1.2	0.2	177	-1.2	-1	2555	0.07	2058	2786	8	56579	
12.7091	1.19847	-1.60517	40	-41	2200	800	0.126442	-0.0381388	-0.265274	0.0185346	-0.0103177	-0.0277318	-0.00144685	-0.0356348	-0.394827	0.016632	-0.000553839	0.130988	0	0	0	0	0	0	0	-0.033336	-0.372	0	0	0	0.336586	-0.100785	0.908689	0.143074	-0.0386927	-0.134286	-0.00416424	0.102693	-0.102562	-0.00416954	-0.137479	-0	0.339497	-0.0555291	3.3169	0.0249582	-0.00855211	0	1.53022	0.999177	-1080	1080	-600	1700	-10	10	-10	-0	0	-0	250	-1.2	0.2	177	-1.2	-1	2555	0.07	2058	2786	8	56579	
12.7191	1.19847	-1.60157	43	-40	2250	850	0.123393	-0.0376602	-0.28016	0.019761	-0.010692	-0.0305163	-0.00128077	-0.0357323	-0.398432	0.01976	-0.000138994	0.145705	0	0	0	0	0	0	0	-0.033336	-0.377	0	0	0	0.336707	-0.100562	0.780705	0.143153	-0.0377992	-0.134456	-0.00368074	0.10282	-0.102689	-0.00368545	-0.137316	-0	0.356476	-0.0557066	3.29614	0.0225147	-0.00855211	0	1.53497	0.999358	-1080	1080	-600	1700	-10	10	-10	-0	0	-0	250	-1.2	0.2	177	-1.2	-1	2555	0.07	2058	2786	8	56579	
12.7291	1.19846	-1.59419	46	-40	2300	900	0.120198	-0.0370545	-0.294478	0.0209668	-0.0110637	-0.0334705	-0.00107872	-0.0358478	-0.405806	0.0231857	0.000321657	0.159973	0	0	0	0	0	0	0	-0.033336	-0.386	0	0	0	0.336492	-0.102796	0.65272	0.143384	-0.0367328	-0.134506	-0.00309737	0.103064	-0.102931	-0.00310136	-0.136981	-0	0.375874	-0.0570311	3.27464	0.0197222	-0.00872665	0	1.54071	0.999548	-1080	1080	-600	1700	-10	10	-10	-0	0	-0	250	-1.2	0.2	177	-1.2	-1	2555	0.07	2058	2786	8	56579	
12.7391	1.19845	-1.59613	50	-39	2350	950	0.117108	-0.0365346	-0.308954	0.0221356	-0.0114283	-0.0365538	-0.000829003	-0.0359872	-0.403871	0.0264613	0.000817329	0.174373	0	0	0	0	0	0	0	-0.033336	-0.386	0	0	0	0.33332	-0.102406	0.524736	0.143569	-0.0357173	-0.134582	-0.0023702	0.103024	-0.102891	-0.00237328	-0.13707	-0	0.377064	-0.0572116	3.25395	0.0197222	-0.00872665	0	1.54776	0.999735	-1080	1080	-600	1700	-10	10	-10	-0	0	-0	250	-1.2	0.2	177	-1.2	-1	2555	0.07	2058	2786	8	56579	
12.7492	1.19843	-1.58939	54	-38	2400	1000	0.113131	-0.0358571	-0.323252	0.0232773	-0.0117902	-0.0398161	-0.00052534	-0.0361528	-0.410605	0.0306389	0.00154592	0.188519	0	0	0	0	0	0	0	-0.033336	-0.395	0	0	0	0.329701	-0.101903	0.396751	0.14377	-0.0343112	-0.134733	-0.00149831	0.103246	-0.103111	-0.00150027	-0.136763	-0	0.401184	-0.0539506	3.23303	0.0162316	-0.00820305	0	1.55627	0.999894	-1080	1080	-600	1700	-10	10	-10	-0	0	-0	250	-1.2	0.2	177	-1.2	-1	2555	0.07	2058	2786	8	56579	
12.7591	1.19841	-1.584	59	-38	2450	1050	0.109001	-0.035118	-0.337096	0.0243531	-0.0121368	-0.0431432	-0.000162601	-0.0363464	-0.416002	0.0350116	0.00238432	0.202229	0	0	0	0	0	0	0	-0.033336	-0.403	0	0	0	0.3229	-0.104026	0.268767	0.144012	-0.0327337	-0.134867	-0.000462054	0.10342	-0.103283	-0.000462665	-0.136515	-0	0.421982	-0.0495142	3.21237	0.0132645	-0.00750492	0	1.56632	0.99999	-1080	1080	-600	1700	-10	10	-10	-0	0	-0	250	-1.2	0.2	177	-1.2	-1	2555	0.07	2058	2786	8	56579	
12.7691	1.19839	-1.57199	63	-37	2500	1100	0.104747	-0.0341629	-0.350275	0.0254097	-0.0124814	-0.0466765	0.000269704	-0.0365727	-0.428012	0.039768	0.00323135	0.215521	0	0	0	0	0	0	0	-0.033336	-0.418	0	0	0	0.31833	-0.103356	0.140783	0.144515	-0.0309315	-0.134754	0.000764329	0.103784	-0.103646	0.000765353	-0.13596	-0	0.44516	-0.0473545	3.19236	0.00994838	-0.00715585	0	1.57817	0.999973	-1080	1080	-600	1700	-10	10	-10	-0	0	-0	250	-1.2	0.2	177	-1.2	-1	2555	0.07	2058	2786	8	56579	
12.7799	1.19837	-1.57533	67	-35	2550	1150	0.100782	-0.0329085	-0.362954	0.0264975	-0.0128366	-0.0505942	0.000771951	-0.0368307	-0.424672	0.0440133	0.0039564	0.228061	0	0	0	0	0	0	0	-0.033336	-0.418	0	0	0	0.313313	-0.0997249	0.0127984	0.144795	-0.0289521	-0.134893	0.00216978	0.103663	-0.103523	0.00217273	-0.136116	-0	0.446442	-0.0474909	3.1733	0.00994838	-0.00715585	0	1.59175	0.99978	-1080	1080	-600	1700	-10	10	-10	-0	0	-0	250	-1.2	0.2	177	-1.2	-1	2555	0.07	2058	2786	8	56579	
12.789	1.19834	-1.56712	72	-33	2600	1200	0.096058	-0.0313445	-0.374846	0.0273718	-0.0131219	-0.0540057	0.00136257	-0.0371294	-0.432881	0.0491967	0.00489078	0.239934	0	0	0	0	0	0	0	-0.033336	-0.43	0	0	0	0.304946	-0.0958704	-0.115186	0.145255	-0.0264537	-0.134912	0.00380644	0.103867	-0.103724	0.0038117	-0.135735	-0	0.467375	-0.0464607	3.15495	0.00698132	-0.00698132	0	1.60748	0.999327	-1080	1080	-600	1700	-10	10	-10	-0	0	-0	250	-1.2	0.2	177	-1.2	-1	2555	0.07	2058	2786	8	56579	
12.7992	1.19831	-1.55352	78	-31	2650	1250	0.0911066	-0.0294551	-0.386359	0.0283	-0.013422	-0.0579419	0.00206975	-0.0374826	-0.44648	0.0548341	0.00587942	0.251654	0	0	0	0	0	0	0	-0.033336	-0.448	0	0	0	0.293061	-0.0917923	-0.24317	0.145941	-0.0235757	-0.134705	0.00574544	0.104195	-0.104048	0.00575354	-0.135097	-0	0.489491	-0.0465808	3.13774	0.00383972	-0.00698132	0	1.62596	0.998479	-1080	1080	-600	1700	-10	10	-10	-0	0	-0	250	-1.2	0.2	177	-1.2	-1	2555	0.07	2058	2786	8	56579	
12.8093	1.19827	-1.53994	83	-29	2700	1300	0.0865167	-0.0275475	-0.394929	0.0291699	-0.013699	-0.0619129	0.0028178	-0.0378486	-0.460063	0.060137	0.00693229	0.260513	0	0	0	0	0	0	0	-0.033336	-0.466	0	0	0	0.283519	-0.0874908	-0.371155	0.146654	-0.0206152	-0.134416	0.00776745	0.104483	-0.104332	0.00777866	-0.134452	-0	0.508177	-0.0455298	3.12107	0.00122173	-0.00680678	0	1.64511	0.99724	-1080	1080	-600	1700	-10	10	-10	-0	0	-0	250	-1.2	0.2	177	-1.2	-1	2555	0.07	2058	2786	8	56579	
12.8191	1.19822	-1.54509	88	-27	2750	1350	0.0817096	-0.0251968	-0.404196	0.0299706	-0.0139459	-0.065874	0.00371419	-0.0382834	-0.454907	0.0651668	0.00790085	0.269555	0	0	0	0	0	0	0	-0.033336	-0.466	0	0	0	0.273417	-0.0829657	-0.499139	0.146876	-0.017296	-0.134641	0.0100871	0.104126	-0.103972	0.0101021	-0.134699	-0	0.509121	-0.0456144	3.10864	0.00122173	-0.00680678	0	1.66751	0.995327	-1080	1080	-600	1700	-10	10	-10	-0	0	-0	250	-1.2	0.2	177	-1.2	-1	2555	0.07	2058	2786	8	56579	
12.8291	1.19817	-1.52268	93	-24	2800	1400	0.0771663	-0.0226867	-0.410874	0.0307421	-0.0141727	-0.0699815	0.00472349	-0.0387667	-0.477317	0.0708312	0.00916015	0.277031	0	0	0	0	0	0	0	-0.033336	-0.494	0	0	0	0.262756	-0.0750885	-0.627123	0.147998	-0.0135266	-0.133842	0.0127173	0.104533	-0.104373	0.0127367	-0.133623	-0	0.524164	-0.043362	3.0952	-0.000872665	-0.00645772	0	1.69204	0.992659	-1080	1080	-600	1700	-10	10	-10	-0	0	-0	250	-1.2	0.2	177	-1.2	-1	2555	0.07	2058	2786	8	56579	
12.8392	1.1978	-1.49466	100	20	2804	1450	0.0705787	0.0189928	-0.415287	0.0314544	-0.013981	-0.074173	0.0169574	-0.0392973	-0.505345	0.0763974	0.0103445	0.282859	0	0	0	0	0	0	0.011112	-0.033336	-0.528	0	0	0	0.241212	0.0626635	-0.637362	0.146976	0.0293373	-0.132429	0.0419929	0.0974933	-0.0973148	0.04207	-0.132256	-0	0.535452	-0.0434247	3.08548	-0.00244346	-0.00645772	0	1.97817	0.918163	-1080	1080	-600	1700	-10	10	-10	-0	0	-0	250	-1.2	0.2	177	-1.2	-1	2555	0.07	2060	2786	8	56579	
12.8493	1.19769	-1.46632	106	23	2806	1500	0.0648479	0.0217418	-0.418605	0.0321082	-0.0137618	-0.0783934	0.0183378	-0.0398814	-0.533676	0.0822892	0.0115581	0.287297	0	0	0	0	0	0	0.011112	-0.033336	-0.562	0	0	0	0.222581	0.0721141	-0.642481	0.147137	0.0332999	-0.131308	0.044643	0.0972779	-0.0970905	0.0447291	-0.130831	-0	0.551188	-0.0446412	3.07903	-0.00471239	-0.00663225	0	2.00178	0.908557	-1080	1080	-600	1700	-10	10	-10	-0	0	-0	250	-1.2	0.2	177	-1.2	-1	2555	0.07	2060	2786	8	56579	
12.8592	1.1975	-1.47226	115	25	2809	1519	0.0566224	0.0240474	-0.422282	0.03267	-0.0135232	-0.0825829	0.0204622	-0.0407489	-0.527738	0.0890496	0.0142603	0.290706	0	0	0	0	0	0	0.011112	-0.033336	-0.562	0	0	0	0.194582	0.0784685	-0.65016	0.145672	0.0383077	-0.131576	0.0478665	0.0955209	-0.0953223	0.0479662	-0.131139	-0	0.551588	-0.0446735	3.07415	-0.00471239	-0.00663225	0	2.03617	0.893656	-1080	1080	-600	1700	-10	10	-10	-0	0	-0	250	-1.2	0.2	177	-1.2	-1	2555	0.07	2060	2786	8	56579	
12.8692	1.19746	-1.41517	113	26	2787	1516	0.0584421	0.02431	-0.385412	0.0332557	-0.0132796	-0.0864455	0.0207993	-0.0410136	-0.584828	0.0891656	0.0154335	0.256445	0	0	0	0	0	0	0.011112	-0.033336	-0.613	0	0	0	0.199284	0.080968	-0.593847	0.147608	0.0397435	-0.128967	0.0490517	0.0969286	-0.0967237	0.0491557	-0.128168	-0	0.568445	-0.0447093	3.06876	-0.00715585	-0.00663225	0	2.04013	0.891868	-1080	1080	-600	1700	-10	10	-10	-0	0	-0	250	-1.2	0.2	177	-1.2	-1	2555	0.07	2060	2786	8	56579	
12.8792	1.19745	-1.37008	110	25	2766	1510	0.0609542	0.023944	-0.350765	0.0338639	-0.0130407	-0.0899454	0.0211188	-0.0409355	-0.629922	0.0880787	0.0173981	0.223958	0	0	0	0	0	0	0.011112	-0.033336	-0.652	0	0	0	0.207051	0.0772673	-0.540094	0.149033	0.0413421	-0.126807	0.0503757	0.0978531	-0.0976454	0.0504828	-0.125714	-0	0.57677	-0.0431905	3.12175	-0.00907571	-0.00645772	0	2.04709	0.888702	-1080	1080	-600	1700	-10	10	-10	-0	0	-0	250	-1.2	0.2	177	-1.2	-1	2555	0.07	2060	2786	8	56579	
12.8891	1.19737	-1.36722	112	25	2751	1496	0.0591051	0.0241313	-0.326364	0.0344534	-0.0128	-0.0932009	0.0221963	-0.0411917	-0.632777	0.0892971	0.0199395	0.199736	0	0	0	0	0	0	0.011112	-0.033336	-0.652	0	0	0	0.199783	0.0768483	-0.501699	0.148402	0.0440708	-0.126628	0.0521611	0.0970127	-0.0968003	0.0522756	-0.125558	-0	0.572475	-0.0428689	3.17155	-0.00907571	-0.00645772	0	2.06504	0.880327	-1080	1080	-600	1700	-10	10	-10	-0	0	-0	250	-1.2	0.2	177	-1.2	-1	2555	0.07	2060	2786	8	56579	
12.8991	1.19737	-1.30048	108	25	2731	1491	0.0628654	0.0239394	-0.292802	0.0350778	-0.0125622	-0.0961087	0.0224693	-0.0410284	-0.69952	0.0879045	0.021989	0.16968	0	0	0	0	0	0	0.011112	-0.033336	-0.712	0	0	0	0.210532	0.0762896	-0.450505	0.15077	0.0459284	-0.123122	0.0538379	0.0985222	-0.0983066	0.053956	-0.121735	-0	0.582081	-0.0403376	3.20661	-0.0109956	-0.00610865	0	2.07184	0.877084	-1080	1080	-600	1700	-10	10	-10	-0	0	-0	250	-1.2	0.2	177	-1.2	-1	2555	0.07	2060	2786	8	56579	
12.9092	1.19738	-1.23754	104	25	2712	1485	0.0668618	0.0236675	-0.26093	0.0357521	-0.0123235	-0.0987404	0.022715	-0.0408295	-0.762459	0.0861904	0.02403	0.141348	0	0	0	0	0	0	0.011112	-0.033336	-0.768	0	0	0	0.221183	0.0757588	-0.401871	0.153052	0.0476975	-0.119583	0.0554706	0.0999245	-0.0997064	0.055592	-0.117925	-0	0.586944	-0.0343225	3.25486	-0.0123918	-0.00523599	0	2.07849	0.873866	-1080	1080	-600	1700	-10	10	-10	-0	0	-0	250	-1.2	0.2	177	-1.2	-1	2555	0.07	2060	2786	8	56579	
12.919	1.19739	-1.1834	100	24	2694	1480	0.0708655	0.0232308	-0.231059	0.0364524	-0.012094	-0.101024	0.0229217	-0.0405856	-0.816596	0.0842507	0.0260485	0.114825	0	0	0	0	0	0	0.011112	-0.033336	-0.815	0	0	0	0.231749	0.0722459	-0.355796	0.155116	0.0492793	-0.116235	0.0569635	0.10108	-0.100861	0.0570875	-0.114482	-0	0.583973	-0.0272661	3.30069	-0.0125664	-0.00418879	0	2.08491	0.870728	-1080	1080	-600	1700	-10	10	-10	-0	0	-0	250	-1.2	0.2	177	-1.2	-1	2555	0.07	2060	2786	8	56579	
12.9291	1.19741	-1.17646	98	24	2679	1474	0.0726204	0.0224562	-0.206032	0.037181	-0.0118687	-0.103091	0.0231469	-0.0403176	-0.823536	0.0824542	0.0280196	0.090256	0	0	0	0	0	0	0.011112	-0.033336	-0.815	0	0	0	0.236443	0.0718436	-0.317401	0.155075	0.0504758	-0.115776	0.0577848	0.100868	-0.10065	0.05791	-0.114029	-0	0.580119	-0.0270861	3.34364	-0.0125664	-0.00418879	0	2.09197	0.867238	-1080	1080	-600	1700	-10	10	-10	-0	0	-0	250	-1.2	0.2	177	-1.2	-1	2555	0.07	2060	2786	8	56579	
12.9391	1.19743	-1.09824	92	23	2662	1468	0.0776344	0.0222641	-0.177908	0.0379601	-0.0116452	-0.104876	0.0233154	-0.0399971	-0.901756	0.0805989	0.0300361	0.0673326	0	0	0	0	0	0	0.011112	-0.033336	-0.886	0	0	0	0.252778	0.0684133	-0.273886	0.158233	0.0523002	-0.110575	0.0597096	0.102651	-0.102431	0.0598379	-0.108743	-0	0.575773	-0.0168347	3.37963	-0.0123918	-0.00261799	0	2.09857	0.863932	-1080	1080	-600	1700	-10	10	-10	-0	0	-0	250	-1.2	0.2	177	-1.2	-1	2555	0.07	2060	2786	8	56579	
12.9491	1.19745	-1.04996	88	23	2647	1462	0.0813705	0.0216744	-0.15321	0.0387759	-0.0114279	-0.106412	0.0234805	-0.0396515	-0.950038	0.0787956	0.031968	0.0461148	0	0	0	0	0	0	0.011112	-0.033336	-0.927	0	0	0	0.263176	0.0680278	-0.235491	0.160166	0.0536424	-0.107095	0.0611958	0.103561	-0.103341	0.061326	-0.105309	-0	0.565486	-0.00446101	3.42008	-0.0113446	-0.000698132	0	2.10544	0.86045	-1080	1080	-600	1700	-10	10	-10	-0	0	-0	250	-1.2	0.2	177	-1.2	-1	2555	0.07	2060	2786	8	56579	
12.9592	1.19748	-0.973486	83	23	2632	1456	0.0861571	0.0215269	-0.127935	0.0396453	-0.0112107	-0.107703	0.0236185	-0.0392645	-1.02651	0.0771322	0.0338533	0.0265953	0	0	0	0	0	0	0.011112	-0.033336	-0.996	0	0	0	0.276378	0.0676423	-0.197096	0.163289	0.0553802	-0.101339	0.0631486	0.105202	-0.104981	0.0632815	-0.0995944	-0	0.555714	0.00665431	3.4556	-0.0102974	0.0010472	0	2.11233	0.856917	-1080	1080	-600	1700	-10	10	-10	-0	0	-0	250	-1.2	0.2	177	-1.2	-1	2555	0.07	2060	2786	8	56579	
12.9691	1.19752	-0.966218	81	22	2621	1451	0.0877487	0.020619	-0.109505	0.0405118	-0.0110071	-0.108784	0.0236872	-0.038842	-1.03378	0.0755106	0.0358623	0.00872641	0	0	0	0	0	0	0.011112	-0.033336	-0.996	0	0	0	0.281076	0.064431	-0.168939	0.163259	0.0564813	-0.100778	0.063905	0.105008	-0.104791	0.0640376	-0.0990326	-0	0.552534	0.00661623	3.49196	-0.0102974	0.0010472	0	2.11842	0.853767	-1080	1080	-600	1700	-10	10	-10	-0	0	-0	250	-1.2	0.2	177	-1.2	-1	2555	0.07	2060	2786	8	56579	
12.9792	1.19757	-0.915232	78	21	2610	1440	0.0910531	0.0197587	-0.0901821	0.0414298	-0.0108079	-0.109694	0.0238774	-0.0380943	-1.08477	0.0739639	0.0387981	-0.00646396	0	0	0	0	0	0	0.011112	-0.033336	-1.04	0	0	0	0.288637	0.0612443	-0.140783	0.165017	0.0585569	-0.096646	0.0660251	0.105551	-0.105337	0.0661589	-0.0950095	-0	0.541464	0.0175692	3.51847	-0.00890118	0.00279253	0	2.13069	0.847313	-1080	1080	-600	1700	-10	10	-10	-0	0	-0	250	-1.2	0.2	177	-1.2	-1	2555	0.07	2060	2786	8	56579	
12.9893	1.1976	-0.847876	73	20	2598	1439	0.0952386	0.0194878	-0.0700148	0.0423904	-0.0106113	-0.1104	0.0237924	-0.0378629	-1.15212	0.0727354	0.0396029	-0.0210513	0	0	0	0	0	0	0.011112	-0.033336	-1.1	0	0	0	0.301811	0.0580598	-0.110067	0.167974	0.0590907	-0.0910661	0.0672301	0.107203	-0.106989	0.0673648	-0.0894592	-0	0.535804	0.0207713	3.54627	-0.00837758	0.00331613	0	2.13183	0.846708	-1080	1080	-600	1700	-10	10	-10	-0	0	-0	250	-1.2	0.2	177	-1.2	-1	2555	0.07	2060	2786	8	56579	
12.9992	1.19763	-0.8056	70	20	2588	1438	0.098237	0.018721	-0.0533116	0.0433663	-0.0104253	-0.11093	0.0237014	-0.0376236	-1.1944	0.0716677	0.040309	-0.0341403	0	0	0	0	0	0	0.011112	-0.033336	-1.135	0	0	0	0.309316	0.0578364	-0.0844697	0.169905	0.05903	-0.0874519	0.0680167	0.108184	-0.10797	0.0681514	-0.085837	-0	0.531153	0.0261158	3.57529	-0.00802851	0.00418879	0	2.13296	0.846106	-1080	1080	-600	1700	-10	10	-10	-0	0	-0	250	-1.2	0.2	177	-1.2	-1	2555	0.07	2060	2786	8	56579	
13.0092	1.19766	-0.753354	66	19	2578	1437	0.101515	0.0180002	-0.0372022	0.0443845	-0.0102448	-0.111303	0.0235826	-0.0373602	-1.24665	0.0706813	0.0410168	-0.0456566	0	0	0	0	0	0	0.011112	-0.033336	-1.18	0	0	0	0.31963	0.0547323	-0.0588728	0.172196	0.059017	-0.0828588	0.0689163	0.109393	-0.109179	0.0690511	-0.0812135	-0	0.526945	0.0336028	3.59933	-0.00767945	0.00541052	0	2.13386	0.845625	-1080	1080	-600	1700	-10	10	-10	-0	0	-0	250	-1.2	0.2	177	-1.2	-1	2555	0.07	2060	2786	8	56579	
13.019	1.19769	-0.746416	65	18	2572	1436	0.102938	0.0171008	-0.0266961	0.0453937	-0.0100771	-0.111564	0.0234338	-0.037063	-1.25358	0.0694807	0.0421368	-0.0555386	0	0	0	0	0	0	0.011112	-0.033336	-1.18	0	0	0	0.321757	0.051731	-0.0435147	0.172419	0.0592376	-0.0822347	0.0691037	0.109505	-0.109295	0.0692369	-0.0805865	-0	0.524978	0.0334774	3.62251	-0.00767945	0.00541052	0	2.13461	0.845225	-1080	1080	-600	1700	-10	10	-10	-0	0	-0	250	-1.2	0.2	177	-1.2	-1	2555	0.07	2060	2786	8	56579	
13.0291	1.19773	-0.714593	63	17	2565	1435	0.105091	0.0160365	-0.0152881	0.0464483	-0.00991621	-0.111718	0.0233252	-0.0367639	-1.28541	0.0687863	0.0429167	-0.0640287	0	0	0	0	0	0	0.011112	-0.033336	-1.205	0	0	0	0.326607	0.0487242	-0.0255969	0.173877	0.0589532	-0.0793168	0.0697496	0.110144	-0.109936	0.0698821	-0.0776778	-0	0.520475	0.0409364	3.63764	-0.00715585	0.00663225	0	2.13617	0.844389	-1080	1080	-600	1700	-10	10	-10	-0	0	-0	250	-1.2	0.2	177	-1.2	-1	2555	0.07	2060	2786	8	56579	
13.0391	1.19776	-0.672938	60	15	2558	1434	0.107715	0.0148149	-0.00444558	0.0475233	-0.00976835	-0.111762	0.0231703	-0.0364295	-1.32706	0.0680956	0.0435296	-0.070964	0	0	0	0	0	0	0.011112	-0.033336	-1.24	0	0	0	0.334279	0.0428747	-0.00767906	0.17581	0.0583445	-0.0754096	0.0704782	0.111016	-0.110809	0.0706098	-0.0737815	-0	0.516949	0.045125	3.65406	-0.00680678	0.00733038	0	2.13729	0.843789	-1080	1080	-600	1700	-10	10	-10	-0	0	-0	250	-1.2	0.2	177	-1.2	-1	2555	0.07	2060	2786	8	56579	
13.0492	1.1978	-0.666607	59	14	2555	1432	0.108754	0.0139723	0.00165402	0.048627	-0.00962655	-0.111745	0.0230312	-0.0360809	-1.33339	0.0671903	0.0447367	-0.0764654	0	0	0	0	0	0	0.011112	-0.033336	-1.24	0	0	0	0.336739	0.0399695	0	0.175945	0.058709	-0.0748113	0.0707501	0.111041	-0.110838	0.07088	-0.0731797	-0	0.515638	0.0450106	3.66967	-0.00680678	0.00733038	0	2.13892	0.842913	-1080	1080	-600	1700	-10	10	-10	-0	0	-0	250	-1.2	0.2	177	-1.2	-1	2555	0.07	2060	2786	8	56579	
13.0592	1.19784	-0.638535	57	13	2551	1431	0.110522	0.0127188	0.00837446	0.0497277	-0.00949988	-0.111662	0.0228904	-0.0357251	-1.36147	0.0667028	0.0453751	-0.0805999	0	0	0	0	0	0	0.011112	-0.033336	-1.262	0	0	0	0.341905	0.0370564	0.0102387	0.177225	0.0580939	-0.0722255	0.0713361	0.111535	-0.111335	0.0714647	-0.070487	-0	0.515967	0.0524371	3.67845	-0.00698132	0.00855211	0	2.14063	0.84199	-1080	1080	-600	1700	-10	10	-10	-0	0	-0	250	-1.2	0.2	177	-1.2	-1	2555	0.07	2060	2786	8	56579	
13.0692	1.19788	-0.608658	55	12	2547	1428	0.112163	0.0114176	0.0139127	0.0508535	-0.00938528	-0.111522	0.022778	-0.0353394	-1.39134	0.066367	0.0460266	-0.0833919	0	0	0	0	0	0	0.011112	-0.033336	-1.286	0	0	0	0.347053	0.0341523	0.0204775	0.17853	0.0574443	-0.0694792	0.0720477	0.111978	-0.11178	0.0721753	-0.0675726	-0	0.518346	0.0598333	3.68813	-0.00750492	0.00977384	0	2.14333	0.840531	-1080	1080	-600	1700	-10	10	-10	-0	0	-0	250	-1.2	0.2	177	-1.2	-1	2555	0.07	2060	2786	8	56579	
13.079	1.19689	-0.592115	105	62	2546	1378	0.0623111	0.0903927	0.0163299	0.0514632	-0.00850079	-0.111363	0.0450136	-0.0237633	-1.40788	0.0662011	0.0467349	-0.0847449	0	0	0	0	0	0	0.033336	-0.022224	-1.297	0	0	0	0.204801	0.176364	0.0230372	0.128512	0.137128	-0.068415	0.117913	0.0624096	-0.0622479	0.118219	-0.0659623	-0	0.518734	0.0650904	3.69611	-0.00767945	0.0106465	0	2.65586	0.466853	-1080	1080	-600	1700	-10	10	-10	-0	0	-0	250	-1.2	0.2	177	-1.2	-1	2555	0.07	2061	2787	8	56579	
13.0891	1.19692	-0.587014	109	97	2546	1328	0.0617667	0.0902693	0.016714	0.0520905	-0.00758411	-0.111193	0.0450181	-0.0232933	-1.41299	0.0657301	0.0480511	-0.084626	0	0	0	0	0	0	0.033336	-0.022224	-1.297	0	0	0	0.193426	0.275875	0.0230372	0.127497	0.13832	-0.067912	0.118534	0.0614898	-0.0613318	0.118839	-0.0654545	-0	0.518439	0.0650533	3.69959	-0.00767945	0.0106465	0	2.66411	0.459548	-1080	1080	-600	1700	-10	10	-10	-0	0	-0	250	-1.2	0.2	177	-1.2	-1	2555	0.07	2061	2787	8	56579	
13.0992	1.19695	-0.565388	106	96	2545	1278	0.0645029	0.0895994	0.0171002	0.0527374	-0.00668551	-0.111021	0.0449653	-0.0228249	-1.43461	0.0636319	0.0491261	-0.082954	0	0	0	0	0	0	0.033336	-0.022224	-1.314	0	0	0	0.201878	0.272925	0.0255969	0.128135	0.138726	-0.0658538	0.119472	0.0608001	-0.0606455	0.119777	-0.063288	-0	0.517329	0.0703789	3.70015	-0.00750492	0.0115192	0	2.67187	0.452635	-1080	1080	-600	1700	-10	10	-10	-0	0	-0	250	-1.2	0.2	177	-1.2	-1	2555	0.07	2061	2787	8	56579	
13.1092	1.19696	-0.54681	104	94	2546	1228	0.0669068	0.0877922	0.0165591	0.0534056	-0.00580873	-0.110856	0.0450919	-0.0223254	-1.45319	0.0616524	0.0514142	-0.0805444	0	0	0	0	0	0	0.033336	-0.022224	-1.328	0	0	0	0.207644	0.267348	0.0230372	0.128559	0.139206	-0.0639853	0.120463	0.0597938	-0.0596424	0.120769	-0.0614072	-0	0.515156	0.0725048	3.70071	-0.00715585	0.0118682	0	2.68187	0.443703	-1080	1080	-600	1700	-10	10	-10	-0	0	-0	250	-1.2	0.2	177	-1.2	-1	2555	0.07	2061	2787	8	56579	
13.1192	1.19698	-0.530818	101	92	2547	1178	0.0693149	0.0859785	0.0141099	0.0541013	-0.00494577	-0.110714	0.0451402	-0.0218068	-1.46918	0.059655	0.0535631	-0.0765191	0	0	0	0	0	0	0.033336	-0.022224	-1.34	0	0	0	0.216259	0.261765	0.0204775	0.12897	0.139542	-0.0624092	0.121368	0.0587792	-0.0586315	0.121673	-0.0597734	-0	0.514159	0.075713	3.69993	-0.00698132	0.0123918	0	2.69156	0.434991	-1080	1080	-600	1700	-10	10	-10	-0	0	-0	250	-1.2	0.2	177	-1.2	-1	2555	0.07	2061	2787	8	56579	
13.1291	1.19701	-0.527378	100	91	2550	1128	0.0703005	0.0845102	0.00915899	0.0547947	-0.00411216	-0.110624	0.0451535	-0.0212525	-1.47262	0.0573215	0.0564181	-0.0712222	0	0	0	0	0	0	0.033336	-0.022224	-1.34	0	0	0	0.219362	0.259227	0.0127984	0.127622	0.140928	-0.0620632	0.122026	0.0575779	-0.0574345	0.122331	-0.0594197	-0	0.514456	0.0757567	3.69641	-0.00698132	0.0123918	0	2.70168	0.42586	-1080	1080	-600	1700	-10	10	-10	-0	0	-0	250	-1.2	0.2	177	-1.2	-1	2555	0.07	2061	2787	8	56579	
13.1391	1.19706	-0.516805	99	88	2554	1078	0.0716629	0.0822073	0.00240875	0.055517	-0.00328359	-0.1106	0.0451747	-0.0203011	-1.48319	0.0552594	0.059778	-0.0634898	0	0	0	0	0	0	0.033336	-0.022224	-1.348	0	0	0	0.222558	0.251078	0.00255969	0.126922	0.141985	-0.061081	0.123235	0.0555168	-0.0553806	0.123538	-0.0583297	-0	0.515055	0.0801177	3.68928	-0.00698132	0.01309	0	2.71925	0.409902	-1080	1080	-600	1700	-10	10	-10	-0	0	-0	250	-1.2	0.2	177	-1.2	-1	2555	0.07	2061	2787	8	56579	
13.1491	1.19706	-0.506928	97	87	2558	1028	0.0733368	0.0805814	-0.00321248	0.0562493	-0.00247891	-0.110632	0.0452249	-0.0200902	-1.49307	0.0545889	0.0609165	-0.0568986	0	0	0	0	0	0	0.033336	-0.022224	-1.355	0	0	0	0.22862	0.248615	-0.00767906	0.127926	0.141498	-0.0601111	0.123672	0.0550733	-0.0549384	0.123975	-0.0573072	-0	0.514807	0.0834545	3.67956	-0.00680678	0.0136136	0	2.72355	0.405973	-1080	1080	-600	1700	-10	10	-10	-0	0	-0	250	-1.2	0.2	177	-1.2	-1	2555	0.07	2061	2787	8	56579	
13.1591	1.19706	-0.495351	95	85	2561	978	0.0748997	0.078968	-0.00854129	0.0569947	-0.00169302	-0.110717	0.0453067	-0.0198922	-1.50465	0.0542554	0.0618971	-0.0504163	0	0	0	0	0	0	0.033336	-0.022224	-1.364	0	0	0	0.234608	0.243187	-0.0153581	0.129155	0.140865	-0.0589576	0.124139	0.0546378	-0.054504	0.124443	-0.0561025	-0	0.514419	0.0867785	3.67147	-0.00663225	0.0141372	0	2.72788	0.402015	-1080	1080	-600	1700	-10	10	-10	-0	0	-0	250	-1.2	0.2	177	-1.2	-1	2555	0.07	2061	2787	8	56579	
13.1691	1.19704	-0.493082	95	84	2564	928	0.0745659	0.0779327	-0.0147515	0.0577422	-0.000911819	-0.110865	0.0455568	-0.0197083	-1.50692	0.0538663	0.0636877	-0.0439754	0	0	0	0	0	0	0.033336	-0.022224	-1.364	0	0	0	0.234883	0.240609	-0.0230372	0.128432	0.14162	-0.0587269	0.124476	0.0539825	-0.0538495	0.124783	-0.0558659	-0	0.515062	0.086887	3.6638	-0.00663225	0.0141372	0	2.73329	0.397048	-1080	1080	-600	1700	-10	10	-10	-0	0	-0	250	-1.2	0.2	177	-1.2	-1	2555	0.07	2061	2787	8	56579	
13.1793	1.19702	-0.479645	94	82	2567	878	0.0753985	0.0762162	-0.019082	0.0585086	-0.000137082	-0.111059	0.0458094	-0.0195285	-1.52036	0.0545186	0.0646085	-0.0382764	0	0	0	0	0	0	0.033336	-0.022224	-1.375	0	0	0	0.238024	0.235158	-0.0307162	0.129917	0.140825	-0.0573583	0.125022	0.0534293	-0.0532969	0.125333	-0.0544583	-0	0.507247	0.0966809	3.65485	-0.00523599	0.015708	0	2.73862	0.392152	-1080	1080	-600	1700	-10	10	-10	-0	0	-0	250	-1.2	0.2	177	-1.2	-1	2555	0.07	2061	2787	8	56579	
13.1891	1.19701	-0.47042	94	80	2570	828	0.0762387	0.0745632	-0.0232251	0.0592597	0.000597515	-0.111287	0.045996	-0.0193136	-1.52958	0.054882	0.0655507	-0.0331261	0	0	0	0	0	0	0.033336	-0.022224	-1.382	0	0	0	0.238302	0.229693	-0.0383953	0.131121	0.140114	-0.0563511	0.125487	0.0528231	-0.0526917	0.1258	-0.0534867	-0	0.495972	0.106456	3.64861	-0.00331613	0.0172788	0	2.74405	0.387153	-1080	1080	-600	1700	-10	10	-10	-0	0	-0	250	-1.2	0.2	177	-1.2	-1	2555	0.07	2061	2787	8	56579	
13.1992	1.19699	-0.4604	93	78	2572	778	0.0767114	0.0728042	-0.0268826	0.0600365	0.00133473	-0.11156	0.0462716	-0.019078	-1.5396	0.0556553	0.0665099	-0.0285309	0	0	0	0	0	0	0.033336	-0.022224	-1.39	0	0	0	0.24136	0.224127	-0.0435147	0.132367	0.139314	-0.0554135	0.126014	0.0520866	-0.0519562	0.126331	-0.0524269	-0	0.488942	0.119474	3.64264	-0.0020944	0.0193732	0	2.75052	0.381176	-1080	1080	-600	1700	-10	10	-10	-0	0	-0	250	-1.2	0.2	177	-1.2	-1	2555	0.07	2061	2787	8	56579	
13.2091	1.19698	-0.458565	94	77	2574	728	0.0761592	0.0720605	-0.0307998	0.0607882	0.00204597	-0.111864	0.0464948	-0.0188338	-1.54144	0.0553707	0.0681148	-0.0244341	0	0	0	0	0	0	0.033336	-0.022224	-1.39	0	0	0	0.238673	0.221427	-0.0486341	0.13153	0.140175	-0.0552339	0.126367	0.051317	-0.0511879	0.126686	-0.0522325	-0	0.48936	0.119576	3.63737	-0.0020944	0.0193732	0	2.75672	0.37544	-1080	1080	-600	1700	-10	10	-10	-0	0	-0	250	-1.2	0.2	177	-1.2	-1	2555	0.07	2061	2787	8	56579	
13.219	1.19697	-0.449607	93	76	2576	678	0.0766122	0.0705209	-0.0334501	0.0615486	0.00274596	-0.112196	0.0467135	-0.0185742	-1.55039	0.0559956	0.0689352	-0.0210214	0	0	0	0	0	0	0.033336	-0.022224	-1.397	0	0	0	0.241735	0.218722	-0.0537534	0.132608	0.139456	-0.0544715	0.12686	0.0505699	-0.0504421	0.127182	-0.0512802	-0	0.485508	0.132622	3.63172	-0.00139626	0.0214675	0	2.76314	0.369483	-1080	1080	-600	1700	-10	10	-10	-0	0	-0	250	-1.2	0.2	177	-1.2	-1	2555	0.07	2061	2787	8	56579	
13.2291	1.19696	-0.436912	92	74	2577	628	0.0774111	0.0692019	-0.035151	0.0623243	0.00343936	-0.112548	0.0468531	-0.0182935	-1.56309	0.056371	0.069647	-0.0179843	0	0	0	0	0	0	0.033336	-0.022224	-1.408	0	0	0	0.244707	0.213051	-0.0563131	0.133782	0.138849	-0.0531353	0.127404	0.0498702	-0.0497441	0.127727	-0.0499237	-0	0.478278	0.141334	3.6279	-0.000174533	0.0228638	0	2.76935	0.363703	-1080	1080	-600	1700	-10	10	-10	-0	0	-0	250	-1.2	0.2	177	-1.2	-1	2555	0.07	2061	2787	8	56579	
13.239	1.1912	-0.42129	95	76	2577	578	0.0752296	0.0705547	-0.0361687	0.0630759	0.0041442	-0.112909	0.0805362	-0.0291675	-1.57871	0.057053	0.0703136	-0.0153813	0	0	0	0	0	0	0.066672	-0.033336	-1.422	0	0	0	0.236074	0.218807	-0.0563131	0.132283	0.140868	-0.05155	0.128549	0.0469002	-0.0465561	0.129499	-0.0483537	-0	0.469859	0.146786	3.62544	0.00122173	0.0237365	0	2.79412	0.340522	-1080	1080	-600	1700	-10	10	-10	-0	0	-0	250	-1.2	0.2	177	-1.2	-1	2555	0.07	2065	2793	8	56579	
13.2491	1.19116	-0.419962	95	75	2579	572	0.0751952	0.069722	-0.038179	0.0638349	0.00484798	-0.113295	0.0808138	-0.0288997	-1.58004	0.056535	0.07171	-0.0132421	0	0	0	0	0	0	0.066672	-0.033336	-1.422	0	0	0	0.236257	0.216096	-0.0614325	0.13173	0.141432	-0.0514211	0.128757	0.0463864	-0.0460447	0.129713	-0.0482107	-0	0.46997	0.146821	3.62396	0.00122173	0.0237365	0	2.79816	0.336725	-1080	1080	-600	1700	-10	10	-10	-0	0	-0	250	-1.2	0.2	177	-1.2	-1	2555	0.07	2065	2793	8	56579	
13.2592	1.19113	-0.403506	93	73	2578	565	0.076565	0.068224	-0.0380876	0.0646027	0.00553213	-0.113677	0.0810655	-0.0286196	-1.59649	0.0568067	0.0723433	-0.0114384	0	0	0	0	0	0	0.066672	-0.033336	-1.437	0	0	0	0.241923	0.210254	-0.0588728	0.133372	0.140567	-0.049526	0.12923	0.0459634	-0.0456237	0.130192	-0.0464259	-0	0.461574	0.151209	3.62106	0.00261799	0.0244346	0	2.80221	0.332905	-1080	1080	-600	1700	-10	10	-10	-0	0	-0	250	-1.2	0.2	177	-1.2	-1	2555	0.07	2065	2793	8	56579	
13.2691	1.19111	-0.388131	91	72	2578	559	0.0781411	0.0666787	-0.0375969	0.0653756	0.00619165	-0.114048	0.0812599	-0.0283313	-1.61187	0.0570078	0.072825	-0.0100841	0	0	0	0	0	0	0.066672	-0.033336	-1.451	0	0	0	0.24768	0.207375	-0.0588728	0.135149	0.139504	-0.047681	0.129668	0.0455461	-0.0452088	0.130635	-0.0447475	-0	0.448638	0.157685	3.62118	0.00471239	0.0254818	0	2.80612	0.329215	-1080	1080	-600	1700	-10	10	-10	-0	0	-0	250	-1.2	0.2	177	-1.2	-1	2555	0.07	2065	2793	8	56579	
13.2792	1.1911	-0.378987	90	70	2578	553	0.0794875	0.0651035	-0.0375024	0.0661821	0.00685225	-0.114429	0.0814348	-0.0280246	-1.62101	0.0572074	0.0733041	-0.00895049	0	0	0	0	0	0	0.066672	-0.033336	-1.459	0	0	0	0.250559	0.201616	-0.0588728	0.136695	0.138408	-0.0464529	0.13	0.0450719	-0.0447376	0.130971	-0.0437445	-0	0.437815	0.159827	3.62188	0.00645772	0.0258309	0	2.81015	0.325406	-1080	1080	-600	1700	-10	10	-10	-0	0	-0	250	-1.2	0.2	177	-1.2	-1	2555	0.07	2065	2793	8	56579	
13.2893	1.19109	-0.377982	90	69	2579	546	0.0796418	0.0644297	-0.0381608	0.0669832	0.00750028	-0.114813	0.0816071	-0.0276924	-1.62202	0.0564682	0.0745834	-0.00820132	0	0	0	0	0	0	0.066672	-0.033336	-1.459	0	0	0	0.250656	0.198814	-0.0614325	0.13611	0.139013	-0.0463621	0.130207	0.0445148	-0.0441842	0.131181	-0.0436343	-0	0.437806	0.159823	3.62201	0.00645772	0.0258309	0	2.81445	0.321341	-1080	1080	-600	1700	-10	10	-10	-0	0	-0	250	-1.2	0.2	177	-1.2	-1	2555	0.07	2065	2793	8	56579	
13.2992	1.19109	-0.360081	88	68	2578	539	0.0810988	0.0630766	-0.0365478	0.0677883	0.00812651	-0.115176	0.081725	-0.0273271	-1.63992	0.0566117	0.075066	-0.00763848	0	0	0	0	0	0	0.066672	-0.033336	-1.476	0	0	0	0.256316	0.195857	-0.0588728	0.137711	0.138143	-0.0441863	0.13069	0.044027	-0.0437001	0.131668	-0.0416596	-0	0.429254	0.160928	3.62105	0.00785398	0.0260054	0	2.8189	0.31712	-1080	1080	-600	1700	-10	10	-10	-0	0	-0	250	-1.2	0.2	177	-1.2	-1	2555	0.07	2065	2793	8	56579	
13.3092	1.19109	-0.343058	87	66	2577	532	0.0825811	0.0616878	-0.0347519	0.0686108	0.00874092	-0.115522	0.0818175	-0.0269603	-1.65694	0.0567969	0.0754123	-0.00740643	0	0	0	0	0	0	0.066672	-0.033336	-1.492	0	0	0	0.259094	0.190025	-0.0563131	0.139378	0.1371	-0.0421584	0.131144	0.0435373	-0.0432142	0.132124	-0.0397697	-0	0.424785	0.160868	3.62336	0.00855211	0.0260054	0	2.82328	0.312965	-1080	1080	-600	1700	-10	10	-10	-0	0	-0	250	-1.2	0.2	177	-1.2	-1	2555	0.07	2065	2793	8	56579	
13.319	1.19111	-0.328053	85	65	2575	524	0.0840311	0.0603419	-0.0329734	0.0694394	0.00933589	-0.115847	0.0818528	-0.0265708	-1.67195	0.0568172	0.0757827	-0.00742262	0	0	0	0	0	0	0.066672	-0.033336	-1.506	0	0	0	0.264643	0.187001	-0.0511937	0.140848	0.136125	-0.040396	0.131557	0.0430244	-0.0427057	0.132539	-0.0380944	-0	0.423531	0.159722	3.62594	0.00872665	0.0258309	0	2.82771	0.308756	-1080	1080	-600	1700	-10	10	-10	-0	0	-0	250	-1.2	0.2	177	-1.2	-1	2555	0.07	2065	2793	8	56579	
13.3291	1.19113	-0.327211	85	64	2575	517	0.084373	0.0599003	-0.0327077	0.0702865	0.00993729	-0.116175	0.0818793	-0.0261632	-1.67279	0.0558559	0.0768836	-0.00761614	0	0	0	0	0	0	0.066672	-0.033336	-1.506	0	0	0	0.264643	0.184125	-0.0511937	0.140229	0.136784	-0.0403239	0.131766	0.0424172	-0.0421038	0.132747	-0.0379999	-0	0.423356	0.159656	3.62849	0.00872665	0.0258309	0	2.83231	0.304373	-1080	1080	-600	1700	-10	10	-10	-0	0	-0	250	-1.2	0.2	177	-1.2	-1	2555	0.07	2065	2793	8	56579	
13.339	1.19116	-0.307244	83	63	2574	509	0.0856836	0.0586655	-0.0301305	0.0711424	0.0105234	-0.116476	0.0819041	-0.0257371	-1.69276	0.056006	0.0772497	-0.00796326	0	0	0	0	0	0	0.066672	-0.033336	-1.525	0	0	0	0.270288	0.181178	-0.0486341	0.14169	0.135915	-0.0380938	0.132251	0.0418665	-0.0415579	0.133233	-0.0357572	-0	0.424407	0.160725	3.62887	0.00855211	0.0260054	0	2.83713	0.299782	-1080	1080	-600	1700	-10	10	-10	-0	0	-0	250	-1.2	0.2	177	-1.2	-1	2555	0.07	2065	2793	8	56579	
13.3493	1.19119	-0.287277	82	62	2572	501	0.0871334	0.0573374	-0.0273513	0.0720332	0.0111095	-0.116756	0.0818821	-0.0252758	-1.71272	0.0561103	0.0775757	-0.00842172	0	0	0	0	0	0	0.066672	-0.033336	-1.544	0	0	0	0.272949	0.178165	-0.0435147	0.143244	0.134913	-0.035773	0.132729	0.0412745	-0.0409714	0.133711	-0.0335004	-0	0.424152	0.159551	3.63257	0.00855211	0.0258309	0	2.84219	0.294952	-1080	1080	-600	1700	-10	10	-10	-0	0	-0	250	-1.2	0.2	177	-1.2	-1	2555	0.07	2065	2793	8	56579	
13.3591	1.19122	-0.268342	80	60	2570	492	0.0883723	0.0560605	-0.0246277	0.072902	0.0116606	-0.116998	0.0818548	-0.0247936	-1.73166	0.0562017	0.0779938	-0.00895531	0	0	0	0	0	0	0.066672	-0.033336	-1.562	0	0	0	0.278476	0.172285	-0.0383953	0.144574	0.134054	-0.033583	0.133184	0.0406383	-0.0403411	0.134166	-0.031348	-0	0.421728	0.161602	3.63657	0.00890118	0.0261799	0	2.84748	0.28989	-1080	1080	-600	1700	-10	10	-10	-0	0	-0	250	-1.2	0.2	177	-1.2	-1	2555	0.07	2065	2793	8	56579	
13.3691	1.19128	-0.267455	80	60	2570	485	0.0887229	0.0555443	-0.0239404	0.0737909	0.0122171	-0.117238	0.0816992	-0.0243427	-1.73254	0.0552523	0.0791725	-0.00956337	0	0	0	0	0	0	0.066672	-0.033336	-1.562	0	0	0	0.278476	0.172285	-0.0383953	0.143975	0.134717	-0.0335038	0.13338	0.0400322	-0.0397412	0.134356	-0.0312462	-0	0.421461	0.161499	3.64048	0.00890118	0.0261799	0	2.85201	0.28555	-1080	1080	-600	1700	-10	10	-10	-0	0	-0	250	-1.2	0.2	177	-1.2	-1	2555	0.07	2065	2793	8	56579	
13.3791	1.19145	-0.246881	77	57	2569	472	0.0914798	0.0534817	-0.022335	0.0746998	0.0127485	-0.11746	0.0810803	-0.0234635	-1.75312	0.0536607	0.0805599	-0.00876285	0	0	0	0	0	0	0.066672	-0.033336	-1.582	0	0	0	0.286971	0.163609	-0.0358356	0.145141	0.134042	-0.0310978	0.133941	0.0390388	-0.0387607	0.134902	-0.0288927	-0	0.421393	0.160397	3.64147	0.00890118	0.0260054	0	2.8599	0.27798	-1080	1080	-600	1700	-10	10	-10	-0	0	-0	250	-1.2	0.2	177	-1.2	-1	2555	0.07	2065	2793	8	56579	
13.3891	1.19144	-0.234217	77	56	2568	464	0.0913193	0.0520481	-0.0212467	0.0756203	0.0132731	-0.117674	0.0812543	-0.0231023	-1.76578	0.0551215	0.0809117	-0.0083641	0	0	0	0	0	0	0.066672	-0.033336	-1.594	0	0	0	0.286859	0.160676	-0.0332759	0.146441	0.13296	-0.0296108	0.13426	0.0384473	-0.038173	0.135225	-0.0274394	-0	0.424457	0.15711	3.64377	0.00837758	0.0254818	0	2.86458	0.273481	-1080	1080	-600	1700	-10	10	-10	-0	0	-0	250	-1.2	0.2	177	-1.2	-1	2555	0.07	2065	2793	8	56579	
13.3991	1.19137	-0.209222	77	56	2566	467	0.0911895	0.0518019	-0.0177854	0.0765252	0.0137872	-0.11785	0.0815367	-0.0233179	-1.79078	0.0574787	0.0792809	-0.00895482	0	0	0	0	0	0	0.066672	-0.033336	-1.618	0	0	0	0.286636	0.160551	-0.0281566	0.148668	0.131083	-0.0267402	0.134454	0.0387296	-0.038451	0.135428	-0.0245586	-0	0.427569	0.15707	3.64533	0.00785398	0.0254818	0	2.86305	0.274957	-1080	1080	-600	1700	-10	10	-10	-0	0	-0	250	-1.2	0.2	177	-1.2	-1	2555	0.07	2065	2793	8	56579	
13.4091	1.19131	-0.208286	78	56	2566	470	0.0903253	0.052518	-0.01706	0.0774355	0.0143165	-0.118022	0.081781	-0.0235619	-1.79171	0.0586075	0.078288	-0.00956352	0	0	0	0	0	0	0.066672	-0.033336	-1.618	0	0	0	0.283772	0.160551	-0.0281566	0.148933	0.130806	-0.0266235	0.134383	0.0389995	-0.038717	0.135364	-0.024451	-0	0.427224	0.156943	3.65031	0.00785398	0.0254818	0	2.86108	0.276848	-1080	1080	-600	1700	-10	10	-10	-0	0	-0	250	-1.2	0.2	177	-1.2	-1	2555	0.07	2065	2793	8	56579	
13.4191	1.19125	-0.1933	78	56	2565	473	0.0903931	0.0520677	-0.014822	0.0783373	0.0148359	-0.11817	0.082023	-0.0238055	-1.8067	0.0607866	0.0764694	-0.010137	0	0	0	0	0	0	0.066672	-0.033336	-1.632	0	0	0	0.283661	0.160489	-0.0255969	0.15118	0.128537	-0.024959	0.134443	0.039306	-0.0390193	0.135431	-0.0227159	-0	0.430369	0.16014	3.65135	0.00733038	0.0260054	0	2.85912	0.278728	-1080	1080	-600	1700	-10	10	-10	-0	0	-0	250	-1.2	0.2	177	-1.2	-1	2555	0.07	2065	2793	8	56579	
13.4291	1.19119	-0.173282	78	55	2563	476	0.0905712	0.051675	-0.0120528	0.0792409	0.0153515	-0.11829	0.0822453	-0.0240265	-1.82672	0.0627169	0.074761	-0.0106781	0	0	0	0	0	0	0.066672	-0.033336	-1.651	0	0	0	0.28344	0.1575	-0.0204775	0.153288	0.126436	-0.0227308	0.134542	0.0395947	-0.039304	0.135537	-0.0203898	-0	0.433359	0.164352	3.65457	0.00680678	0.0267035	0	2.85737	0.280412	-1080	1080	-600	1700	-10	10	-10	-0	0	-0	250	-1.2	0.2	177	-1.2	-1	2555	0.07	2065	2793	8	56579	
13.4391	1.19113	-0.160255	78	55	2562	480	0.0908286	0.0511407	-0.0101446	0.0801547	0.015866	-0.118393	0.0824548	-0.0242776	-1.83974	0.0646166	0.0728868	-0.0111621	0	0	0	0	0	0	0.066672	-0.033336	-1.663	0	0	0	0.283329	0.157439	-0.0179178	0.155445	0.124027	-0.0213067	0.134556	0.0399129	-0.039618	0.135558	-0.0188716	-0	0.437362	0.167465	3.65856	0.00610865	0.0272271	0	2.85525	0.282446	-1080	1080	-600	1700	-10	10	-10	-0	0	-0	250	-1.2	0.2	177	-1.2	-1	2555	0.07	2065	2793	8	56579	
13.449	1.19108	-0.159327	78	56	2562	482	0.0901813	0.0517148	-0.00979759	0.0810466	0.0163775	-0.118489	0.0826817	-0.0244883	-1.84067	0.0654675	0.0720769	-0.0113936	0	0	0	0	0	0	0.066672	-0.033336	-1.663	0	0	0	0.283329	0.160301	-0.0179178	0.155649	0.123792	-0.0211912	0.134496	0.0401329	-0.0398345	0.135504	-0.0187637	-0	0.437167	0.167391	3.6613	0.00610865	0.0272271	0	2.85365	0.283982	-1080	1080	-600	1700	-10	10	-10	-0	0	-0	250	-1.2	0.2	177	-1.2	-1	2555	0.07	2065	2793	8	56579	
13.4591	1.19102	-0.14235	78	55	2560	485	0.0904748	0.0512266	-0.00771799	0.0819565	0.0168927	-0.118567	0.0828865	-0.0247192	-1.85765	0.0671805	0.0703158	-0.0115764	0	0	0	0	0	0	0.066672	-0.033336	-1.679	0	0	0	0.283108	0.157316	-0.0127984	0.157655	0.121542	-0.0192944	0.134537	0.0404254	-0.0401229	0.135551	-0.0167796	-0	0.439272	0.17274	3.6618	0.00575959	0.0280998	0	2.85176	0.285791	-1080	1080	-600	1700	-10	10	-10	-0	0	-0	250	-1.2	0.2	177	-1.2	-1	2555	0.07	2065	2793	8	56579	
13.4704	1.15293	-0.129411	95	75	2560	435	0.0748109	0.0694302	-0.00703168	0.0828035	0.0176787	-0.118647	0.194731	-0.0361082	-1.87059	0.0687641	0.0685517	-0.011602	0	0	0	0	0	0	0.177792	-0.044448	-1.691	0	0	0	0.234516	0.214504	-0.0127984	0.143575	0.137982	-0.0186337	0.135832	0.0262151	-0.0251868	0.141377	-0.0155064	-0	0.435849	0.179089	3.66479	0.00628319	0.029147	0	2.95825	0.182318	-1080	1080	-600	1700	-10	10	-10	-0	0	-0	250	-1.2	0.2	177	-1.2	-1	2555	0.07	2074	2800	8	56579	
13.4792	1.15256	-0.12049	95	75	2559	385	0.075114	0.0693176	-0.00605698	0.0834639	0.0182881	-0.1187	0.195482	-0.0363833	-1.87951	0.0702413	0.0669246	-0.0115473	0	0	0	0	0	0	0.177792	-0.044448	-1.699	0	0	0	0.234425	0.21442	-0.0102387	0.145355	0.136242	-0.0176043	0.135846	0.0263247	-0.0252839	0.141438	-0.0144454	-0	0.434709	0.18442	3.66578	0.00645772	0.0300197	0	2.95758	0.182979	-1080	1080	-600	1700	-10	10	-10	-0	0	-0	250	-1.2	0.2	177	-1.2	-1	2555	0.07	2074	2800	8	56579	
13.4892	1.15215	-0.119627	95	75	2559	335	0.0748191	0.0692898	-0.00603947	0.0842082	0.0189774	-0.11876	0.19631	-0.0365825	-1.88037	0.0705472	0.0669537	-0.0114643	0	0	0	0	0	0	0.177792	-0.044448	-1.699	0	0	0	0.234425	0.21442	-0.0102387	0.145366	0.136243	-0.0175038	0.135821	0.0263615	-0.0253104	0.141462	-0.014345	-0	0.43461	0.184378	3.66718	0.00645772	0.0300197	0	2.95735	0.183197	-1080	1080	-600	1700	-10	10	-10	-0	0	-0	250	-1.2	0.2	177	-1.2	-1	2555	0.07	2074	2800	8	56579	
13.4991	1.15182	-0.104756	93	74	2558	313	0.0763004	0.06873	-0.00452819	0.0849632	0.0196576	-0.118805	0.196944	-0.0369265	-1.89524	0.0711752	0.0654517	-0.0111632	0	0	0	0	0	0	0.177792	-0.044448	-1.713	0	0	0	0.240046	0.21148	-0.00767906	0.147476	0.134182	-0.0156914	0.135854	0.0265378	-0.0254723	0.141537	-0.0125709	-0	0.430331	0.190807	3.6672	0.00715585	0.0310669	0	2.95625	0.184286	-1080	1080	-600	1700	-10	10	-10	-0	0	-0	250	-1.2	0.2	177	-1.2	-1	2555	0.07	2074	2800	8	56579	
13.509	1.15146	-0.0908761	92	73	2558	314	0.077327	0.0679336	-0.00318863	0.0857328	0.0203336	-0.118837	0.197659	-0.0371623	-1.90912	0.0719328	0.0644441	-0.0108701	0	0	0	0	0	0	0.177792	-0.044448	-1.726	0	0	0	0.242902	0.208623	-0.00767906	0.14926	0.132378	-0.0140587	0.135885	0.0266251	-0.0255481	0.141614	-0.0109123	-0	0.431247	0.193953	3.66938	0.00698132	0.0315905	0	2.95575	0.184775	-1080	1080	-600	1700	-10	10	-10	-0	0	-0	250	-1.2	0.2	177	-1.2	-1	2555	0.07	2074	2800	8	56579	
13.5191	1.1511	-0.0770169	91	72	2557	315	0.0782702	0.0671758	-0.00189772	0.0865196	0.0210089	-0.118856	0.198373	-0.0374111	-1.92298	0.0727288	0.0633876	-0.0104511	0	0	0	0	0	0	0.177792	-0.044448	-1.739	0	0	0	0.245663	0.205686	-0.00511937	0.150999	0.130563	-0.0123488	0.135906	0.0267193	-0.0256305	0.14168	-0.0092534	-0	0.430043	0.196034	3.67131	0.00715585	0.0319395	0	2.95519	0.185323	-1080	1080	-600	1700	-10	10	-10	-0	0	-0	250	-1.2	0.2	177	-1.2	-1	2555	0.07	2074	2800	8	56579	
13.5291	1.15082	-0.0762431	91	72	2557	315	0.0782299	0.0672693	-0.0022109	0.0873044	0.0216837	-0.118878	0.198932	-0.0375896	-1.92376	0.0728019	0.0632649	-0.010045	0	0	0	0	0	0	0.177792	-0.044448	-1.739	0	0	0	0.245663	0.205686	-0.00511937	0.151032	0.130534	-0.0122559	0.135882	0.0267732	-0.0256759	0.14169	-0.00916169	-0	0.429913	0.195974	3.67317	0.00715585	0.0319395	0	2.95484	0.185671	-1080	1080	-600	1700	-10	10	-10	-0	0	-0	250	-1.2	0.2	177	-1.2	-1	2555	0.07	2074	2800	8	56579	
13.5391	1.15056	-0.0624554	90	71	2556	315	0.0792787	0.0662135	-0.00108863	0.088102	0.0223499	-0.118889	0.199452	-0.0377186	-1.93754	0.0736582	0.0622361	-0.00944679	0	0	0	0	0	0	0.177792	-0.044448	-1.752	0	0	0	0.248421	0.20275	-0.00255969	0.152937	0.12845	-0.0105354	0.135909	0.0268065	-0.025702	0.14175	-0.00750831	-0	0.427808	0.1992	3.67271	0.00750492	0.0324631	0	2.95469	0.185817	-1080	1080	-600	1700	-10	10	-10	-0	0	-0	250	-1.2	0.2	177	-1.2	-1	2555	0.07	2074	2800	8	56579	
13.5492	1.15027	-0.0526865	89	70	2556	316	0.0799563	0.0654869	-0.000366696	0.0889024	0.0230054	-0.118892	0.200013	-0.0378973	-1.94731	0.074462	0.0612756	-0.00892023	0	0	0	0	0	0	0.177792	-0.044448	-1.761	0	0	0	0.251275	0.199896	-0.00255969	0.154418	0.126762	-0.00928692	0.13591	0.0268649	-0.0257516	0.141786	-0.00633595	-0	0.425558	0.201289	3.67433	0.00785398	0.0328122	0	2.95434	0.186162	-1080	1080	-600	1700	-10	10	-10	-0	0	-0	250	-1.2	0.2	177	-1.2	-1	2555	0.07	2074	2800	8	56579	
13.5591	1.14997	-0.0520048	89	71	2556	317	0.0797793	0.0656065	-0.000819847	0.0896989	0.0236604	-0.118901	0.200593	-0.0380769	-1.948	0.0746667	0.0611285	-0.00838478	0	0	0	0	0	0	0.177792	-0.044448	-1.761	0	0	0	0.251275	0.20275	-0.00255969	0.154446	0.126735	-0.00920462	0.135885	0.026916	-0.025794	0.141796	-0.00625481	-0	0.425486	0.201255	3.67537	0.00785398	0.0328122	0	2.954	0.186491	-1080	1080	-600	1700	-10	10	-10	-0	0	-0	250	-1.2	0.2	177	-1.2	-1	2555	0.07	2074	2800	8	56579	
13.5691	1.14969	-0.0342922	89	70	2555	317	0.0805326	0.0647753	0.000735873	0.0904975	0.0243028	-0.118893	0.201146	-0.0382422	-1.96571	0.075589	0.0600252	-0.00787034	0	0	0	0	0	0	0.177792	-0.044448	-1.778	0	0	0	0.251176	0.199817	0	0.156122	0.1248	-0.00713447	0.135898	0.0269677	-0.0258371	0.141845	-0.00412608	-0	0.422327	0.211978	3.67472	0.00837758	0.0345575	0	2.95371	0.186776	-1080	1080	-600	1700	-10	10	-10	-0	0	-0	250	-1.2	0.2	177	-1.2	-1	2555	0.07	2074	2800	8	56579	
13.5791	1.14942	-0.0195118	88	69	2555	318	0.0813259	0.0638925	0.00190961	0.0913146	0.0249447	-0.118874	0.201677	-0.0384079	-1.98049	0.0764071	0.0589475	-0.00744481	0	0	0	0	0	0	0.177792	-0.044448	-1.792	0	0	0	0.254029	0.196964	0	0.157733	0.12284	-0.0055352	0.135893	0.0270186	-0.0258798	0.141873	-0.00234828	-0	0.418969	0.229016	3.67696	0.00890118	0.03735	0	2.9534	0.18708	-1080	1080	-600	1700	-10	10	-10	-0	0	-0	250	-1.2	0.2	177	-1.2	-1	2555	0.07	2074	2800	8	56579	
13.5891	1.14916	-0.0107944	87	68	2554	318	0.0819864	0.0630941	0.00233547	0.092137	0.0255776	-0.118851	0.202196	-0.038547	-1.98921	0.077033	0.0581148	-0.00693922	0	0	0	0	0	0	0.177792	-0.044448	-1.8	0	0	0	0.256782	0.194034	0.00255969	0.159019	0.121209	-0.00460374	0.135878	0.02705	-0.0259039	0.14189	-0.00129934	-0	0.418853	0.238577	3.67865	0.00890118	0.0389208	0	2.95321	0.187268	-1080	1080	-600	1700	-10	10	-10	-0	0	-0	250	-1.2	0.2	177	-1.2	-1	2555	0.07	2074	2800	8	56579	
13.6003	1.14889	0.00489894	86	67	2553	318	0.0826936	0.0621826	0.00366303	0.0930604	0.026272	-0.11881	0.202722	-0.0386869	-2.0049	0.0778109	0.0571121	-0.00632287	0	0	0	0	0	0	0.177792	-0.044448	-1.815	0	0	0	0.259532	0.191107	0.00511937	0.160504	0.119295	-0.00265984	0.135859	0.0270804	-0.025927	0.141903	0.000589766	-0	0.417744	0.241761	3.67926	0.00907571	0.0394444	0	2.95302	0.187455	-1080	1080	-600	1700	-10	10	-10	-0	0	-0	250	-1.2	0.2	177	-1.2	-1	2555	0.07	2074	2800	8	56579	
13.6091	1.14863	0.00552732	86	67	2554	319	0.0826808	0.062231	0.00318014	0.0937915	0.0268223	-0.118782	0.203228	-0.0388249	-2.00553	0.0778328	0.0570531	-0.0057637	0	0	0	0	0	0	0.177792	-0.044448	-1.815	0	0	0	0.259633	0.191182	0.00255969	0.160514	0.119284	-0.00258356	0.135838	0.0271112	-0.0259506	0.141913	0.000665486	-0	0.417614	0.241685	3.68117	0.00907571	0.0394444	0	2.95283	0.187648	-1080	1080	-600	1700	-10	10	-10	-0	0	-0	250	-1.2	0.2	177	-1.2	-1	2555	0.07	2074	2800	8	56579	
13.6191	1.14833	0.0172082	86	66	2553	318	0.08297	0.0611184	0.00404378	0.0946132	0.0274275	-0.118742	0.203835	-0.0388746	-2.01721	0.0788958	0.0563473	-0.00517663	0	0	0	0	0	0	0.177792	-0.044448	-1.826	0	0	0	0.259532	0.188255	0.00511937	0.161866	0.117466	-0.00113285	0.135821	0.0270688	-0.0259032	0.141932	0.00207201	-0	0.417661	0.243851	3.68048	0.00907571	0.0397935	0	2.95314	0.18734	-1080	1080	-600	1700	-10	10	-10	-0	0	-0	250	-1.2	0.2	177	-1.2	-1	2555	0.07	2074	2800	8	56579	
13.6292	1.14812	0.0318546	85	65	2553	319	0.0839814	0.0603876	0.00526545	0.0954633	0.0280388	-0.118688	0.204223	-0.0390394	-2.03185	0.079151	0.0553166	-0.00466582	0	0	0	0	0	0	0.177792	-0.044448	-1.84	0	0	0	0.262382	0.185404	0.00511937	0.163132	0.115704	0.000599629	0.135779	0.0271284	-0.0259556	0.141914	0.00383539	-0	0.421845	0.243801	3.68172	0.00837758	0.0397935	0	2.95271	0.187761	-1080	1080	-600	1700	-10	10	-10	-0	0	-0	250	-1.2	0.2	177	-1.2	-1	2555	0.07	2074	2800	8	56579	
13.6392	1.14787	0.0324009	85	65	2553	319	0.0839567	0.0603637	0.00479869	0.0963025	0.0286422	-0.11864	0.204719	-0.0391376	-2.0324	0.0791632	0.0553576	-0.00413363	0	0	0	0	0	0	0.177792	-0.044448	-1.84	0	0	0	0.262382	0.185404	0.00511937	0.16312	0.115721	0.000665064	0.135762	0.0271334	-0.0259547	0.141928	0.00390156	-0	0.421723	0.243731	3.68348	0.00837758	0.0397935	0	2.95269	0.187777	-1080	1080	-600	1700	-10	10	-10	-0	0	-0	250	-1.2	0.2	177	-1.2	-1	2555	0.07	2074	2800	8	56579	
13.6492	1.06159	0.0429048	109	93	2553	269	0.0619153	0.0866745	0.00451257	0.0969206	0.0295075	-0.118595	0.339203	-0.0168922	-2.0429	0.0797721	0.0544774	-0.00358618	0	0	0	0	0	0	0.311136	-0.022224	-1.85	0	0	0	0.193958	0.265232	0.00511937	0.141687	0.141152	0.000926394	0.132307	0.00744789	-0.00658882	0.149557	0.00535389	-0	0.42177	0.243758	3.68281	0.00837758	0.0397935	0	3.09183	0.049738	-1080	1080	-600	1700	-10	10	-10	-0	0	-0	250	-1.2	0.2	177	-1.2	-1	2555	0.07	2081	2807	8	56579	
13.6591	1.06066	0.0504568	108	93	2553	219	0.0627636	0.0860893	0.0050816	0.0975466	0.0303661	-0.118545	0.340338	-0.0168762	-2.05046	0.0802966	0.0536598	-0.00309315	0	0	0	0	0	0	0.311136	-0.022224	-1.857	0	0	0	0.19681	0.265232	0.00511937	0.14306	0.139749	0.00198846	0.132225	0.00741795	-0.00655661	0.149595	0.00629781	-0	0.419664	0.243774	3.6824	0.00872665	0.0397935	0	3.09205	0.0495259	-1080	1080	-600	1700	-10	10	-10	-0	0	-0	250	-1.2	0.2	177	-1.2	-1	2555	0.07	2081	2807	8	56579	
13.6694	1.05978	0.059943	106	91	2552	169	0.0644766	0.0845554	0.00592975	0.0982097	0.0312358	-0.118484	0.341423	-0.0168425	-2.05994	0.0800221	0.0536808	-0.00263176	0	0	0	0	0	0	0.311136	-0.022224	-1.866	0	0	0	0.202433	0.25943	0.00767906	0.144499	0.138236	0.00329799	0.132138	0.0073809	-0.00651842	0.149622	0.00748306	-0	0.417474	0.243742	3.68322	0.00907571	0.0397935	0	3.0923	0.0492706	-1080	1080	-600	1700	-10	10	-10	-0	0	-0	250	-1.2	0.2	177	-1.2	-1	2555	0.07	2081	2807	8	56579	
13.6791	1.05885	0.0603875	105	90	2552	119	0.065044	0.0837505	0.00567718	0.0988421	0.03205	-0.118428	0.342553	-0.0168067	-2.06039	0.0793559	0.0545877	-0.00232579	0	0	0	0	0	0	0.311136	-0.022224	-1.866	0	0	0	0.205283	0.25658	0.00767906	0.1444	0.138338	0.00335139	0.132073	0.00734372	-0.00647992	0.149679	0.00754136	-0	0.417391	0.243693	3.68444	0.00907571	0.0397935	0	3.09257	0.0490041	-1080	1080	-600	1700	-10	10	-10	-0	0	-0	250	-1.2	0.2	177	-1.2	-1	2555	0.07	2081	2807	8	56579	
13.6891	1.05796	0.0677289	104	89	2552	82	0.0664982	0.0821666	0.00630701	0.0995072	0.0328718	-0.118365	0.343635	-0.016712	-2.06773	0.0791876	0.0547867	-0.00189648	0	0	0	0	0	0	0.311136	-0.022224	-1.873	0	0	0	0.208134	0.253731	0.00767906	0.145686	0.136953	0.00441053	0.131989	0.00728085	-0.00641906	0.14971	0.00845971	-0	0.416349	0.241571	3.68408	0.00925025	0.0394444	0	3.093	0.0485757	-1080	1080	-600	1700	-10	10	-10	-0	0	-0	250	-1.2	0.2	177	-1.2	-1	2555	0.07	2081	2807	8	56579	
13.6991	1.05711	0.0760998	102	87	2551	81	0.0680027	0.0806277	0.00704605	0.100187	0.0336774	-0.118295	0.344669	-0.0166151	-2.0761	0.0789248	0.0549497	-0.00147288	0	0	0	0	0	0	0.311136	-0.022224	-1.881	0	0	0	0.21375	0.247935	0.0102387	0.146928	0.135577	0.00557317	0.131901	0.0072179	-0.00635845	0.14973	0.0095064	-0	0.41522	0.240467	3.68499	0.00942478	0.0392699	0	3.09342	0.0481501	-1080	1080	-600	1700	-10	10	-10	-0	0	-0	250	-1.2	0.2	177	-1.2	-1	2555	0.07	2081	2807	8	56579	
13.7092	1.05627	0.0814313	101	85	2551	81	0.0694279	0.079093	0.00744654	0.100884	0.0344715	-0.11822	0.345697	-0.0164997	-2.08143	0.0786943	0.055145	-0.00112266	0	0	0	0	0	0	0.311136	-0.022224	-1.886	0	0	0	0.216599	0.242238	0.0102387	0.148122	0.134238	0.00632388	0.131823	0.00714792	-0.00629176	0.149761	0.0101743	-0	0.417281	0.237221	3.68606	0.00907571	0.0387463	0	3.0939	0.0476745	-1080	1080	-600	1700	-10	10	-10	-0	0	-0	250	-1.2	0.2	177	-1.2	-1	2555	0.07	2081	2807	8	56579	
13.7191	1.0554	0.0816593	100	84	2551	80	0.0699286	0.0782868	0.00713063	0.101577	0.0352474	-0.118149	0.346744	-0.0163661	-2.08166	0.0780669	0.0560896	-0.00078119	0	0	0	0	0	0	0.311136	-0.022224	-1.886	0	0	0	0.219448	0.239389	0.0102387	0.147995	0.134376	0.00634944	0.131765	0.00707129	-0.00621921	0.149817	0.0102063	-0	0.417242	0.237198	3.68663	0.00907571	0.0387463	0	3.09443	0.0471469	-1080	1080	-600	1700	-10	10	-10	-0	0	-0	250	-1.2	0.2	177	-1.2	-1	2555	0.07	2081	2807	8	56579	
13.7291	1.05455	0.0888693	99	83	2551	79	0.0711913	0.0768541	0.00777479	0.102291	0.0360188	-0.118071	0.347774	-0.0162366	-2.08887	0.0780178	0.0561242	-0.000465783	0	0	0	0	0	0	0.311136	-0.022224	-1.893	0	0	0	0.222297	0.236541	0.0102387	0.149209	0.132978	0.00730901	0.131676	0.00699551	-0.00614758	0.149838	0.0111087	-0	0.420471	0.234012	3.68618	0.00855211	0.0382227	0	3.09494	0.0466364	-1080	1080	-600	1700	-10	10	-10	-0	0	-0	250	-1.2	0.2	177	-1.2	-1	2555	0.07	2081	2807	8	56579	
13.7391	1.0537	0.0941024	97	81	2551	78	0.0723403	0.0754547	0.00816333	0.103016	0.036775	-0.11799	0.348796	-0.0160823	-2.0941	0.0779565	0.0562548	-0.00019581	0	0	0	0	0	0	0.311136	-0.022224	-1.898	0	0	0	0.227994	0.230843	0.0102387	0.150297	0.131709	0.00796752	0.131595	0.00691006	-0.0060676	0.149866	0.0117648	-0	0.423606	0.232909	3.68711	0.00802851	0.0380482	0	3.09552	0.0460593	-1080	1080	-600	1700	-10	10	-10	-0	0	-0	250	-1.2	0.2	177	-1.2	-1	2555	0.07	2081	2807	8	56579	
13.7491	1.05285	0.101281	96	80	2550	77	0.0734142	0.0739899	0.00882903	0.10375	0.037514	-0.117901	0.34982	-0.015903	-2.10128	0.0779965	0.0563738	0.000120531	0	0	0	0	0	0	0.311136	-0.022224	-1.905	0	0	0	0.230753	0.227905	0.0127984	0.151411	0.130364	0.00894956	0.131502	0.00681371	-0.00597817	0.149882	0.0126633	-0	0.423567	0.231819	3.68767	0.00802851	0.0378736	0	3.09616	0.0454136	-1080	1080	-600	1700	-10	10	-10	-0	0	-0	250	-1.2	0.2	177	-1.2	-1	2555	0.07	2081	2807	8	56579	
13.7591	1.05248	0.10141	96	79	2551	76	0.0738044	0.0733898	0.00862118	0.104489	0.0382493	-0.117815	0.35027	-0.0156898	-2.10141	0.0774961	0.057101	0.000340634	0	0	0	0	0	0	0.311136	-0.022224	-1.905	0	0	0	0.230843	0.225146	0.0102387	0.1513	0.130491	0.00896182	0.131479	0.00671491	-0.00588941	0.149909	0.0126812	-0	0.423501	0.231783	3.68863	0.00802851	0.0378736	0	3.09683	0.0447485	-1080	1080	-600	1700	-10	10	-10	-0	0	-0	250	-1.2	0.2	177	-1.2	-1	2555	0.07	2081	2807	8	56579	
13.7691	1.05223	0.106356	94	77	2551	74	0.0751115	0.0714934	0.00844076	0.105236	0.0389603	-0.117731	0.350582	-0.0152767	-2.10636	0.077161	0.057821	0.00109285	0	0	0	0	0	0	0.311136	-0.022224	-1.91	0	0	0	0.236541	0.219448	0.0102387	0.152272	0.129314	0.00953361	0.131443	0.006532	-0.00572764	0.149902	0.0132984	-0	0.425653	0.23393	3.68834	0.00767945	0.0382227	0	3.09804	0.0435339	-1080	1080	-600	1700	-10	10	-10	-0	0	-0	250	-1.2	0.2	177	-1.2	-1	2555	0.07	2081	2807	8	56579	
13.7791	1.05175	0.110482	94	76	2550	73	0.0756882	0.0707905	0.00868172	0.105991	0.0396667	-0.117645	0.351156	-0.0151958	-2.11048	0.0776373	0.0572414	0.00127385	0	0	0	0	0	0	0.311136	-0.022224	-1.914	0	0	0	0.236448	0.216514	0.0127984	0.153326	0.128032	0.00995557	0.131387	0.00648701	-0.00568559	0.149907	0.0138146	-0	0.429934	0.236075	3.68808	0.00698132	0.0385718	0	3.09835	0.0432331	-1080	1080	-600	1700	-10	10	-10	-0	0	-0	250	-1.2	0.2	177	-1.2	-1	2555	0.07	2081	2807	8	56579	
13.7891	1.05135	0.112553	93	76	2550	73	0.0765317	0.0704404	0.00866837	0.106759	0.0403736	-0.117558	0.351632	-0.0151937	-2.11255	0.0777535	0.0564242	0.00140304	0	0	0	0	0	0	0.311136	-0.022224	-1.916	0	0	0	0.239295	0.216514	0.0127984	0.154285	0.126865	0.0100714	0.131347	0.00647787	-0.00567542	0.149919	0.0140746	-0	0.434173	0.240332	3.68843	0.00628319	0.0392699	0	3.09841	0.043169	-1080	1080	-600	1700	-10	10	-10	-0	0	-0	250	-1.2	0.2	177	-1.2	-1	2555	0.07	2081	2807	8	56579	
