time 	e1	e2	ctrlpitch	ctrlroll	ctrlthrust	ctrlyaw	edx	edy	edz	cumulx	cumuly	cumulz	x	y	z	dxr	dyr	dzr	dxrT	dyrT	dzrT	dxrUn	dyrUn	dzrUn	x_pred	y_pred	z_pred	dx_pred	dy_pred	dz_pred	ux	uy	uz	dxd	dyd	dzd	Perpx	Tangx	Perpy	Tangy	Perpz	Tanz	ax	ay	az	err_sti_x	err_sti_y	err_sti_z	err_sti_dx	err_sti_dy	err_sti_dz	pitch	roll	yaw	yawd	eyaw	kpvx	kpvy	kpvz	kpyaw	kivx	kivy	kivz	kdvx	kdvy	kdvz	kdyaw	ktg	veld	pitchoff	ke1	ke2	gravity	thr_vel	gps_accuracy	height_accuracy	gps_sat_num	gps_status
13.0738	0.106525	-2.016	50	19	1450	0	-0.0688898	0.0280265	-0.00878212	-0.000461699	0.000187833	-5.88578e-05	0.011112	-0.00121851	0.016	-0.0105675	0.0259128	-0.166652	0	0	0	0	0	0	0.011112	-0.00121851	0.016	0.01	0.03	-0.166	0.205665	0.0307843	2.82845	-0.0794573	0.0539392	-0.175434	-0.00907164	-3.12171e-05	-2.77117e-06	0.102191	-0.171682	0	0	0	9.81	0	0	0	0	0	0	0.0446804	0.000523599	0	3.03237	0.109004	-700	700	-600	1700	-0	0	-0	-0	0	-0	250	1.2	0.2	177	-1.2	-1	2555	0.07	2426	2672	8	56579	
13.0771	0.106525	-2.016	100	19	1500	0	-0.0688913	0.0280249	-0.00877499	-0.000690487	0.000280904	-8.79995e-05	0.011112	-0.00121851	0.016	-0.0105966	0.0258837	-0.166655	0	0	0	0	0	0	0.0112126	-0.000916681	0.0143299	0.01	0.03	-0.166	0.129036	0.0318458	2.70047	-0.0794879	0.0539086	-0.17543	-0.00907164	-3.12171e-05	-2.77117e-06	0.102191	-0.171682	0	0.20125	0.00428925	3.66611	0	0	0	0	0	0	0.0445059	0.000698132	0	3.03237	0.109004	-700	700	-600	1700	-0	0	-0	-0	0	-0	250	1.2	0.2	177	-1.2	-1	2555	0.07	2426	2672	8	56579	
13.087	0.106525	-2.016	150	19	1550	0	-0.0688534	0.0280156	-0.00975242	-0.00137186	0.000558146	-0.000184509	0.011112	-0.00121851	0.016	-0.0106745	0.0259391	-0.165645	0	0	0	0	0	0	0.0112796	-0.000715621	0.0132341	0.0111492	0.030172	-0.149195	0.0467625	0.0329073	2.57249	-0.0795279	0.0539546	-0.175397	-0.00907164	-3.12171e-05	-2.77117e-06	0.102191	-0.171682	0	0.202321	0.00214462	3.66612	0	0	0	0	0	5.58767e-06	0.0443314	0.000349066	0	3.03237	0.109004	-700	700	-600	1700	-0	0	-0	-0	0	-0	250	1.2	0.2	177	-1.2	-1	2555	0.07	2426	2672	8	56579	
13.097	0.106525	-2.016	200	19	1600	0	-0.0688534	0.0280156	-0.00975242	-0.00205819	0.000837406	-0.000281722	0.011112	-0.00121851	0.016	-0.0106745	0.0259391	-0.165645	0	0	0	0	0	0	0.0113402	-0.000612863	0.013072	0.0136176	0.0306254	-0.109049	-0.04112	0.0339688	2.4445	-0.0795279	0.0539546	-0.175397	-0.00907164	-3.12171e-05	-2.77117e-06	0.102191	-0.171682	0	0.202367	0.00214511	3.66471	-6.7355e-07	-2.02065e-06	1.11809e-05	0	0	1.22823e-05	0.0443314	0.000349066	0	3.03237	0.109004	-700	700	-600	1700	-0	0	-0	-0	0	-0	250	1.2	0.2	177	-1.2	-1	2555	0.07	2426	2672	8	56579	
13.1069	-0	-2.02	246	26	1650	0	-0.0993137	0.0372864	-0.0113491	-0.00305043	0.00120993	-0.00039511	0	0	0.02	0.025266	0.0239713	-0.164049	0	0	0	0	0	0	0.000576853	5.5772e-06	0.0170986	0.0320365	0.000621351	-0.112068	-0.127198	0.0479358	2.31652	-0.0740477	0.0612578	-0.175398	0	0	-0	0.102147	-0.171948	-0	0.203439	0.00107256	3.66471	-7.55665e-05	2.73084e-06	5.61042e-05	0.000125163	-0.000200332	-9.26577e-05	0.0441568	0.000174533	0	0	0	-700	700	-600	1700	-0	0	-0	-0	0	-0	250	1.2	0.2	177	-1.2	-1	2555	0.07	2428	2673	8	56579	
13.1169	-0	-2.02	246	26	1700	0	-0.0993242	0.0372671	-0.0113212	-0.00404278	0.00158227	-0.000508221	0	0	0.02	0.0252046	0.0239458	-0.164062	0	0	0	0	0	0	0.000622325	9.63e-06	0.0166902	0.0304302	0.000727458	-0.106399	-0.131052	0.0493884	2.18853	-0.0741196	0.0612129	-0.175383	0	0	-0	0.102147	-0.171948	-0	0.20566	0.00214591	3.66241	-0.000163207	7.46724e-06	0.000109646	0.000251772	-0.000437015	-0.000525066	0.0438078	0.000349066	0	0	0	-700	700	-600	1700	-0	0	-0	-0	0	-0	250	1.2	0.2	177	-1.2	-1	2555	0.07	2428	2673	8	56579	
13.127	-0	-2.02	246	26	1750	0	-0.0993242	0.0372671	-0.0113212	-0.00504109	0.00195684	-0.00062201	0	0	0.02	0.0252046	0.0239458	-0.164062	0	0	0	0	0	0	0.000798959	1.37983e-05	0.0158695	0.0279389	0.00110881	-0.0933983	-0.134907	0.050841	2.06055	-0.0741196	0.0612129	-0.175383	0	0	-0	0.102147	-0.171948	-0	0.205659	0.0021459	3.66245	-0.000168948	7.41174e-06	0.00013852	0.000231505	-0.000443199	-0.00105182	0.0438078	0.000349066	0	0	0	-700	700	-600	1700	-0	0	-0	-0	0	-0	250	1.2	0.2	177	-1.2	-1	2555	0.07	2428	2673	8	56579	
13.137	-0	-2.02	246	26	1800	0	-0.0993763	0.0372482	-0.0103116	-0.00604111	0.00233167	-0.000725776	0	0	0.02	0.0252154	0.0239198	-0.16507	0	0	0	0	0	0	0.000772887	1.79906e-05	0.0158067	0.0261747	0.00140513	-0.0980627	-0.138761	0.0522936	1.93256	-0.0741609	0.061168	-0.175381	0	0	-0	0.102147	-0.171948	-0	0.206731	0.00321885	3.66245	-0.000175161	7.3156e-06	0.000171562	0.00022721	-0.000450461	-0.00164685	0.0436332	0.000523599	0	0	0	-700	700	-600	1700	-0	0	-0	-0	0	-0	250	1.2	0.2	177	-1.2	-1	2555	0.07	2428	2673	8	56579	
13.1471	-0	-2.02	246	26	1850	0	-0.0993763	0.0372464	-0.0103181	-0.00703547	0.00270436	-0.000829019	0	0	0.02	0.0252154	0.023891	-0.165074	0	0	0	0	0	0	0.000770008	1.84379e-05	0.015779	0.0260503	0.00145167	-0.10179	-0.142616	0.0537462	1.80458	-0.0741609	0.0611374	-0.175392	0	0	-0	0.102147	-0.171948	-0	0.206682	0.00429078	3.6639	-0.000183159	7.17747e-06	0.000212913	0.000247844	-0.000461562	-0.00237366	0.0436332	0.000698132	0	0	0	-700	700	-600	1700	-0	0	-0	-0	0	-0	250	1.2	0.2	177	-1.2	-1	2555	0.07	2428	2673	8	56579	
13.157	-0	-2.02	246	26	1900	0	-0.0993763	0.0372464	-0.0103181	-0.00802238	0.00307425	-0.000931489	0	0	0.02	0.0252154	0.023891	-0.165074	0	0	0	0	0	0	0.000766937	1.88577e-05	0.0157526	0.0259286	0.00149758	-0.105557	-0.14647	0.0551988	1.67659	-0.0741609	0.0611374	-0.175392	0	0	-0	0.102147	-0.171948	-0	0.206683	0.00429079	3.66389	-0.000190915	6.99693e-06	0.000254993	0.000286231	-0.000475662	-0.00305541	0.0436332	0.000698132	0	0	0	-700	700	-600	1700	-0	0	-0	-0	0	-0	250	1.2	0.2	177	-1.2	-1	2555	0.07	2428	2673	8	56579	
13.1671	-0	-2.02	246	26	1950	0	-0.0994458	0.0371759	-0.00932665	-0.0090236	0.00344854	-0.00102539	0	0	0.02	0.0252422	0.0238739	-0.166078	0	0	0	0	0	0	0.000762315	1.92197e-05	0.0157031	0.0258144	0.00154064	-0.110447	-0.150325	0.0566514	1.54861	-0.0742036	0.0610497	-0.175405	0	0	-0	0.102147	-0.171948	-0	0.206683	0.00536349	3.66389	-0.000198646	6.81181e-06	0.000297372	0.000325886	-0.000490237	-0.00371012	0.0436332	0.000872665	0	0	0	-700	700	-600	1700	-0	0	-0	-0	0	-0	250	1.2	0.2	177	-1.2	-1	2555	0.07	2428	2673	8	56579	
13.177	-0	-2.02	246	25	2000	0	-0.0994782	0.0370872	-0.00933446	-0.0100089	0.00381589	-0.00111785	0	0	0.02	0.0252213	0.0238606	-0.166083	0	0	0	0	0	0	0.000754058	1.94355e-05	0.0157013	0.0257196	0.00157639	-0.114575	-0.154179	0.0558693	1.42063	-0.0742569	0.0609477	-0.175417	0	0	-0	0.102147	-0.171948	-0	0.206635	0.00643469	3.66532	-0.000206315	6.62324e-06	0.000339846	0.000366601	-0.000505213	-0.00432455	0.0436332	0.0010472	0	0	0	-700	700	-600	1700	-0	0	-0	-0	0	-0	250	1.2	0.2	177	-1.2	-1	2555	0.07	2428	2673	8	56579	
13.1871	-0	-2.02	246	25	2050	0	-0.0994782	0.0370872	-0.00933446	-0.0110152	0.00419102	-0.00121227	0	0	0.02	0.0252213	0.0238606	-0.166083	0	0	0	0	0	0	0.000749225	1.97807e-05	0.0156837	0.0256075	0.00161871	-0.118463	-0.158034	0.0572661	1.29264	-0.0742569	0.0609477	-0.175417	0	0	-0	0.102147	-0.171948	-0	0.206635	0.0064347	3.66531	-0.00021394	6.43101e-06	0.000382823	0.000408464	-0.000520622	-0.00489017	0.0436332	0.0010472	0	0	0	-700	700	-600	1700	-0	0	-0	-0	0	-0	250	1.2	0.2	177	-1.2	-1	2555	0.07	2428	2673	8	56579	
13.1971	-0	-2.02	246	25	2100	0	-0.0996184	0.0369525	-0.00730819	-0.0120144	0.00456169	-0.00128557	0	0	0.02	0.0252456	0.0239422	-0.168079	0	0	0	0	0	0	0.000741583	2.00055e-05	0.0156207	0.0255114	0.00163267	-0.124509	-0.161888	0.0586628	1.16466	-0.0743727	0.0608946	-0.175387	0	0	-0	0.102147	-0.171948	-0	0.207707	0.0042898	3.66531	-0.000221456	6.23727e-06	0.000425672	0.00045113	-0.000536335	-0.00543268	0.0434587	0.000698132	0	0	0	-700	700	-600	1700	-0	0	-0	-0	0	-0	250	1.2	0.2	177	-1.2	-1	2555	0.07	2428	2673	8	56579	
13.207	-0	-2.02	246	25	2150	0	-0.0996184	0.0369525	-0.00730819	-0.013001	0.00492767	-0.00135795	0	0	0.02	0.0252456	0.0239422	-0.168079	0	0	0	0	0	0	0.000741629	1.98787e-05	0.0155783	0.0253719	0.00163975	-0.128134	-0.165743	0.0600595	1.03667	-0.0743727	0.0608946	-0.175387	0	0	-0	0.102147	-0.171948	-0	0.207608	0.00428777	3.66823	-0.00022897	6.03889e-06	0.000468961	0.000495184	-0.00055257	-0.00593953	0.0434587	0.000698132	0	0	0	-700	700	-600	1700	-0	0	-0	-0	0	-0	250	1.2	0.2	177	-1.2	-1	2555	0.07	2428	2673	8	56579	
13.217	-0	-2.02	246	25	2200	0	-0.0997219	0.0367996	-0.00625746	-0.0139964	0.00529497	-0.00142041	0	0	0.02	0.0251923	0.0240581	-0.169076	0	0	0	0	0	0	0.000735759	2.01575e-05	0.0155369	0.0252663	0.001678	-0.133076	-0.169597	0.0614563	0.908689	-0.0745296	0.0608577	-0.175333	0	0	-0	0.102147	-0.171948	-0	0.209751	0.00107194	3.66823	-0.000236399	5.83849e-06	0.000512829	0.000540147	-0.000568924	-0.00639521	0.0431096	0.000174533	0	0	0	-700	700	-600	1700	-0	0	-0	-0	0	-0	250	1.2	0.2	177	-1.2	-1	2555	0.07	2428	2673	8	56579	
13.2269	-0	-2.02	246	25	2250	0	-0.0999557	0.0365216	-0.00318846	-0.0149889	0.00565763	-0.00145207	0	0	0.02	0.0251342	0.0241375	-0.172089	0	0	0	0	0	0	0.000730858	2.04772e-05	0.0154305	0.0251553	0.00171827	-0.139968	-0.173452	0.062853	0.780705	-0.0748215	0.060659	-0.175278	0	0	-0	0.102147	-0.171948	-0	0.213983	0	3.66974	-0.000243827	5.63937e-06	0.00055712	0.000586505	-0.000585349	-0.00684462	0.0424115	0	0	0	0	-700	700	-600	1700	-0	0	-0	-0	0	-0	250	1.2	0.2	177	-1.2	-1	2555	0.07	2428	2673	8	56579	
13.2371	-0	-2.02	246	25	2300	0	-0.0999557	0.0365216	-0.00318846	-0.016006	0.00602923	-0.00148451	0	0	0.02	0.0251342	0.0241375	-0.172089	0	0	0	0	0	0	0.000722453	2.06363e-05	0.0154346	0.0250666	0.00175046	-0.143987	-0.177306	0.0642497	0.65272	-0.0748215	0.060659	-0.175278	0	0	-0	0.102147	-0.171948	-0	0.213829	0	3.67416	-0.000251164	5.43836e-06	0.000601626	0.000633709	-0.000602082	-0.00724274	0.0424115	0	0	0	0	-700	700	-600	1700	-0	0	-0	-0	0	-0	250	1.2	0.2	177	-1.2	-1	2555	0.07	2428	2673	8	56579	
13.2471	-0	-2.02	247	25	2350	0	-0.100143	0.0362422	-0.00108969	-0.0170039	0.00639039	-0.00149537	0	0	0.02	0.0249692	0.0241871	-0.174116	0	0	0	0	0	0	0.000714983	2.08276e-05	0.0153751	0.0249733	0.00178428	-0.149938	-0.183785	0.0656465	0.524736	-0.075174	0.0604293	-0.175206	0	0	-0	0.102147	-0.171948	-0	0.220251	0	3.67416	-0.000258428	5.23485e-06	0.00064704	0.000681857	-0.000619159	-0.00759089	0.0413643	0	0	0	0	-700	700	-600	1700	-0	0	-0	-0	0	-0	250	1.2	0.2	177	-1.2	-1	2555	0.07	2428	2673	8	56579	
13.2571	-0	-2.02	247	25	2400	0	-0.100283	0.0358572	-0.000985417	-0.0180083	0.00674953	-0.00150524	0	0	0.02	0.0246636	0.0241943	-0.174159	0	0	0	0	0	0	0.000717409	2.14781e-05	0.0153169	0.024816	0.00184133	-0.153585	-0.187695	0.0670432	0.396751	-0.0756192	0.0600515	-0.175144	0	0	-0	0.102147	-0.171948	-0	0.22763	0.00214076	3.67718	-0.000265673	5.0279e-06	0.000692825	0.000731333	-0.000636714	-0.00790191	0.0401426	0.000349066	0	0	0	-700	700	-600	1700	-0	0	-0	-0	0	-0	250	1.2	0.2	177	-1.2	-1	2555	0.07	2428	2673	8	56579	
13.2671	-0	-2.02	247	25	2450	0	-0.100283	0.0358572	-0.000985417	-0.0190128	0.00710868	-0.00151511	0	0	0.02	0.0246636	0.0241943	-0.174159	0	0	0	0	0	0	0.00071224	2.17745e-05	0.0153041	0.0246816	0.00188053	-0.157471	-0.191606	0.0684399	0.268767	-0.0756192	0.0600515	-0.175144	0	0	-0	0.102147	-0.171948	-0	0.227624	0.00214071	3.67733	-0.00027284	4.81914e-06	0.000739181	0.000781717	-0.000654598	-0.00815311	0.0401426	0.000349066	0	0	0	-700	700	-600	1700	-0	0	-0	-0	0	-0	250	1.2	0.2	177	-1.2	-1	2555	0.07	2428	2673	8	56579	
13.2771	-0	-2.02	247	24	2500	0	-0.100498	0.035473	0.00114174	-0.0200154	0.00746259	-0.00150372	0	0	0.02	0.0244047	0.0242305	-0.1762	0	0	0	0	0	0	0.000708944	2.22009e-05	0.0152146	0.0245019	0.00192636	-0.163301	-0.195516	0.0670433	0.140783	-0.0760937	0.0597034	-0.175058	0	0	-0	0.102147	-0.171948	-0	0.236181	0.00321106	3.67733	-0.000280051	4.60324e-06	0.000786255	0.000833826	-0.000673107	-0.00838847	0.0387463	0.000523599	0	0	0	-700	700	-600	1700	-0	0	-0	-0	0	-0	250	1.2	0.2	177	-1.2	-1	2555	0.07	2428	2673	8	56579	
13.287	-0	-2.02	247	24	2550	0	-0.100788	0.035071	0.00526273	-0.021019	0.00781179	-0.00145132	0	0	0.02	0.0242418	0.0243301	-0.180226	0	0	0	0	0	0	0.000700026	2.23017e-05	0.0151061	0.0244193	0.00195587	-0.171241	-0.199426	0.0683842	0.0127984	-0.0765467	0.0594011	-0.174963	0	0	-0	0.102147	-0.171948	-0	0.243546	0.00213964	3.68039	-0.000287173	4.38552e-06	0.00083321	0.000887004	-0.00069191	-0.00862374	0.0375246	0.000349066	0	0	0	-700	700	-600	1700	-0	0	-0	-0	0	-0	250	1.2	0.2	177	-1.2	-1	2555	0.07	2428	2673	8	56579	
13.2969	-0	-2.02	247	24	2551	0	-0.100788	0.035071	0.00526273	-0.0220189	0.00815973	-0.00139911	0	0	0.02	0.0242418	0.0243301	-0.180226	0	0	0	0	0	0	0.000695622	2.2626e-05	0.0150896	0.0243052	0.00196873	-0.175095	-0.199505	0.068411	0.0102387	-0.0765467	0.0594011	-0.174963	0	0	-0	0.102147	-0.171948	-0	0.24331	0.00213756	3.68633	-0.000294264	4.16344e-06	0.000881079	0.000942002	-0.00071118	-0.00880078	0.0375246	0.000349066	0	0	0	-700	700	-600	1700	-0	0	-0	-0	0	-0	250	1.2	0.2	177	-1.2	-1	2555	0.07	2428	2673	8	56579	
13.307	-0	-2.02	247	24	2545	0	-0.10132	0.0345828	0.0153379	-0.0230357	0.00850677	-0.00124519	0	0	0.02	0.0243316	0.0244117	-0.190245	0	0	0	0	0	0	0.000689414	2.20164e-05	0.0147866	0.024205	0.00194826	-0.188961	-0.199035	0.0682501	0.0255969	-0.0769887	0.0589945	-0.174907	0	0	-0	0.102147	-0.171948	-0	0.24865	0.00213756	3.68633	-0.000301253	3.94079e-06	0.000929935	0.000997716	-0.000730706	-0.00899804	0.0366519	0.000349066	0	0	0	-700	700	-600	1700	-0	0	-0	-0	0	-0	250	1.2	0.2	177	-1.2	-1	2555	0.07	2428	2673	8	56579	
13.317	-0	-2.02	248	23	2536	0	-0.102028	0.0340886	0.0303632	-0.0240566	0.00884786	-0.000941379	0	0	0.02	0.0246497	0.0244223	-0.205261	0	0	0	0	0	0	0.000682311	2.21752e-05	0.0143431	0.0241508	0.00196685	-0.206574	-0.201164	0.0651751	0.0486341	-0.0773779	0.0585109	-0.174898	0	0	-0	0.102147	-0.171948	-0	0.251257	0.004265	3.70083	-0.000308175	3.71563e-06	0.000978802	0.00105439	-0.000750298	-0.0093056	0.0361283	0.000698132	0	0	0	-700	700	-600	1700	-0	0	-0	-0	0	-0	250	1.2	0.2	177	-1.2	-1	2555	0.07	2428	2673	8	56579	
13.3271	-0	-2.02	248	23	2536	0	-0.102028	0.0340886	0.0303632	-0.0250857	0.00919171	-0.000635106	0	0	0.02	0.0246497	0.0244223	-0.205261	0	0	0	0	0	0	0.00068036	2.21525e-05	0.0143564	0.0241481	0.0019678	-0.206488	-0.201164	0.0651751	0.0486341	-0.0773779	0.0585109	-0.174898	0	0	-0	0.102147	-0.171948	-0	0.250367	0.0042499	3.72247	-0.00031505	3.4961e-06	0.00103078	0.00111217	-0.000769724	-0.0094755	0.0361283	0.000698132	0	0	0	-700	700	-600	1700	-0	0	-0	-0	0	-0	250	1.2	0.2	177	-1.2	-1	2555	0.07	2428	2673	8	56579	
13.3371	0.106426	-2.016	260	31	2521	0	-0.119124	0.0456005	0.0550692	-0.026278	0.00964813	-8.39177e-05	0.011112	-0.0091569	0.016	0.0359963	0.00472176	-0.229876	0	0	0	0	0	0	0.0115462	-0.00977981	0.0096101	0.0141223	-0.0180847	-0.230975	-0.233759	0.087324	0.0870294	-0.0831281	0.0503222	-0.174807	-0.00906322	-0.000234591	-2.08056e-05	0.102191	-0.171682	0	0.254614	0.0084998	3.72247	-0.000210885	-8.81784e-05	0.00104733	0.00107072	-0.000989114	-0.00971945	0.0354302	0.00139626	0	2.45235	0.635949	-700	700	-600	1700	-0	0	-0	-0	0	-0	250	1.2	0.2	177	-1.2	-1	2555	0.07	2429	2674	8	56579	
13.347	0.106426	-2.016	261	31	2501	0	-0.120566	0.0449948	0.0890598	-0.0274686	0.0100925	0.000795548	0.011112	-0.0091569	0.016	0.0369824	0.00449029	-0.263888	0	0	0	0	0	0	0.0116006	-0.00982992	0.00856271	0.0140422	-0.0181574	-0.264565	-0.234697	0.0866312	0.138223	-0.0835832	0.0494851	-0.174829	-0.00906322	-0.000234591	-2.08056e-05	0.102191	-0.171682	0	0.257347	0.0169002	3.75804	-0.000106123	-0.000180361	0.00106384	0.00102906	-0.00120973	-0.0103071	0.0347321	0.00279253	0	2.45235	0.635949	-700	700	-600	1700	-0	0	-0	-0	0	-0	250	1.2	0.2	177	-1.2	-1	2555	0.07	2429	2674	8	56579	
13.3569	0.106426	-2.016	261	31	2501	0	-0.120566	0.0449948	0.0890598	-0.0286682	0.0105402	0.00168169	0.011112	-0.0091569	0.016	0.0369824	0.00449029	-0.263888	0	0	0	0	0	0	0.011598	-0.00982631	0.00860164	0.0137263	-0.0179388	-0.264216	-0.234697	0.0866312	0.138223	-0.0835832	0.0494851	-0.174829	-0.00906322	-0.000234591	-2.08056e-05	0.102191	-0.171682	0	0.255266	0.0167636	3.80698	-0.00011048	-0.00017411	0.00112796	0.00108803	-0.00122895	-0.0106485	0.0347321	0.00279253	0	2.45235	0.635949	-700	700	-600	1700	-0	0	-0	-0	0	-0	250	1.2	0.2	177	-1.2	-1	2555	0.07	2429	2674	8	56579	
13.3671	0.106426	-2.016	262	31	2476	0	-0.12217	0.0444727	0.130085	-0.0299078	0.0109914	0.00300153	0.011112	-0.0091569	0.016	0.0380488	0.00409558	-0.304912	0	0	0	0	0	0	0.0115837	-0.00981387	0.00745606	0.0130994	-0.0175145	-0.303986	-0.235116	0.0857652	0.202215	-0.0841212	0.0485683	-0.174828	-0.00906322	-0.000234591	-2.08056e-05	0.102191	-0.171682	0	0.261546	0.026193	3.80698	-0.000115362	-0.000167387	0.00120226	0.00114755	-0.00124736	-0.0110624	0.0336849	0.00436332	0	2.45235	0.635949	-700	700	-600	1700	-0	0	-0	-0	0	-0	250	1.2	0.2	177	-1.2	-1	2555	0.07	2429	2674	8	56579	
13.377	0.106426	-2.016	262	31	2476	0	-0.12217	0.0444727	0.130085	-0.0311274	0.0114353	0.00430017	0.011112	-0.0091569	0.016	0.0380488	0.00409558	-0.304912	0	0	0	0	0	0	0.0115789	-0.00980825	0.00754972	0.013119	-0.0175422	-0.303024	-0.235116	0.0857652	0.202215	-0.0841212	0.0485683	-0.174828	-0.00906322	-0.000234591	-2.08056e-05	0.102191	-0.171682	0	0.258973	0.0259353	3.86605	-0.000120196	-0.00016073	0.00127583	0.00120994	-0.00126785	-0.0114779	0.0336849	0.00436332	0	2.45235	0.635949	-700	700	-600	1700	-0	0	-0	-0	0	-0	250	1.2	0.2	177	-1.2	-1	2555	0.07	2429	2674	8	56579	
13.3871	0.106426	-2.016	263	30	2450	0	-0.123712	0.043973	0.174193	-0.0323726	0.0118779	0.00605342	0.011112	-0.0091569	0.016	0.0389402	0.00369011	-0.348956	0	0	0	0	0	0	0.0115787	-0.00980747	0.00623213	0.0130896	-0.0175415	-0.346412	-0.235383	0.0821272	0.268767	-0.0847714	0.0476631	-0.174763	-0.00906322	-0.000234591	-2.08056e-05	0.102191	-0.171682	0	0.2683	0.0331971	3.86605	-0.000124908	-0.000154166	0.00136119	0.00127888	-0.00129269	-0.0119376	0.0321141	0.00558505	0	2.45235	0.635949	-700	700	-600	1700	-0	0	-0	-0	0	-0	250	1.2	0.2	177	-1.2	-1	2555	0.07	2429	2674	8	56579	
13.3971	0.106426	-2.016	264	30	2421	0	-0.125516	0.0434719	0.223189	-0.0336242	0.0123114	0.00827906	0.011112	-0.0091569	0.016	0.040258	0.00329634	-0.397957	0	0	0	0	0	0	0.0115779	-0.00980644	0.00478242	0.0130627	-0.017552	-0.394208	-0.2353	0.0811551	0.342998	-0.0852585	0.0467682	-0.174768	-0.00906322	-0.000234591	-2.08056e-05	0.102191	-0.171682	0	0.26851	0.037974	3.92956	-0.00012959	-0.000147636	0.00144591	0.00134787	-0.00131733	-0.0128999	0.0315905	0.00645772	0	2.45235	0.635949	-700	700	-600	1700	-0	0	-0	-0	0	-0	250	1.2	0.2	177	-1.2	-1	2555	0.07	2429	2674	8	56579	
13.407	0.106426	-2.016	264	30	2421	0	-0.125516	0.0434719	0.223189	-0.0348653	0.0127413	0.0104859	0.011112	-0.0091569	0.016	0.040258	0.00329634	-0.397957	0	0	0	0	0	0	0.0115773	-0.00980526	0.00478616	0.01304	-0.0175812	-0.393567	-0.2353	0.0811551	0.342998	-0.0852585	0.0467682	-0.174768	-0.00906322	-0.000234591	-2.08056e-05	0.102191	-0.171682	0	0.265288	0.0375184	4.0001	-0.000134287	-0.000141088	0.00154422	0.00141743	-0.00134207	-0.0134292	0.0315905	0.00645772	0	2.45235	0.635949	-700	700	-600	1700	-0	0	-0	-0	0	-0	250	1.2	0.2	177	-1.2	-1	2555	0.07	2429	2674	8	56579	
13.4171	0.106426	-2.016	266	30	2383	0	-0.127826	0.0432226	0.286114	-0.0361606	0.0131793	0.0133851	0.011112	-0.0091569	0.016	0.0421141	0.00249211	-0.460938	0	0	0	0	0	0	0.0115722	-0.00979993	0.00303973	0.0130833	-0.0176809	-0.4546	-0.236928	0.0798813	0.440266	-0.0857115	0.0457147	-0.174825	-0.00906322	-0.000234591	-2.08056e-05	0.102191	-0.171682	0	0.266301	0.0456304	4.0001	-0.000138949	-0.000134588	0.00165647	0.00148684	-0.00136657	-0.0141076	0.0314159	0.00785398	0	2.45235	0.635949	-700	700	-600	1700	-0	0	-0	-0	0	-0	250	1.2	0.2	177	-1.2	-1	2555	0.07	2429	2674	8	56579	
13.4271	0.106426	-2.016	267	30	2352	0	-0.129822	0.0429896	0.337016	-0.0374541	0.0136076	0.0167432	0.011112	-0.0091569	0.016	0.043655	0.00155724	-0.511919	0	0	0	0	0	0	0.0115685	-0.00979524	0.00163503	0.0131143	-0.0177105	-0.504266	-0.236472	0.0788421	0.519616	-0.0861671	0.0445468	-0.174902	-0.00906322	-0.000234591	-2.08056e-05	0.102191	-0.171682	0	0.262149	0.0539023	4.0907	-0.00014359	-0.000128121	0.00176833	0.00155627	-0.0013907	-0.0152989	0.0314159	0.00942478	0	2.45235	0.635949	-700	700	-600	1700	-0	0	-0	-0	0	-0	250	1.2	0.2	177	-1.2	-1	2555	0.07	2429	2674	8	56579	
13.4371	0.106426	-2.016	267	30	2352	0	-0.129822	0.0429896	0.337016	-0.0387517	0.0140373	0.0201116	0.011112	-0.0091569	0.016	0.043655	0.00155724	-0.511919	0	0	0	0	0	0	0.0115672	-0.00979327	0.00166539	0.0130889	-0.01772	-0.503328	-0.236472	0.0788421	0.519616	-0.0861671	0.0445468	-0.174902	-0.00906322	-0.000234591	-2.08056e-05	0.102191	-0.171682	0	0.258789	0.0532116	4.16399	-0.000148192	-0.000121692	0.0018979	0.00162542	-0.00141388	-0.0158828	0.0314159	0.00942478	0	2.45235	0.635949	-700	700	-600	1700	-0	0	-0	-0	0	-0	250	1.2	0.2	177	-1.2	-1	2555	0.07	2429	2674	8	56579	
13.447	0.106426	-2.016	269	29	2319	0	-0.131988	0.042793	0.391918	-0.0400696	0.0144646	0.024025	0.011112	-0.0091569	0.016	0.0454202	0.00070495	-0.566887	0	0	0	0	0	0	0.0115643	-0.00979032	0.000121209	0.0130697	-0.0177588	-0.555657	-0.238333	0.0751449	0.604086	-0.0865677	0.043498	-0.174968	-0.00906322	-0.000234591	-2.08056e-05	0.102191	-0.171682	0	0.257805	0.0591238	4.16399	-0.000152754	-0.000115312	0.00204148	0.00169424	-0.00143676	-0.0165198	0.0315905	0.010472	0	2.45235	0.635949	-700	700	-600	1700	-0	0	-0	-0	0	-0	250	1.2	0.2	177	-1.2	-1	2555	0.07	2429	2674	8	56579	
13.4571	0.106426	-2.016	270	29	2290	0	-0.134088	0.0425132	0.440801	-0.0414138	0.0148908	0.028444	0.011112	-0.0091569	0.016	0.0471118	-0.000165151	-0.615849	0	0	0	0	0	0	0.0115638	-0.00978941	-0.00131729	0.0130604	-0.0177734	-0.60313	-0.237909	0.0742051	0.678317	-0.0869762	0.042348	-0.175048	-0.00906322	-0.000234591	-2.08056e-05	0.102191	-0.171682	0	0.252254	0.0641253	4.24304	-0.00015732	-0.000108929	0.00218527	0.00176357	-0.00145963	-0.01766	0.0319395	0.0115192	0	2.45235	0.635949	-700	700	-600	1700	-0	0	-0	-0	0	-0	250	1.2	0.2	177	-1.2	-1	2555	0.07	2429	2674	8	56579	
13.467	0.106426	-2.016	270	29	2290	0	-0.134088	0.0425132	0.440801	-0.0427501	0.0153145	0.032837	0.011112	-0.0091569	0.016	0.0471118	-0.000165151	-0.615849	0	0	0	0	0	0	0.0115593	-0.00978352	-0.00114826	0.0130838	-0.0178243	-0.602425	-0.237909	0.0742051	0.678317	-0.0869762	0.042348	-0.175048	-0.00906322	-0.000234591	-2.08056e-05	0.102191	-0.171682	0	0.249065	0.0633146	4.31343	-0.000161835	-0.000102607	0.00234376	0.00183274	-0.001482	-0.0182723	0.0319395	0.0115192	0	2.45235	0.635949	-700	700	-600	1700	-0	0	-0	-0	0	-0	250	1.2	0.2	177	-1.2	-1	2555	0.07	2429	2674	8	56579	
13.4771	0.106426	-2.016	272	29	2257	0	-0.136509	0.0424612	0.496655	-0.0441186	0.0157401	0.037816	0.011112	-0.0091569	0.016	0.0491804	-0.0012359	-0.671795	0	0	0	0	0	0	0.0115574	-0.00978259	-0.0027536	0.0130433	-0.0179051	-0.656029	-0.239521	0.0731358	0.762787	-0.0873288	0.0412253	-0.17514	-0.00906322	-0.000234591	-2.08056e-05	0.102191	-0.171682	0	0.24619	0.0690702	4.31343	-0.000166353	-9.62804e-05	0.00251696	0.00190215	-0.00150427	-0.0189711	0.0324631	0.0125664	0	2.45235	0.635949	-700	700	-600	1700	-0	0	-0	-0	0	-0	250	1.2	0.2	177	-1.2	-1	2555	0.07	2429	2674	8	56579	
13.4871	0.106426	-2.016	273	29	2230	0	-0.138523	0.0422332	0.54054	-0.0455086	0.0161639	0.0432397	0.011112	-0.0091569	0.016	0.0507762	-0.00223283	-0.715755	0	0	0	0	0	0	0.0115548	-0.00977921	-0.00394547	0.0130656	-0.0179282	-0.698678	-0.239145	0.0722609	0.831898	-0.0877469	0.0400004	-0.175215	-0.00906322	-0.000234591	-2.08056e-05	0.102191	-0.171682	0	0.240699	0.0737309	4.39385	-0.000170823	-9.00192e-05	0.00268831	0.00197125	-0.00152601	-0.020116	0.0328122	0.0136136	0	2.45235	0.635949	-700	700	-600	1700	-0	0	-0	-0	0	-0	250	1.2	0.2	177	-1.2	-1	2555	0.07	2429	2674	8	56579	
13.4969	0.106426	-2.016	273	29	2230	0	-0.138523	0.0422332	0.54054	-0.0468739	0.0165801	0.0485673	0.011112	-0.0091569	0.016	0.0507762	-0.00223283	-0.715755	0	0	0	0	0	0	0.0115532	-0.00977682	-0.00387979	0.0130469	-0.0179381	-0.697867	-0.239145	0.0722609	0.831898	-0.0877469	0.0400004	-0.175215	-0.00906322	-0.000234591	-2.08056e-05	0.102191	-0.171682	0	0.237891	0.0728707	4.45703	-0.000175279	-8.3759e-05	0.00287594	0.00204086	-0.00154697	-0.020726	0.0328122	0.0136136	0	2.45235	0.635949	-700	700	-600	1700	-0	0	-0	-0	0	-0	250	1.2	0.2	177	-1.2	-1	2555	0.07	2429	2674	8	56579	
13.507	0.106525	-1.992	240	50	2208	0	-0.0907603	0.0718469	0.578156	-0.0477822	0.0172992	0.0543535	0.011112	-0.00121851	-0.008	0.00194368	-0.0324245	-0.752963	0	0	0	0	0	0	0.0100494	-0.000895324	-0.0289619	-0.0370269	0.0120604	-0.731533	-0.155416	0.123352	0.888211	-0.0888166	0.0394225	-0.174807	-0.0091518	-3.14929e-05	-2.79566e-06	0.103094	-0.171137	0	0.234158	0.0784758	4.45703	-0.000179711	1.9193e-06	0.00283536	0.00160984	-0.00126746	-0.0212697	0.0335103	0.0146608	0	3.03237	0.109004	-700	700	-600	1700	-0	0	-0	-0	0	-0	250	1.2	0.2	177	-1.2	-1	2555	0.07	2431	2675	8	56579	
13.5178	0.106525	-1.992	242	50	2178	0	-0.0939927	0.0726251	0.62688	-0.0488007	0.0180862	0.0611464	0.011112	-0.00121851	-0.008	0.00494956	-0.0345248	-0.801865	0	0	0	0	0	0	0.0100512	-0.000854176	-0.0303465	-0.037036	0.0120628	-0.779345	-0.15817	0.121676	0.965002	-0.0890431	0.0381003	-0.174985	-0.0091518	-3.14929e-05	-2.79566e-06	0.103094	-0.171137	0	0.224397	0.0850794	4.51119	-0.000184111	8.72599e-05	0.00279428	0.0011806	-0.00098887	-0.022308	0.0349066	0.016057	0	3.03237	0.109004	-700	700	-600	1700	-0	0	-0	-0	0	-0	250	1.2	0.2	177	-1.2	-1	2555	0.07	2431	2675	8	56579	
13.5269	0.106525	-1.992	242	50	2178	0	-0.0939927	0.0726251	0.62688	-0.0496604	0.0187504	0.0668798	0.011112	-0.00121851	-0.008	0.00494956	-0.0345248	-0.801865	0	0	0	0	0	0	0.010057	-0.000855981	-0.0302287	-0.0361905	0.0125687	-0.778868	-0.15817	0.121676	0.965002	-0.0890431	0.0381003	-0.174985	-0.0091518	-3.14929e-05	-2.79566e-06	0.103094	-0.171137	0	0.221426	0.083953	4.58135	-0.000173521	8.4039e-05	0.00300318	0.00125062	-0.0010094	-0.0230103	0.0349066	0.016057	0	3.03237	0.109004	-700	700	-600	1700	-0	0	-0	-0	0	-0	250	1.2	0.2	177	-1.2	-1	2555	0.07	2431	2675	8	56579	
13.537	0.106525	-1.992	244	51	2160	0	-0.0971051	0.0731648	0.657556	-0.0506416	0.0194897	0.0735244	0.011112	-0.00121851	-0.008	0.00800445	-0.0362795	-0.832772	0	0	0	0	0	0	0.0100608	-0.000832603	-0.0316781	-0.0346672	0.0136667	-0.807302	-0.161688	0.123084	1.01108	-0.0891006	0.0368853	-0.175216	-0.0091518	-3.14929e-05	-2.79566e-06	0.103094	-0.171137	0	0.210484	0.0903401	4.58135	-0.000162665	8.03106e-05	0.00323186	0.00132263	-0.00103051	-0.0235594	0.037001	0.0172788	0	3.03237	0.109004	-700	700	-600	1700	-0	0	-0	-0	0	-0	250	1.2	0.2	177	-1.2	-1	2555	0.07	2431	2675	8	56579	
13.547	0.106525	-1.992	244	51	2160	0	-0.0971051	0.0731648	0.657556	-0.0516103	0.0202196	0.0800842	0.011112	-0.00121851	-0.008	0.00800445	-0.0362795	-0.832772	0	0	0	0	0	0	0.0100888	-0.00084379	-0.0309653	-0.0346051	0.0135434	-0.80647	-0.161688	0.123084	1.01108	-0.0891006	0.0368853	-0.175216	-0.0091518	-3.14929e-05	-2.79566e-06	0.103094	-0.171137	0	0.208706	0.089577	4.62551	-0.000152119	7.66865e-05	0.00345408	0.00138451	-0.00105619	-0.0241005	0.037001	0.0172788	0	3.03237	0.109004	-700	700	-600	1700	-0	0	-0	-0	0	-0	250	1.2	0.2	177	-1.2	-1	2555	0.07	2431	2675	8	56579	
13.5571	0.106525	-1.992	247	51	2142	0	-0.100534	0.0736827	0.688203	-0.0526205	0.02096	0.0869993	0.011112	-0.00121851	-0.008	0.0113694	-0.0381347	-0.863662	0	0	0	0	0	0	0.0100909	-0.000844518	-0.0318582	-0.034651	0.0135657	-0.836971	-0.167518	0.122058	1.05715	-0.0891641	0.035548	-0.17546	-0.0091518	-3.14929e-05	-2.79566e-06	0.103094	-0.171137	0	0.196952	0.09591	4.62551	-0.000141577	7.28163e-05	0.00369155	0.00143132	-0.00109296	-0.0246692	0.0392699	0.0185005	0	3.03237	0.109004	-700	700	-600	1700	-0	0	-0	-0	0	-0	250	1.2	0.2	177	-1.2	-1	2555	0.07	2431	2675	8	56579	
13.5671	0.106525	-1.992	249	51	2129	0	-0.10321	0.0739399	0.708929	-0.0536528	0.0216995	0.09409	0.011112	-0.00121851	-0.008	0.013964	-0.0395216	-0.884572	0	0	0	0	0	0	0.0101233	-0.000856612	-0.0316204	-0.034578	0.0134846	-0.857993	-0.171257	0.121317	1.09043	-0.0892463	0.0344184	-0.175643	-0.0091518	-3.14929e-05	-2.79566e-06	0.103094	-0.171137	0	0.18631	0.0995788	4.66964	-0.000131609	6.91656e-05	0.00391528	0.00147618	-0.00112749	-0.0254342	0.0410152	0.0193732	0	3.03237	0.109004	-700	700	-600	1700	-0	0	-0	-0	0	-0	250	1.2	0.2	177	-1.2	-1	2555	0.07	2431	2675	8	56579	
13.577	0.106525	-1.992	249	51	2129	0	-0.10321	0.0739399	0.708929	-0.0546816	0.0224366	0.101157	0.011112	-0.00121851	-0.008	0.013964	-0.0395216	-0.884572	0	0	0	0	0	0	0.0100985	-0.000847273	-0.0322808	-0.0347778	0.0135818	-0.856666	-0.171257	0.121317	1.09043	-0.0892463	0.0344184	-0.175643	-0.0091518	-3.14929e-05	-2.79566e-06	0.103094	-0.171137	0	0.185229	0.0990006	4.69948	-0.000121354	6.54096e-05	0.00415489	0.00152289	-0.0011633	-0.0259166	0.0410152	0.0193732	0	3.03237	0.109004	-700	700	-600	1700	-0	0	-0	-0	0	-0	250	1.2	0.2	177	-1.2	-1	2555	0.07	2431	2675	8	56579	
13.5872	0.106525	-1.992	251	52	2114	0	-0.105981	0.0745494	0.733641	-0.0557542	0.0231911	0.108582	0.011112	-0.00121851	-0.008	0.0165308	-0.0415421	-0.909451	0	0	0	0	0	0	0.0101051	-0.000850677	-0.0328103	-0.0349105	0.0135377	-0.880569	-0.174773	0.122824	1.12882	-0.08945	0.0330074	-0.17581	-0.0091518	-3.14929e-05	-2.79566e-06	0.103094	-0.171137	0	0.178098	0.106135	4.69948	-0.000111459	6.17875e-05	0.0043913	0.00156871	-0.00119817	-0.0264371	0.0424115	0.0207694	0	3.03237	0.109004	-700	700	-600	1700	-0	0	-0	-0	0	-0	250	1.2	0.2	177	-1.2	-1	2555	0.07	2431	2675	8	56579	
13.5969	0.106525	-1.992	252	52	2105	0	-0.108052	0.074891	0.749423	-0.0568114	0.0239238	0.115914	0.011112	-0.00121851	-0.008	0.0184131	-0.0430685	-0.925355	0	0	0	0	0	0	0.0101094	-0.000852856	-0.033152	-0.0349791	0.0135183	-0.895981	-0.176379	0.122301	1.15186	-0.0896385	0.0318225	-0.175933	-0.0091518	-3.14929e-05	-2.79566e-06	0.103094	-0.171137	0	0.171546	0.110709	4.73506	-0.000101318	5.80728e-05	0.00463425	0.00161652	-0.00123401	-0.0271309	0.0434587	0.0218166	0	3.03237	0.109004	-700	700	-600	1700	-0	0	-0	-0	0	-0	250	1.2	0.2	177	-1.2	-1	2555	0.07	2431	2675	8	56579	
13.6069	0.106525	-1.992	252	52	2105	0	-0.108052	0.074891	0.749423	-0.0578927	0.0246732	0.123414	0.011112	-0.00121851	-0.008	0.0184131	-0.0430685	-0.925355	0	0	0	0	0	0	0.010112	-0.000853793	-0.0330936	-0.035022	0.0135387	-0.895562	-0.176379	0.122301	1.15186	-0.0896385	0.0318225	-0.175933	-0.0091518	-3.14929e-05	-2.79566e-06	0.103094	-0.171137	0	0.170778	0.110213	4.75779	-9.12191e-05	5.43833e-05	0.00488311	0.00166577	-0.0012695	-0.0275866	0.0434587	0.0218166	0	3.03237	0.109004	-700	700	-600	1700	-0	0	-0	-0	0	-0	250	1.2	0.2	177	-1.2	-1	2555	0.07	2431	2675	8	56579	
13.617	0.106525	-1.992	254	52	2097	0	-0.110169	0.0753342	0.763176	-0.0589954	0.0254273	0.131052	0.011112	-0.00121851	-0.008	0.0202865	-0.0449494	-0.939238	0	0	0	0	0	0	0.0101232	-0.000857874	-0.0331781	-0.0350654	0.0135335	-0.908852	-0.180393	0.121836	1.17234	-0.0898829	0.0303847	-0.176062	-0.0091518	-3.14929e-05	-2.79566e-06	0.103094	-0.171137	0	0.165491	0.117266	4.75779	-8.12351e-05	5.07423e-05	0.00513356	0.00171535	-0.00130453	-0.0280249	0.0445059	0.0232129	0	3.03237	0.109004	-700	700	-600	1700	-0	0	-0	-0	0	-0	250	1.2	0.2	177	-1.2	-1	2555	0.07	2431	2675	8	56579	
13.627	0.106525	-1.992	255	52	2091	0	-0.111843	0.0755493	0.771981	-0.0601242	0.0261898	0.138844	0.011112	-0.00121851	-0.008	0.0217583	-0.0463748	-0.948144	0	0	0	0	0	0	0.0101264	-0.000859363	-0.0333511	-0.0350993	0.0135243	-0.917401	-0.182212	0.121488	1.18769	-0.090085	0.0291745	-0.176163	-0.0091518	-3.14929e-05	-2.79566e-06	0.103094	-0.171137	0	0.160453	0.122075	4.77759	-7.12642e-05	4.71058e-05	0.00538376	0.00176543	-0.00133981	-0.0285577	0.0453786	0.0242601	0	3.03237	0.109004	-700	700	-600	1700	-0	0	-0	-0	0	-0	250	1.2	0.2	177	-1.2	-1	2555	0.07	2431	2675	8	56579	
13.637	0.106525	-1.992	255	52	2091	0	-0.111843	0.0755493	0.771981	-0.0612424	0.0269451	0.146562	0.011112	-0.00121851	-0.008	0.0217583	-0.0463748	-0.948144	0	0	0	0	0	0	0.0101351	-0.000862547	-0.0331223	-0.0351144	0.0135025	-0.917367	-0.182212	0.121488	1.18769	-0.090085	0.0291745	-0.176163	-0.0091518	-3.14929e-05	-2.79566e-06	0.103094	-0.171137	0	0.160048	0.121767	4.79027	-6.14421e-05	4.35235e-05	0.00563386	0.00181574	-0.00137491	-0.0289565	0.0453786	0.0242601	0	3.03237	0.109004	-700	700	-600	1700	-0	0	-0	-0	0	-0	250	1.2	0.2	177	-1.2	-1	2555	0.07	2431	2675	8	56579	
13.6479	0.106525	-1.992	256	52	2088	0	-0.113922	0.075484	0.776723	-0.0624815	0.0277662	0.15501	0.011112	-0.00121851	-0.008	0.0237456	-0.047563	-0.953042	0	0	0	0	0	0	0.0101284	-0.000860645	-0.0334256	-0.035263	0.0135238	-0.92148	-0.184282	0.121313	1.19537	-0.0901764	0.027921	-0.17632	-0.0091518	-3.14929e-05	-2.79566e-06	0.103094	-0.171137	0	0.152167	0.126146	4.79027	-5.15504e-05	3.99189e-05	0.0058883	0.00186692	-0.00141028	-0.0293238	0.0469494	0.0251327	0	3.03237	0.109004	-700	700	-600	1700	-0	0	-0	-0	0	-0	250	1.2	0.2	177	-1.2	-1	2555	0.07	2431	2675	8	56579	
13.657	0.106525	-1.992	257	52	2087	0	-0.115598	0.0754234	0.779505	-0.0635267	0.0284481	0.162058	0.011112	-0.00121851	-0.008	0.0253035	-0.0486906	-0.955949	0	0	0	0	0	0	0.0101331	-0.000862648	-0.0333768	-0.0352928	0.0135122	-0.924223	-0.186525	0.121255	1.19793	-0.0902947	0.0267328	-0.176443	-0.0091518	-3.14929e-05	-2.79566e-06	0.103094	-0.171137	0	0.145839	0.130348	4.79709	-4.17485e-05	3.63474e-05	0.00614036	0.00191823	-0.00144542	-0.0297215	0.0481711	0.0260054	0	3.03237	0.109004	-700	700	-600	1700	-0	0	-0	-0	0	-0	250	1.2	0.2	177	-1.2	-1	2555	0.07	2431	2675	8	56579	
13.667	0.106525	-1.992	257	52	2087	0	-0.115598	0.0754234	0.779505	-0.0646863	0.0292047	0.169878	0.011112	-0.00121851	-0.008	0.0253035	-0.0486906	-0.955949	0	0	0	0	0	0	0.0101089	-0.000853668	-0.0340553	-0.0354669	0.0136123	-0.923149	-0.186525	0.121255	1.19793	-0.0902947	0.0267328	-0.176443	-0.0091518	-3.14929e-05	-2.79566e-06	0.103094	-0.171137	0	0.145722	0.130244	4.8011	-3.15956e-05	3.26533e-05	0.00640282	0.00197256	-0.0014818	-0.0300881	0.0481711	0.0260054	0	3.03237	0.109004	-700	700	-600	1700	-0	0	-0	-0	0	-0	250	1.2	0.2	177	-1.2	-1	2555	0.07	2431	2675	8	56579	
13.677	0.106525	-1.992	258	52	2086	0	-0.116705	0.0751595	0.781383	-0.0658557	0.0299578	0.177707	0.011112	-0.00121851	-0.008	0.0261647	-0.0496378	-0.957879	0	0	0	0	0	0	0.0101486	-0.000868609	-0.0330049	-0.0353328	0.0134769	-0.926257	-0.188765	0.121197	1.20049	-0.0905407	0.0255217	-0.176497	-0.0091518	-3.14929e-05	-2.79566e-06	0.103094	-0.171137	0	0.1431	0.133739	4.8011	-2.18339e-05	2.91046e-05	0.00665587	0.00202534	-0.00151682	-0.0304349	0.0486947	0.0267035	0	3.03237	0.109004	-700	700	-600	1700	-0	0	-0	-0	0	-0	250	1.2	0.2	177	-1.2	-1	2555	0.07	2431	2675	8	56579	
13.687	0.106525	-1.992	258	52	2086	0	-0.116705	0.0751595	0.781383	-0.0670176	0.0307061	0.185487	0.011112	-0.00121851	-0.008	0.0261647	-0.0496378	-0.957879	0	0	0	0	0	0	0.0101518	-0.000870025	-0.0329059	-0.0353784	0.0134763	-0.926201	-0.188765	0.121197	1.20049	-0.0905407	0.0255217	-0.176497	-0.0091518	-3.14929e-05	-2.79566e-06	0.103094	-0.171137	0	0.143023	0.133667	4.8038	-1.18198e-05	2.54623e-05	0.00691599	0.00207992	-0.00155289	-0.0307928	0.0486947	0.0267035	0	3.03237	0.109004	-700	700	-600	1700	-0	0	-0	-0	0	-0	250	1.2	0.2	177	-1.2	-1	2555	0.07	2431	2675	8	56579	
13.697	0.106525	-1.992	259	52	2086	0	-0.117729	0.0749057	0.780245	-0.0681956	0.0314556	0.193294	0.011112	-0.00121851	-0.008	0.0270204	-0.0504778	-0.95681	0	0	0	0	0	0	0.0101853	-0.000882337	-0.0319539	-0.0352351	0.0133685	-0.926234	-0.191094	0.121197	1.20049	-0.0907083	0.0244278	-0.176565	-0.0091518	-3.14929e-05	-2.79566e-06	0.103094	-0.171137	0	0.13953	0.137161	4.8038	-2.47733e-06	2.2069e-05	0.00715848	0.00213164	-0.0015866	-0.0311007	0.0493928	0.0274017	0	3.03237	0.109004	-700	700	-600	1700	-0	0	-0	-0	0	-0	250	1.2	0.2	177	-1.2	-1	2555	0.07	2431	2675	8	56579	
13.707	0.106525	-1.992	259	51	2089	0	-0.118534	0.0740056	0.775166	-0.069378	0.0321938	0.201026	0.011112	-0.00121851	-0.008	0.0276721	-0.0505339	-0.951782	0	0	0	0	0	0	0.0101587	-0.000872761	-0.0325335	-0.0354459	0.0134747	-0.920112	-0.191369	0.119038	1.19281	-0.0908614	0.0234717	-0.176616	-0.0091518	-3.14929e-05	-2.79566e-06	0.103094	-0.171137	0	0.13608	0.137206	4.80217	7.12704e-06	1.85832e-05	0.00740761	0.00218543	-0.00162138	-0.0313687	0.0500909	0.0274017	0	3.03237	0.109004	-700	700	-600	1700	-0	0	-0	-0	0	-0	250	1.2	0.2	177	-1.2	-1	2555	0.07	2431	2675	8	56579	
13.717	0.106525	-1.992	259	51	2089	0	-0.118534	0.0740056	0.775166	-0.0705733	0.0329401	0.208843	0.011112	-0.00121851	-0.008	0.0276721	-0.0505339	-0.951782	0	0	0	0	0	0	0.0101642	-0.000874764	-0.0323896	-0.0354591	0.0134682	-0.92017	-0.191369	0.119038	1.19281	-0.0908614	0.0234717	-0.176616	-0.0091518	-3.14929e-05	-2.79566e-06	0.103094	-0.171137	0	0.136279	0.137406	4.79485	1.6388e-05	1.52235e-05	0.007647	0.00223775	-0.00165504	-0.0316362	0.0500909	0.0274017	0	3.03237	0.109004	-700	700	-600	1700	-0	0	-0	-0	0	-0	250	1.2	0.2	177	-1.2	-1	2555	0.07	2431	2675	8	56579	
13.727	0.106525	-1.992	260	51	2095	0	-0.118871	0.0732319	0.76611	-0.07176	0.0336712	0.216491	0.011112	-0.00121851	-0.008	0.0277947	-0.0508145	-0.942752	0	0	0	0	0	0	0.0101698	-0.000877048	-0.031956	-0.0354943	0.0134378	-0.911325	-0.194258	0.11938	1.17746	-0.0910763	0.0224174	-0.176642	-0.0091518	-3.14929e-05	-2.79566e-06	0.103094	-0.171137	0	0.134529	0.139156	4.79485	2.59014e-05	1.17733e-05	0.00789182	0.0022921	-0.00168972	-0.0318746	0.05044	0.0277507	0	3.03237	0.109004	-700	700	-600	1700	-0	0	-0	-0	0	-0	250	1.2	0.2	177	-1.2	-1	2555	0.07	2431	2675	8	56579	
13.7371	0.424133	-1.889	310	1	2096	0	-0.201151	-0.11953	0.763599	-0.0737795	0.0324711	0.224158	0.044448	-0.0128124	-0.111	0.0978725	0.115185	-0.934815	0	0	0	0	0	0	0.0490848	-0.0128305	-0.135199	0.144662	0.0033964	-0.90234	-0.311323	0.00234209	1.1749	-0.103279	-0.00434524	-0.171215	-0.037241	-0.000341291	-0.000120627	0.105366	-0.165864	0	0.135756	0.139518	4.78181	0.000369482	-0.000107862	0.00710401	0.00415071	-0.00182469	-0.0320232	0.0502655	0.0277507	0	2.86094	0.276979	-700	700	-600	1700	-0	0	-0	-0	0	-0	250	1.2	0.2	177	-1.2	-1	2555	0.07	2433	2678	8	56579	
13.747	0.424133	-1.889	317	-49	2096	0	-0.201151	-0.11953	0.763599	-0.0757848	0.0312795	0.23177	0.044448	-0.0128124	-0.111	0.0978725	0.115185	-0.934815	0	0	0	0	0	0	0.0492531	-0.0128903	-0.135574	0.144823	0.00338363	-0.902545	-0.327688	-0.114754	1.1749	-0.103279	-0.00434524	-0.171215	-0.037241	-0.000341291	-0.000120627	0.105366	-0.165864	0	0.135854	0.139618	4.7782	0.000712745	-0.000227383	0.00631247	0.00600825	-0.00195926	-0.0322603	0.0502655	0.0277507	0	2.86094	0.276979	-700	700	-600	1700	-0	0	-0	-0	0	-0	250	1.2	0.2	177	-1.2	-1	2555	0.07	2433	2678	8	56579	
13.757	0.424133	-1.889	316	-84	2103	0	-0.198719	-0.121355	0.751865	-0.0777637	0.030071	0.239257	0.044448	-0.0128124	-0.111	0.0953222	0.115979	-0.92298	0	0	0	0	0	0	0.0492385	-0.01289	-0.135155	0.143583	0.00222028	-0.890823	-0.326437	-0.197348	1.15698	-0.103397	-0.00537659	-0.171114	-0.037241	-0.000341291	-0.000120627	0.105366	-0.165864	0	0.139365	0.139618	4.7782	0.000666211	-0.000227202	0.00655532	0.00606182	-0.00199334	-0.0324676	0.0495674	0.0277507	0	2.86094	0.276979	-700	700	-600	1700	-0	0	-0	-0	0	-0	250	1.2	0.2	177	-1.2	-1	2555	0.07	2433	2678	8	56579	
13.7669	0.424133	-1.889	314	-86	2111	0	-0.196573	-0.123244	0.739034	-0.0797208	0.028844	0.246615	0.044448	-0.0128124	-0.111	0.0931261	0.116923	-0.910086	0	0	0	0	0	0	0.0491625	-0.0129249	-0.13454	0.141111	-0.00130312	-0.878017	-0.32297	-0.202813	1.1365	-0.103447	-0.00632054	-0.171052	-0.037241	-0.000341291	-0.000120627	0.105366	-0.165864	0	0.141595	0.139206	4.7613	0.000618173	-0.000226423	0.006801	0.00611358	-0.00202717	-0.0325422	0.0492183	0.0275762	0	2.86094	0.276979	-700	700	-600	1700	-0	0	-0	-0	0	-0	250	1.2	0.2	177	-1.2	-1	2555	0.07	2433	2678	8	56579	
13.7771	0.424133	-1.889	314	-86	2111	0	-0.196573	-0.123244	0.739034	-0.0817091	0.0275974	0.25409	0.044448	-0.0128124	-0.111	0.0931261	0.116923	-0.910086	0	0	0	0	0	0	0.0491301	-0.0129596	-0.134397	0.14081	-0.00446879	-0.878244	-0.32297	-0.202813	1.1365	-0.103447	-0.00632054	-0.171052	-0.037241	-0.000341291	-0.000120627	0.105366	-0.165864	0	0.142113	0.139716	4.74283	0.000570321	-0.000225649	0.00704229	0.00617768	-0.00204935	-0.0327337	0.0492183	0.0275762	0	2.86094	0.276979	-700	700	-600	1700	-0	0	-0	-0	0	-0	250	1.2	0.2	177	-1.2	-1	2555	0.07	2433	2678	8	56579	
13.7878	0.424133	-1.889	313	-87	2118	0	-0.194296	-0.124636	0.727325	-0.0837919	0.0262613	0.261887	0.044448	-0.0128124	-0.111	0.0907784	0.117213	-0.89829	0	0	0	0	0	0	0.049095	-0.0129834	-0.133852	0.140906	-0.00615543	-0.866923	-0.321678	-0.205851	1.11858	-0.103518	-0.00742221	-0.170965	-0.037241	-0.000341291	-0.000120627	0.105366	-0.165864	0	0.144765	0.142368	4.74283	0.000523359	-0.000224528	0.00727677	0.00626623	-0.00203637	-0.0329328	0.0486947	0.0280998	0	2.86094	0.276979	-700	700	-600	1700	-0	0	-0	-0	0	-0	250	1.2	0.2	177	-1.2	-1	2555	0.07	2433	2678	8	56579	
13.7971	0.424133	-1.889	311	-88	2128	0	-0.192003	-0.126186	0.710559	-0.0855753	0.0250893	0.268487	0.044448	-0.0128124	-0.111	0.0884513	0.11777	-0.881458	0	0	0	0	0	0	0.0490935	-0.0129849	-0.133358	0.140937	-0.00628945	-0.850168	-0.31845	-0.209199	1.09299	-0.103552	-0.00841632	-0.170898	-0.037241	-0.000341291	-0.000120627	0.105366	-0.165864	0	0.147021	0.144615	4.72597	0.000476493	-0.000223055	0.00751097	0.00635821	-0.00199164	-0.0329604	0.0483456	0.0284489	0	2.86094	0.276979	-700	700	-600	1700	-0	0	-0	-0	0	-0	250	1.2	0.2	177	-1.2	-1	2555	0.07	2433	2678	8	56579	
13.807	0.424133	-1.889	311	-88	2128	0	-0.192003	-0.126186	0.710559	-0.0874769	0.0238395	0.275524	0.044448	-0.0128124	-0.111	0.0884513	0.11777	-0.881458	0	0	0	0	0	0	0.049179	-0.0129872	-0.133895	0.140714	-0.00646885	-0.8495	-0.31845	-0.209199	1.09299	-0.103552	-0.00841632	-0.170898	-0.037241	-0.000341291	-0.000120627	0.105366	-0.165864	0	0.147719	0.145302	4.70183	0.000428798	-0.0002213	0.00774551	0.00645155	-0.00192846	-0.0331048	0.0483456	0.0284489	0	2.86094	0.276979	-700	700	-600	1700	-0	0	-0	-0	0	-0	250	1.2	0.2	177	-1.2	-1	2555	0.07	2433	2678	8	56579	
13.817	0.424133	-1.889	309	-89	2136	0	-0.189924	-0.128194	0.696671	-0.0893911	0.0225475	0.282546	0.044448	-0.0128124	-0.111	0.0863776	0.118864	-0.867525	0	0	0	0	0	0	0.0490602	-0.0129845	-0.132793	0.140997	-0.006421	-0.836889	-0.314881	-0.21237	1.07251	-0.103546	-0.00933032	-0.170854	-0.037241	-0.000341291	-0.000120627	0.105366	-0.165864	0	0.14861	0.14352	4.70183	0.000382153	-0.000219568	0.00797002	0.00654255	-0.00186531	-0.0332739	0.0481711	0.0280998	0	2.86094	0.276979	-700	700	-600	1700	-0	0	-0	-0	0	-0	250	1.2	0.2	177	-1.2	-1	2555	0.07	2433	2678	8	56579	
13.827	0.424133	-1.889	309	-89	2136	0	-0.189924	-0.128194	0.696671	-0.0912725	0.0212776	0.289447	0.044448	-0.0128124	-0.111	0.0863776	0.118864	-0.867525	0	0	0	0	0	0	0.0490073	-0.0129837	-0.132509	0.141138	-0.00643764	-0.837651	-0.314881	-0.21237	1.07251	-0.103546	-0.00933032	-0.170854	-0.037241	-0.000341291	-0.000120627	0.105366	-0.165864	0	0.149192	0.144082	4.68183	0.000334981	-0.000217825	0.00819829	0.00663514	-0.00180081	-0.0334483	0.0481711	0.0280998	0	2.86094	0.276979	-700	700	-600	1700	-0	0	-0	-0	0	-0	250	1.2	0.2	177	-1.2	-1	2555	0.07	2433	2678	8	56579	
13.837	0.424133	-1.889	308	-91	2147	0	-0.188313	-0.131162	0.678434	-0.0931724	0.0199543	0.296292	0.044448	-0.0128124	-0.111	0.0849266	0.121213	-0.84935	0	0	0	0	0	0	0.0488927	-0.0129803	-0.131333	0.141386	-0.00632822	-0.820564	-0.314108	-0.218259	1.04435	-0.103386	-0.00994945	-0.170916	-0.037241	-0.000341291	-0.000120627	0.105366	-0.165864	0	0.145613	0.135134	4.68183	0.00028998	-0.000216147	0.00841093	0.00672298	-0.00173816	-0.0335665	0.0488692	0.0263545	0	2.86094	0.276979	-700	700	-600	1700	-0	0	-0	-0	0	-0	250	1.2	0.2	177	-1.2	-1	2555	0.07	2433	2678	8	56579	
13.847	0.424133	-1.889	307	-94	2160	0	-0.186988	-0.134718	0.657951	-0.0950389	0.0186095	0.30286	0.044448	-0.0128124	-0.111	0.0838563	0.124386	-0.828998	0	0	0	0	0	0	0.0489599	-0.0129829	-0.131146	0.14127	-0.00651494	-0.800292	-0.3136	-0.226815	1.01108	-0.103132	-0.0103318	-0.171047	-0.037241	-0.000341291	-0.000120627	0.105366	-0.165864	0	0.140064	0.121437	4.65558	0.000244555	-0.00021444	0.00862522	0.00681127	-0.00167402	-0.0334803	0.0500909	0.0235619	0	2.86094	0.276979	-700	700	-600	1700	-0	0	-0	-0	0	-0	250	1.2	0.2	177	-1.2	-1	2555	0.07	2433	2678	8	56579	
13.857	0.424133	-1.889	307	-94	2160	0	-0.186988	-0.134718	0.657951	-0.0969078	0.017263	0.309436	0.044448	-0.0128124	-0.111	0.0838563	0.124386	-0.828998	0	0	0	0	0	0	0.0489642	-0.0129828	-0.131193	0.141228	-0.00660691	-0.800384	-0.3136	-0.226815	1.01108	-0.103132	-0.0103318	-0.171047	-0.037241	-0.000341291	-0.000120627	0.105366	-0.165864	0	0.140865	0.122132	4.62608	0.000199999	-0.000212758	0.00882906	0.00689763	-0.00161058	-0.0335649	0.0500909	0.0235619	0	2.86094	0.276979	-700	700	-600	1700	-0	0	-0	-0	0	-0	250	1.2	0.2	177	-1.2	-1	2555	0.07	2433	2678	8	56579	
13.8671	0.424133	-1.889	307	-97	2167	0	-0.185981	-0.138726	0.646305	-0.0987745	0.0158706	0.315923	0.044448	-0.0128124	-0.111	0.0830792	0.128242	-0.817481	0	0	0	0	0	0	0.0489279	-0.0129833	-0.130693	0.141288	-0.00678279	-0.7904	-0.314616	-0.234808	0.993159	-0.102902	-0.0104842	-0.171176	-0.037241	-0.000341291	-0.000120627	0.105366	-0.165864	0	0.135439	0.101327	4.62608	0.000154915	-0.000211054	0.00903036	0.00698486	-0.00154548	-0.0337418	0.0511381	0.0195477	0	2.86094	0.276979	-700	700	-600	1700	-0	0	-0	-0	0	-0	250	1.2	0.2	177	-1.2	-1	2555	0.07	2433	2678	8	56579	
13.877	0.424133	-1.889	306	-99	2178	0	-0.184466	-0.141979	0.627858	-0.100615	0.0144537	0.322189	0.044448	-0.0128124	-0.111	0.0817342	0.131243	-0.799121	0	0	0	0	0	0	0.0489182	-0.0129855	-0.130132	0.141279	-0.00696735	-0.772975	-0.313784	-0.240863	0.965002	-0.102731	-0.0107363	-0.171263	-0.037241	-0.000341291	-0.000120627	0.105366	-0.165864	0	0.132247	0.0862267	4.60932	0.000109654	-0.000209347	0.00923274	0.00707278	-0.00147927	-0.033738	0.0518363	0.0165806	0	2.86094	0.276979	-700	700	-600	1700	-0	0	-0	-0	0	-0	250	1.2	0.2	177	-1.2	-1	2555	0.07	2433	2678	8	56579	
13.887	0.424133	-1.889	306	-99	2178	0	-0.184466	-0.141979	0.627858	-0.102453	0.0130393	0.328443	0.044448	-0.0128124	-0.111	0.0817342	0.131243	-0.799121	0	0	0	0	0	0	0.0488883	-0.0129844	-0.129993	0.141293	-0.00702874	-0.773216	-0.313784	-0.240863	0.965002	-0.102731	-0.0107363	-0.171263	-0.037241	-0.000341291	-0.000120627	0.105366	-0.165864	0	0.132922	0.086667	4.58276	6.48338e-05	-0.000207637	0.00942977	0.00715995	-0.00141141	-0.033834	0.0518363	0.0165806	0	2.86094	0.276979	-700	700	-600	1700	-0	0	-0	-0	0	-0	250	1.2	0.2	177	-1.2	-1	2555	0.07	2433	2678	8	56579	
13.8969	0.424133	-1.889	305	-101	2187	0	-0.183155	-0.14521	0.612341	-0.104273	0.0115962	0.334529	0.044448	-0.0128124	-0.111	0.0806311	0.134233	-0.783712	0	0	0	0	0	0	0.0488654	-0.0129859	-0.129451	0.141291	-0.0072418	-0.75887	-0.31264	-0.246741	0.941965	-0.102524	-0.0109773	-0.171372	-0.037241	-0.000341291	-0.000120627	0.105366	-0.165864	0	0.128362	0.070247	4.58276	2.01136e-05	-0.000205906	0.00962116	0.00724719	-0.00134171	-0.0339543	0.0527089	0.013439	0	2.86094	0.276979	-700	700	-600	1700	-0	0	-0	-0	0	-0	250	1.2	0.2	177	-1.2	-1	2555	0.07	2433	2678	8	56579	
13.9069	1.04962	-1.829	355	-116	2192	0	-0.345437	-0.16695	0.60341	-0.107727	0.00992701	0.340562	0.11112	-0.0439387	-0.171	0.23658	0.105637	-0.759586	0	0	0	0	0	0	0.116144	-0.0490651	-0.189189	0.151336	-0.167508	-0.744462	-0.435548	-0.284004	0.929166	-0.108857	-0.0613132	-0.156176	-0.0865145	-0.00111754	-0.000977488	0.0989097	-0.150764	0	0.124331	0.0558887	4.56041	0.000641994	-0.000515232	0.00921137	0.00743413	-0.00287035	-0.0339222	0.0535816	0.0106465	0	2.76504	0.367713	-700	700	-600	1700	-0	0	-0	-0	0	-0	250	1.2	0.2	177	-1.2	-1	2555	0.07	2441	2685	8	56579	
13.917	1.04962	-1.829	405	-116	2192	0	-0.345437	-0.16695	0.60341	-0.111196	0.0082505	0.346621	0.11112	-0.0439387	-0.171	0.23658	0.105637	-0.759586	0	0	0	0	0	0	0.116438	-0.0492029	-0.189322	0.151398	-0.167695	-0.744798	-0.557533	-0.284004	0.929166	-0.108857	-0.0613132	-0.156176	-0.0865145	-0.00111754	-0.000977488	0.0989097	-0.150764	0	0.124636	0.0560256	4.54755	0.00126205	-0.000823522	0.00879754	0.00762047	-0.00439182	-0.034033	0.0535816	0.0106465	0	2.76504	0.367713	-700	700	-600	1700	-0	0	-0	-0	0	-0	250	1.2	0.2	177	-1.2	-1	2555	0.07	2441	2685	8	56579	
13.9271	1.04962	-1.829	417	-119	2204	0	-0.344082	-0.170066	0.584825	-0.114663	0.00653708	0.352513	0.11112	-0.0439387	-0.171	0.235734	0.108379	-0.741207	0	0	0	0	0	0	0.116417	-0.0491821	-0.188713	0.150198	-0.16818	-0.727376	-0.589984	-0.292938	0.89845	-0.108348	-0.0616875	-0.156382	-0.0865145	-0.00111754	-0.000977488	0.0989097	-0.150764	0	0.119126	0.0459229	4.54755	0.00121198	-0.000772432	0.00897881	0.00770681	-0.004317	-0.0341082	0.0546288	0.00872665	0	2.76504	0.367713	-700	700	-600	1700	-0	0	-0	-0	0	-0	250	1.2	0.2	177	-1.2	-1	2555	0.07	2441	2685	8	56579	
13.9371	1.04962	-1.829	416	-121	2214	0	-0.342605	-0.173715	0.568152	-0.118097	0.00479542	0.35821	0.11112	-0.0439387	-0.171	0.234834	0.111616	-0.72477	0	0	0	0	0	0	0.116365	-0.0491802	-0.188205	0.146503	-0.168938	-0.711547	-0.5902	-0.299208	0.872853	-0.107771	-0.0620991	-0.156618	-0.0865145	-0.00111754	-0.000977488	0.0989097	-0.150764	0	0.114195	0.0332328	4.52079	0.00115884	-0.000719829	0.0091619	0.00779277	-0.0042401	-0.0340202	0.055676	0.00628319	0	2.76504	0.367713	-700	700	-600	1700	-0	0	-0	-0	0	-0	250	1.2	0.2	177	-1.2	-1	2555	0.07	2441	2685	8	56579	
13.947	1.04962	-1.829	416	-121	2214	0	-0.342605	-0.173715	0.568152	-0.121497	0.00307165	0.363847	0.11112	-0.0439387	-0.171	0.234834	0.111616	-0.72477	0	0	0	0	0	0	0.116323	-0.0491765	-0.188214	0.143673	-0.169058	-0.711737	-0.5902	-0.299208	0.872853	-0.107771	-0.0620991	-0.156618	-0.0865145	-0.00111754	-0.000977488	0.0989097	-0.150764	0	0.114713	0.0333837	4.49679	0.00110567	-0.000667193	0.00933971	0.00789117	-0.00415799	-0.0341068	0.055676	0.00628319	0	2.76504	0.367713	-700	700	-600	1700	-0	0	-0	-0	0	-0	250	1.2	0.2	177	-1.2	-1	2555	0.07	2441	2685	8	56579	
13.9569	1.04962	-1.829	415	-123	2223	0	-0.341168	-0.176403	0.551694	-0.124891	0.00131697	0.369335	0.11112	-0.0439387	-0.171	0.233828	0.113969	-0.708474	0	0	0	0	0	0	0.116291	-0.0491575	-0.187675	0.143017	-0.1693	-0.696594	-0.590129	-0.305385	0.849816	-0.10734	-0.0624342	-0.15678	-0.0865145	-0.00111754	-0.000977488	0.0989097	-0.150764	0	0.111004	0.0241105	4.49679	0.00105297	-0.000614529	0.00951257	0.00802677	-0.00406819	-0.0341917	0.0563741	0.00453786	0	2.76504	0.367713	-700	700	-600	1700	-0	0	-0	-0	0	-0	250	1.2	0.2	177	-1.2	-1	2555	0.07	2441	2685	8	56579	
13.967	1.04962	-1.829	414	-125	2234	0	-0.339243	-0.17921	0.533394	-0.128285	-0.000476032	0.374672	0.11112	-0.0439387	-0.171	0.232336	0.116315	-0.690286	0	0	0	0	0	0	0.116247	-0.0491135	-0.186972	0.143099	-0.169381	-0.679203	-0.590566	-0.311882	0.821659	-0.106907	-0.0628955	-0.156892	-0.0865145	-0.00111754	-0.000977488	0.0989097	-0.150764	0	0.109637	0.0158349	4.47309	0.0010009	-0.000562108	0.00968485	0.00819017	-0.00397753	-0.0340943	0.0567232	0.00296706	0	2.76504	0.367713	-700	700	-600	1700	-0	0	-0	-0	0	-0	250	1.2	0.2	177	-1.2	-1	2555	0.07	2441	2685	8	56579	
13.977	1.04962	-1.829	414	-125	2234	0	-0.339243	-0.17921	0.533394	-0.131707	-0.00228373	0.380052	0.11112	-0.0439387	-0.171	0.232336	0.116315	-0.690286	0	0	0	0	0	0	0.116202	-0.0490662	-0.186801	0.143192	-0.169395	-0.67955	-0.590566	-0.311882	0.821659	-0.106907	-0.0628955	-0.156892	-0.0865145	-0.00111754	-0.000977488	0.0989097	-0.150764	0	0.110178	0.0159131	4.44674	0.000949371	-0.000510101	0.00985102	0.00835942	-0.00388485	-0.0341482	0.0567232	0.00296706	0	2.76504	0.367713	-700	700	-600	1700	-0	0	-0	-0	0	-0	250	1.2	0.2	177	-1.2	-1	2555	0.07	2441	2685	8	56579	
13.9873	1.04962	-1.829	413	-127	2240	0	-0.338333	-0.181549	0.524906	-0.135181	-0.00414806	0.385442	0.11112	-0.0439387	-0.171	0.23182	0.118403	-0.681965	0	0	0	0	0	0	0.116174	-0.0490388	-0.186475	0.143218	-0.169567	-0.672322	-0.589663	-0.317718	0.806301	-0.106513	-0.0631457	-0.157059	-0.0865145	-0.00111754	-0.000977488	0.0989097	-0.150764	0	0.106435	0.00655245	4.44674	0.000898315	-0.000458568	0.0100101	0.00852772	-0.00379143	-0.0342955	0.0574213	0.00122173	0	2.76504	0.367713	-700	700	-600	1700	-0	0	-0	-0	0	-0	250	1.2	0.2	177	-1.2	-1	2555	0.07	2441	2685	8	56579	
13.9969	1.04962	-1.829	413	-127	2240	0	-0.338333	-0.181549	0.524906	-0.138438	-0.00589565	0.390495	0.11112	-0.0439387	-0.171	0.23182	0.118403	-0.681965	0	0	0	0	0	0	0.116172	-0.0490423	-0.186516	0.14313	-0.169738	-0.672762	-0.589663	-0.317718	0.806301	-0.106513	-0.0631457	-0.157059	-0.0865145	-0.00111754	-0.000977488	0.0989097	-0.150764	0	0.106677	0.00656738	4.43452	0.000847427	-0.000407226	0.0101683	0.00869602	-0.00369736	-0.0344402	0.0574213	0.00122173	0	2.76504	0.367713	-700	700	-600	1700	-0	0	-0	-0	0	-0	250	1.2	0.2	177	-1.2	-1	2555	0.07	2441	2685	8	56579	
14.007	1.04962	-1.829	413	-128	2250	0	-0.337319	-0.184011	0.50708	-0.141827	-0.00774459	0.39559	0.11112	-0.0439387	-0.171	0.2314	0.120556	-0.664417	0	0	0	0	0	0	0.116194	-0.0490701	-0.186139	0.142966	-0.169888	-0.655658	-0.592295	-0.321646	0.780705	-0.105919	-0.0634545	-0.157336	-0.0865145	-0.00111754	-0.000977488	0.0989097	-0.150764	0	0.097297	-0.00281459	4.43452	0.000796283	-0.000355611	0.0103249	0.00886586	-0.00360054	-0.0344875	0.0591667	-0.000523599	0	2.76504	0.367713	-700	700	-600	1700	-0	0	-0	-0	0	-0	250	1.2	0.2	177	-1.2	-1	2555	0.07	2441	2685	8	56579	
14.017	1.04962	-1.829	413	-130	2258	0	-0.337185	-0.186226	0.494919	-0.145191	-0.00960237	0.400528	0.11112	-0.0439387	-0.171	0.232006	0.122477	-0.652632	0	0	0	0	0	0	0.116113	-0.0489833	-0.185486	0.143224	-0.169876	-0.645267	-0.594401	-0.327828	0.760227	-0.105179	-0.0637481	-0.157713	-0.0865145	-0.00111754	-0.000977488	0.0989097	-0.150764	0	0.0826808	-0.0113121	4.40886	0.00074579	-0.000304605	0.01048	0.00903446	-0.00350321	-0.03442	0.0619592	-0.0020944	0	2.76504	0.367713	-700	700	-600	1700	-0	0	-0	-0	0	-0	250	1.2	0.2	177	-1.2	-1	2555	0.07	2441	2685	8	56579	
14.027	1.04962	-1.829	413	-130	2258	0	-0.337185	-0.186226	0.494919	-0.148587	-0.0114779	0.405512	0.11112	-0.0439387	-0.171	0.232006	0.122477	-0.652632	0	0	0	0	0	0	0.116082	-0.0489512	-0.185386	0.143238	-0.169893	-0.645565	-0.594401	-0.327828	0.760227	-0.105179	-0.0637481	-0.157713	-0.0865145	-0.00111754	-0.000977488	0.0989097	-0.150764	0	0.0829489	-0.0113488	4.39135	0.000695142	-0.000253389	0.0106311	0.00920448	-0.00340452	-0.0345232	0.0619592	-0.0020944	0	2.76504	0.367713	-700	700	-600	1700	-0	0	-0	-0	0	-0	250	1.2	0.2	177	-1.2	-1	2555	0.07	2441	2685	8	56579	
14.0371	1.04962	-1.829	412	-131	2267	0	-0.336787	-0.18786	0.478925	-0.151992	-0.0133775	0.410355	0.11112	-0.0439387	-0.171	0.232328	0.123722	-0.636959	0	0	0	0	0	0	0.116013	-0.0488787	-0.184686	0.143355	-0.169929	-0.631512	-0.59425	-0.331664	0.73719	-0.104459	-0.0641372	-0.158034	-0.0865145	-0.00111754	-0.000977488	0.0989097	-0.150764	0	0.0678186	-0.0151317	4.39135	0.000645791	-0.000203531	0.0107743	0.00937028	-0.00330691	-0.0345798	0.0647517	-0.00279253	0	2.76504	0.367713	-700	700	-600	1700	-0	0	-0	-0	0	-0	250	1.2	0.2	177	-1.2	-1	2555	0.07	2441	2685	8	56579	
14.0471	1.04962	-1.829	412	-132	2274	0	-0.336176	-0.189487	0.467207	-0.155332	-0.01526	0.414996	0.11112	-0.0439387	-0.171	0.232241	0.125077	-0.625476	0	0	0	0	0	0	0.116054	-0.0489295	-0.184572	0.143065	-0.170187	-0.620573	-0.596085	-0.335225	0.719272	-0.103935	-0.06441	-0.158268	-0.0865145	-0.00111754	-0.000977488	0.0989097	-0.150764	0	0.0586099	-0.0208945	4.36832	0.000596012	-0.000153247	0.0109186	0.00953844	-0.00320766	-0.034524	0.066497	-0.00383972	0	2.76504	0.367713	-700	700	-600	1700	-0	0	-0	-0	0	-0	250	1.2	0.2	177	-1.2	-1	2555	0.07	2441	2685	8	56579	
14.057	1.04962	-1.829	412	-132	2274	0	-0.336176	-0.189487	0.467207	-0.158685	-0.0171496	0.419655	0.11112	-0.0439387	-0.171	0.232241	0.125077	-0.625476	0	0	0	0	0	0	0.116039	-0.0489153	-0.184543	0.143046	-0.170236	-0.620765	-0.596085	-0.335225	0.719272	-0.103935	-0.06441	-0.158268	-0.0865145	-0.00111754	-0.000977488	0.0989097	-0.150764	0	0.0587916	-0.0209593	4.35145	0.000546819	-0.000103585	0.0110562	0.00970577	-0.00310785	-0.0346093	0.066497	-0.00383972	0	2.76504	0.367713	-700	700	-600	1700	-0	0	-0	-0	0	-0	250	1.2	0.2	177	-1.2	-1	2555	0.07	2441	2685	8	56579	
14.0671	1.04962	-1.829	411	-133	2279	0	-0.335437	-0.190969	0.458749	-0.16204	-0.0190599	0.424244	0.11112	-0.0439387	-0.171	0.231906	0.12628	-0.617168	0	0	0	0	0	0	0.116008	-0.0488846	-0.184215	0.143072	-0.170325	-0.61345	-0.594863	-0.338504	0.706474	-0.103531	-0.0646896	-0.158419	-0.0865145	-0.00111754	-0.000977488	0.0989097	-0.150764	0	0.0530758	-0.0257227	4.35145	0.000497288	-5.34806e-05	0.0111924	0.00987578	-0.00300558	-0.0347241	0.0675442	-0.00471239	0	2.76504	0.367713	-700	700	-600	1700	-0	0	-0	-0	0	-0	250	1.2	0.2	177	-1.2	-1	2555	0.07	2441	2685	8	56579	
14.0771	1.04962	-1.829	411	-134	2285	0	-0.334483	-0.192344	0.448373	-0.165405	-0.0209948	0.428755	0.11112	-0.0439387	-0.171	0.231268	0.127463	-0.60692	0	0	0	0	0	0	0.115968	-0.0488443	-0.183792	0.143111	-0.170353	-0.603882	-0.596429	-0.341944	0.691115	-0.103215	-0.064881	-0.158547	-0.0865145	-0.00111754	-0.000977488	0.0989097	-0.150764	0	0.0493751	-0.031509	4.33927	0.00044807	-3.68286e-06	0.0113279	0.0100454	-0.00290316	-0.0347364	0.0682424	-0.00575959	0	2.76504	0.367713	-700	700	-600	1700	-0	0	-0	-0	0	-0	250	1.2	0.2	177	-1.2	-1	2555	0.07	2441	2685	8	56579	
14.0871	1.04962	-1.829	411	-134	2285	0	-0.334483	-0.192344	0.448373	-0.168744	-0.022915	0.433231	0.11112	-0.0439387	-0.171	0.231268	0.127463	-0.60692	0	0	0	0	0	0	0.115928	-0.0488014	-0.18366	0.143205	-0.170339	-0.604096	-0.596429	-0.341944	0.691115	-0.103215	-0.064881	-0.158547	-0.0865145	-0.00111754	-0.000977488	0.0989097	-0.150764	0	0.0495099	-0.031595	4.32433	0.000399338	4.56278e-05	0.0114597	0.0102142	-0.00280021	-0.0348217	0.0682424	-0.00575959	0	2.76504	0.367713	-700	700	-600	1700	-0	0	-0	-0	0	-0	250	1.2	0.2	177	-1.2	-1	2555	0.07	2441	2685	8	56579	
14.0971	1.04962	-1.829	410	-135	2292	0	-0.333555	-0.193901	0.437873	-0.172076	-0.0248521	0.437605	0.11112	-0.0439387	-0.171	0.230697	0.128865	-0.596588	0	0	0	0	0	0	0.115922	-0.0487987	-0.183375	0.143156	-0.170471	-0.594425	-0.595708	-0.345549	0.673198	-0.102858	-0.0650359	-0.158715	-0.0865145	-0.00111754	-0.000977488	0.0989097	-0.150764	0	0.0447229	-0.0392543	4.32433	0.000350801	9.47408e-05	0.0115878	0.0103833	-0.00269656	-0.0349029	0.069115	-0.00715585	0	2.76504	0.367713	-700	700	-600	1700	-0	0	-0	-0	0	-0	250	1.2	0.2	177	-1.2	-1	2555	0.07	2441	2685	8	56579	
14.107	1.04962	-1.829	410	-136	2297	0	-0.332888	-0.195487	0.429236	-0.175369	-0.0267857	0.441851	0.11112	-0.0439387	-0.171	0.230392	0.130393	-0.588161	0	0	0	0	0	0	0.115899	-0.0487772	-0.183083	0.143135	-0.170533	-0.586725	-0.597008	-0.348865	0.660399	-0.102496	-0.0650945	-0.158925	-0.0865145	-0.00111754	-0.000977488	0.0989097	-0.150764	0	0.0390859	-0.0489629	4.30921	0.000302653	0.000143443	0.0117145	0.0105515	-0.002593	-0.034902	0.0701622	-0.00890118	0	2.76504	0.367713	-700	700	-600	1700	-0	0	-0	-0	0	-0	250	1.2	0.2	177	-1.2	-1	2555	0.07	2441	2685	8	56579	
14.117	1.04962	-1.829	410	-136	2297	0	-0.332888	-0.195487	0.429236	-0.178698	-0.0287405	0.446143	0.11112	-0.0439387	-0.171	0.230392	0.130393	-0.588161	0	0	0	0	0	0	0.115873	-0.0487507	-0.183013	0.143167	-0.170555	-0.586923	-0.597008	-0.348865	0.660399	-0.102496	-0.0650945	-0.158925	-0.0865145	-0.00111754	-0.000977488	0.0989097	-0.150764	0	0.0391743	-0.0490736	4.29677	0.000254578	0.000192097	0.0118384	0.0107201	-0.00248818	-0.0349978	0.0701622	-0.00890118	0	2.76504	0.367713	-700	700	-600	1700	-0	0	-0	-0	0	-0	250	1.2	0.2	177	-1.2	-1	2555	0.07	2441	2685	8	56579	
14.127	1.04962	-1.829	409	-137	2301	0	-0.332158	-0.196855	0.421777	-0.182015	-0.0307063	0.450355	0.11112	-0.0439387	-0.171	0.229958	0.131667	-0.580855	0	0	0	0	0	0	0.115825	-0.0486995	-0.182649	0.143286	-0.170591	-0.580533	-0.595489	-0.352039	0.65016	-0.1022	-0.0651882	-0.159078	-0.0865145	-0.00111754	-0.000977488	0.0989097	-0.150764	0	0.0353254	-0.0567711	4.29677	0.000207003	0.000240263	0.0119587	0.010888	-0.00238332	-0.0351001	0.0708604	-0.0102974	0	2.76504	0.367713	-700	700	-600	1700	-0	0	-0	-0	0	-0	250	1.2	0.2	177	-1.2	-1	2555	0.07	2441	2685	8	56579	
