time ;e1;e2;ctrlpitch;ctrlroll;ctrlthrust;ctrlyaw;edx;edy;edz;cumulx;cumuly;cumulz;x_pred;y_pred;z_pred;dxr_pred;dyr_pred;dzr_pred;dxrT;dyrT;dzrT;dxrUn;dyrUn;dzrUn;x;y;z;dx;dy;dz;ux;uy;uz;dxd;dyd;dzd;Perpx;Tangx;Perpy;Tangy;Perpz;Tanz;ax;ay;az;pitch;roll;yaw;yawd;eyaw;kpvx;kpvy;kpvz;kpyaw;kivx;kivy;kivz;kdvx;kdvy;kdvz;kdyaw;ktg;veld;pitchoff;ke1;ke2;gravity;thr_vel;gps_accuracy;height_accuracy;gps_sat_num;gps_status
17,8824;1,19489;-1,15983;10;-50;1450;0;0,154552;-0,0981288;0,0993387;0,000176189;-0,000111867;0,000113246;-0,0222706;-0,0613601;0,159827;-0,00642393;0,0145955;-0,204601;0;0;0;0;0;0;-0,022224;-0,0610701;0,162;-0,01;0,02;-0,204;0,270341;-0,0810057;2,82845;0,148128;-0,0835333;-0,105263;-0,0397226;0,109912;-0,109444;-0,0398926;-0,113013;-0;0;-0;9,81;0,06353;-0,0171042;0;1,22263;0,940001;-1080;1080;-300;1700;-10;10;-0;-0;0;-0;250;-1,2;0,2;177;-1,2;-1;2555;0,07;2298;4030;8;56579;
17,8914;1,19491;-1,15776;13;-100;1500;0;0,151323;-0,0993965;0,105176;0,00152871;-0,00100027;0,00105331;-0,02237;-0,0611594;0,157756;-0,00329931;0,0154038;-0,21022;0;0;0;0;0;0;-0,022224;-0,0610701;0,162;-0,01;0,02;-0,209;0,274648;-0,167558;2,70047;0,148023;-0,0839927;-0,105044;-0,0400178;0,109875;-0,109409;-0,0401883;-0,112875;-0;0,0811299;-0,10047;3,75027;0,0638791;-0,0165806;0;1,22015;0,93915;-1080;1080;-300;1700;-10;10;-0;-0;0;-0;250;-1,2;0,2;177;-1,2;-1;2555;0,07;2298;4030;8;56579;
17,9013;1,19489;-1,1596;10;-106;1550;0;0,153803;-0,0982241;0,104613;0,00306059;-0,00197859;0,00209526;-0,0222817;-0,0613358;0,159602;-0,00565534;0,0145887;-0,209767;0;0;0;0;0;0;-0,022224;-0,0610701;0,162;-0,01;0,02;-0,209;0,288985;-0,183525;2,57249;0,148148;-0,0836355;-0,105154;-0,0397565;0,109908;-0,109439;-0,0399265;-0,112998;-0;0,0810736;-0,1004;3,75447;0,0638791;-0,0165806;0;1,22235;0,939903;-1080;1080;-300;1700;-10;10;-0;-0;0;-0;250;-1,2;0,2;177;-1,2;-1;2555;0,07;2298;4030;8;56579;
17,9113;1,19491;-1,15796;14;-106;1600;0;0,150786;-0,098723;0,107911;0,0045597;-0,00296009;0,0031681;-0,0223594;-0,0611786;0,157965;-0,00274806;0,0148448;-0,213026;0;0;0;0;0;0;-0,022224;-0,0610701;0,162;-0,01;0,02;-0,211;0,291174;-0,189445;2,4445;0,148038;-0,0838782;-0,105115;-0,0399877;0,109879;-0,109412;-0,0401581;-0,112889;-0;0,081079;-0,104634;3,75406;0,0638791;-0,0172788;0;1,2204;0,939237;-1080;1080;-300;1700;-10;10;-0;-0;0;-0;250;-1,2;0,2;177;-1,2;-1;2555;0,07;2298;4030;8;56579;
17,9213;1,19491;-1,15775;14;-106;1650;0;0,150248;-0,0987914;0,110097;0,00606504;-0,00394988;0,00427116;-0,0223689;-0,0611576;0,157749;-0,00224245;0,0148915;-0,21524;0;0;0;0;0;0;-0,022224;-0,0610701;0,162;-0,01;0,02;-0,213;0,300274;-0,195365;2,31652;0,148006;-0,0839;-0,105143;-0,0400173;0,109875;-0,109409;-0,0401877;-0,112875;-0;0,0821037;-0,105649;3,75644;0,0637045;-0,0174533;0;1,22015;0,939152;-1080;1080;-300;1700;-10;10;-0;-0;0;-0;250;-1,2;0,2;177;-1,2;-1;2555;0,07;2298;4030;8;56579;
17,9331;1,19491;-1,15777;14;-106;1700;0;0,150144;-0,098791;0,110144;0,0078456;-0,00512144;0,00557736;-0,022368;-0,0611576;0,157774;-0,00213746;0,0148934;-0,215288;0;0;0;0;0;0;-0,022224;-0,0610701;0,162;-0,01;0,02;-0,213;0,309373;-0,201285;2,18853;0,148006;-0,0838976;-0,105145;-0,0400157;0,109875;-0,109409;-0,0401861;-0,112876;-0;0,0820824;-0,105622;3,75801;0,0637045;-0,0174533;0;1,22016;0,939156;-1080;1080;-300;1700;-10;10;-0;-0;0;-0;250;-1,2;0,2;177;-1,2;-1;2555;0,07;2298;4030;8;56579;
17,9413;1,19491;-1,15777;15;-106;1750;0;0,149876;-0,0987873;0,111314;0,00907069;-0,00592893;0,00648724;-0,0223681;-0,0611556;0,157769;-0,00178374;0,0149108;-0,216353;0;0;0;0;0;0;-0,022224;-0,0610701;0,162;-0,01;0,02;-0,214;0,316521;-0,207205;2,06055;0,148093;-0,0838765;-0,10504;-0,040017;0,109874;-0,109409;-0,0401874;-0,112876;-0;0,0778572;-0,105621;3,75804;0,0644026;-0,0174533;0;1,22015;0,939152;-1080;1080;-300;1700;-10;10;-0;-0;0;-0;250;-1,2;0,2;177;-1,2;-1;2555;0,07;2298;4030;8;56579;
17,9514;1,19492;-1,15736;16;-106;1800;0;0,14882;-0,0989102;0,114756;0,0105711;-0,00692614;0,00764421;-0,0223856;-0,0611183;0,157365;-0,000700537;0,0150019;-0,219733;0;0;0;0;0;0;-0,022224;-0,0610701;0,162;-0,01;0,02;-0,217;0,323559;-0,213126;1,93256;0,148119;-0,0839082;-0,104977;-0,0400707;0,109868;-0,109403;-0,0402412;-0,112849;-0;0,0757343;-0,106662;3,75889;0,0647517;-0,0176278;0;1,2197;0,938997;-1080;1080;-300;1700;-10;10;-0;-0;0;-0;250;-1,2;0,2;177;-1,2;-1;2555;0,07;2298;4030;8;56579;
17,9612;1,19491;-1,15818;14;-106;1850;0;0,150234;-0,0987268;0,11408;0,01205;-0,00789801;0,00876721;-0,0223481;-0,0611918;0,158183;-0,00206337;0,0149704;-0,219105;0;0;0;0;0;0;-0,022224;-0,0610701;0,162;-0,01;0,02;-0,217;0,33667;-0,219046;1,80458;0,14817;-0,0837564;-0,105026;-0,0399599;0,109881;-0,109415;-0,0401302;-0,112904;-0;0,0757033;-0,106619;3,76136;0,0647517;-0,0176278;0;1,22063;0,939316;-1080;1080;-300;1700;-10;10;-0;-0;0;-0;250;-1,2;0,2;177;-1,2;-1;2555;0,07;2298;4030;8;56579;
17,9714;1,19491;-1,15777;15;-106;1900;0;0,149194;-0,0987455;0,116583;0,013561;-0,0088981;0,00994797;-0,0223666;-0,061153;0,157768;-0,000953659;0,0149914;-0,221512;0;0;0;0;0;0;-0,022224;-0,0610701;0,162;-0,01;0,02;-0,219;0,343652;-0,224966;1,67659;0,14824;-0,0837541;-0,104929;-0,0400161;0,109875;-0,109409;-0,0401865;-0,112876;-0;0,073598;-0,105572;3,76088;0,0651008;-0,0174533;0;1,22016;0,939155;-1080;1080;-300;1700;-10;10;-0;-0;0;-0;250;-1,2;0,2;177;-1,2;-1;2555;0,07;2298;4030;8;56579;
17,9814;1,19491;-1,15784;15;-106;1950;0;0,149324;-0,0985178;0,116603;0,0150559;-0,00988437;0,0111153;-0,0223635;-0,0611574;0,157841;-0,00100962;0,0148867;-0,221525;0;0;0;0;0;0;-0,022224;-0,0610701;0,162;-0,01;0,02;-0,219;0,352695;-0,230886;1,54861;0,148315;-0,0836311;-0,104922;-0,0400079;0,109875;-0,109409;-0,0401783;-0,112881;-0;0,0746315;-0,10343;3,76268;0,0649262;-0,0171042;0;1,22023;0,939178;-1080;1080;-300;1700;-10;10;-0;-0;0;-0;250;-1,2;0,2;177;-1,2;-1;2555;0,07;2298;4030;8;56579;
17,9913;1,19491;-1,1578;15;-106;2000;0;0,149087;-0,098532;0,116715;0,016531;-0,0108592;0,0122701;-0,0223656;-0,0611512;0,1578;-0,000775949;0,0148909;-0,221634;0;0;0;0;0;0;-0,022224;-0,0610701;0,162;-0,01;0,02;-0,219;0,361739;-0,236806;1,42063;0,148311;-0,0836411;-0,104919;-0,0400153;0,109874;-0,109408;-0,0401856;-0,112878;-0;0,0746313;-0,103429;3,76269;0,0649262;-0,0171042;0;1,22017;0,939156;-1080;1080;-300;1700;-10;10;-0;-0;0;-0;250;-1,2;0,2;177;-1,2;-1;2555;0,07;2298;4030;8;56579;
18,0012;1,19491;-1,15787;15;-106;2050;0;0,149227;-0,0984698;0,11467;0,0180146;-0,0118382;0,0134101;-0,0223637;-0,0611532;0,157867;-0,000889032;0,014965;-0,219659;0;0;0;0;0;0;-0,022224;-0,0610701;0,162;-0,01;0,02;-0,217;0,370782;-0,242726;1,29264;0,148338;-0,0835049;-0,104989;-0,0400104;0,109873;-0,109408;-0,0401808;-0,112882;-0;0,0756857;-0,106594;3,76277;0,0647517;-0,0176278;0;1,2202;0,939169;-1080;1080;-300;1700;-10;10;-0;-0;0;-0;250;-1,2;0,2;177;-1,2;-1;2555;0,07;2298;4030;8;56579;
18,0113;1,19491;-1,15791;15;-106;2100;0;0,149171;-0,0984646;0,114694;0,0195126;-0,012827;0,0145619;-0,0223619;-0,0611551;0,157913;-0,000830799;0,0149661;-0,219686;0;0;0;0;0;0;-0,022224;-0,0610701;0,162;-0,01;0,02;-0,217;0,379826;-0,248646;1,16466;0,14834;-0,0834985;-0,104992;-0,0400059;0,109874;-0,109408;-0,0401762;-0,112886;-0;0,0757041;-0,10662;3,7613;0,0647517;-0,0176278;0;1,22024;0,939182;-1080;1080;-300;1700;-10;10;-0;-0;0;-0;250;-1,2;0,2;177;-1,2;-1;2555;0,07;2298;4030;8;56579;
18,0213;1,19491;-1,15797;15;-106;2150;0;0,149559;-0,0982392;0,109615;0,0210141;-0,0138133;0,0156624;-0,0223617;-0,0611537;0,157972;-0,0012561;0,0148676;-0,214759;0;0;0;0;0;0;-0,022224;-0,0610701;0,162;-0,01;0,02;-0,212;0,388869;-0,254567;1,03667;0,148303;-0,0833716;-0,105144;-0,0400057;0,109872;-0,109406;-0,040176;-0,112889;-0;0,0820375;-0,10662;3,76132;0,0637045;-0,0176278;0;1,22024;0,93918;-1080;1080;-300;1700;-10;10;-0;-0;0;-0;250;-1,2;0,2;177;-1,2;-1;2555;0,07;2298;4030;8;56579;
18,0313;1,19364;-1,17209;32;-87;2200;0;0,133142;-0,0808833;0,102999;0,0223519;-0,014626;0,0166973;-0,0222616;-0,0693304;0,172092;0,0179982;0,00366604;-0,208802;0;0;0;0;0;0;-0,022224;-0,0690085;0,176;0;0;-0,207;0,356215;-0,213821;0,908689;0,15114;-0,0772173;-0,105803;-0,0354501;0,110993;-0,110404;-0,035639;-0,113863;-0;0,0820871;-0,104572;3,75766;0,0637045;-0,0172788;0;1,2601;0,952121;-1080;1080;-300;1700;-10;10;-0;-0;0;-0;250;-1,2;0,2;177;-1,2;-1;2555;0,07;2294;4025;8;56579;
18,0413;1,19364;-1,17211;32;-87;2250;0;0,133667;-0,0810335;0,102618;0,0236845;-0,0154339;0,0177203;-0,0222614;-0,0693288;0,172112;0,0174719;0,00381601;-0,208422;0;0;0;0;0;0;-0,022224;-0,0690085;0,176;0;0;-0,207;0,364311;-0,21868;0,780705;0,151139;-0,0772174;-0,105804;-0,0354504;0,110992;-0,110403;-0,0356393;-0,113864;-0;0,0821517;-0,104654;3,7529;0,0637045;-0,0172788;0;1,2601;0,95212;-1080;1080;-300;1700;-10;10;-0;-0;0;-0;250;-1,2;0,2;177;-1,2;-1;2555;0,07;2294;4025;8;56579;
18,0513;1,19364;-1,17217;32;-87;2300;0;0,133918;-0,0808055;0,0986656;0,0250271;-0,016244;0,0187096;-0,0222612;-0,0693272;0,17217;0,0172824;0,00372168;-0,204479;0;0;0;0;0;0;-0,022224;-0,0690085;0,176;0;0;-0,203;0,372407;-0,22354;0,65272;0,151201;-0,0770838;-0,105813;-0,0354503;0,11099;-0,110401;-0,0356392;-0,113868;-0;0,0832125;-0,103602;3,75263;0,06353;-0,0171042;0;1,26009;0,952119;-1080;1080;-300;1700;-10;10;-0;-0;0;-0;250;-1,2;0,2;177;-1,2;-1;2555;0,07;2294;4025;8;56579;
18,0612;1,19364;-1,17224;31;-87;2350;0;0,134337;-0,0805987;0,0944899;0,0263502;-0,0170378;0,0196402;-0,022261;-0,0693256;0,172245;0,0168105;0,00373273;-0,200537;0;0;0;0;0;0;-0,022224;-0,0690085;0,176;0;0;-0,199;0,383124;-0,228399;0,524736;0,151148;-0,076866;-0,106047;-0,03545;0,110987;-0,110399;-0,035639;-0,113873;-0;0,0917124;-0,105765;3,74978;0,0621337;-0,0174533;0;1,26009;0,952117;-1080;1080;-300;1700;-10;10;-0;-0;0;-0;250;-1,2;0,2;177;-1,2;-1;2555;0,07;2294;4025;8;56579;
18,0712;1,19364;-1,17225;31;-87;2400;0;0,134192;-0,0806212;0,0945416;0,0276952;-0,0178459;0,0205878;-0,0222608;-0,069324;0,172252;0,016955;0,00375476;-0,200589;0;0;0;0;0;0;-0,022224;-0,0690085;0,176;0;0;-0,199;0,391275;-0,233259;0,396751;0,151147;-0,0768664;-0,106048;-0,0354504;0,110987;-0,110399;-0,0356394;-0,113873;-0;0,0917579;-0,105818;3,74677;0,0621337;-0,0174533;0;1,26008;0,952116;-1080;1080;-300;1700;-10;10;-0;-0;0;-0;250;-1,2;0,2;177;-1,2;-1;2555;0,07;2294;4025;8;56579;
18,0813;1,19364;-1,17236;31;-86;2450;0;0,134827;-0,080315;0,0892306;0,0290556;-0,0186563;0,0214881;-0,0222606;-0,0693224;0,172355;0,0162151;0,00374537;-0,195642;0;0;0;0;0;0;-0,022224;-0,0690085;0,176;0;0;-0,194;0,399427;-0,235383;0,268767;0,151042;-0,0765697;-0,106411;-0,0354499;0,110984;-0,110395;-0,0356388;-0,11388;-0;0,105512;-0,107933;3,74681;0,0598648;-0,0178024;0;1,26008;0,952115;-1080;1080;-300;1700;-10;10;-0;-0;0;-0;250;-1,2;0,2;177;-1,2;-1;2555;0,07;2294;4025;8;56579;
18,0914;1,19364;-1,17242;30;-86;2500;0;0,135494;-0,0799979;0,0809098;0,0304276;-0,0194663;0,0223074;-0,0222605;-0,0693208;0,17242;0,0154065;0,00374414;-0,187748;0;0;0;0;0;0;-0,022224;-0,0690085;0,176;0;0;-0,186;0,410366;-0,240187;0,140783;0,1509;-0,0762537;-0,106838;-0,0354497;0,110982;-0,110393;-0,0356386;-0,113884;-0;0,12146;-0,111178;3,74299;0,0572468;-0,018326;0;1,26008;0,952114;-1080;1080;-300;1700;-10;10;-0;-0;0;-0;250;-1,2;0,2;177;-1,2;-1;2555;0,07;2294;4025;8;56579;
18,1012;1,19364;-1,17243;30;-86;2530;0;0,13534;-0,0800235;0,0809645;0,0317486;-0,0202474;0,0230976;-0,0222603;-0,0693193;0,172426;0,0155594;0,00376924;-0,187803;0;0;0;0;0;0;-0,022224;-0,0690085;0,176;0;0;-0,186;0,41529;-0,243069;0,0639922;0,1509;-0,0762542;-0,106839;-0,0354501;0,110981;-0,110393;-0,035639;-0,113885;-0;0,121579;-0,111287;3,737;0,0572468;-0,018326;0;1,26007;0,952112;-1080;1080;-300;1700;-10;10;-0;-0;0;-0;250;-1,2;0,2;177;-1,2;-1;2555;0,07;2294;4025;8;56579;
18,1113;1,19364;-1,17252;29;-86;2533;0;0,1361;-0,0797544;0,0724314;0,0331221;-0,0210523;0,0238286;-0,0222601;-0,0693177;0,172518;0,0145499;0,00388837;-0,179898;0;0;0;0;0;0;-0,022224;-0,0690085;0,176;0;0;-0,178;0,418607;-0,243357;0,0563131;0,15065;-0,075866;-0,107466;-0,0354497;0,110978;-0,11039;-0,0356386;-0,113891;-0;0,142772;-0,119765;3,73704;0,0537561;-0,0197222;0;1,26007;0,952111;-1080;1080;-300;1700;-10;10;-0;-0;0;-0;250;-1,2;0,2;177;-1,2;-1;2555;0,07;2294;4025;8;56579;
18,1212;1,19364;-1,17268;28;-85;2535;0;0,137114;-0,0794249;0,0636302;0,0344883;-0,0218436;0,0244626;-0,0222599;-0,0693162;0,172678;0,0132475;0,00410394;-0,171881;0;0;0;0;0;0;-0,022224;-0,0690085;0,176;0;0;-0,17;0,421765;-0,240718;0,0511937;0,150361;-0,0753209;-0,108251;-0,0354486;0,110973;-0,110385;-0,0356375;-0,113901;-0;0,168372;-0,132615;3,73089;0,0495674;-0,0218166;0;1,26006;0,95211;-1080;1080;-300;1700;-10;10;-0;-0;0;-0;250;-1,2;0,2;177;-1,2;-1;2555;0,07;2294;4025;8;56579;
18,1318;1,19364;-1,17264;28;-86;2535;0;0,136941;-0,0794794;0,0636773;0,0359372;-0,0226846;0,0251364;-0,0222597;-0,0693146;0,172639;0,0134215;0,00415692;-0,171926;0;0;0;0;0;0;-0,022224;-0,0690085;0,176;0;0;-0,17;0,421765;-0,243549;0,0511937;0,150362;-0,0753224;-0,108248;-0,0354494;0,110974;-0,110386;-0,0356383;-0,113899;-0;0,168548;-0,132753;3,72456;0,0495674;-0,0218166;0;1,26006;0,952108;-1080;1080;-300;1700;-10;10;-0;-0;0;-0;250;-1,2;0,2;177;-1,2;-1;2555;0,07;2294;4025;8;56579;
18,1413;1,19364;-1,17286;27;-85;2541;0;0,138231;-0,0788272;0,0449879;0,0372495;-0,0234329;0,0255635;-0,0222596;-0,0693131;0,172856;0,0118376;0,00401636;-0,153996;0;0;0;0;0;0;-0,022224;-0,0690085;0,176;0;0;-0,152;0,425596;-0,241288;0,0358356;0,150068;-0,0748108;-0,109009;-0,0354477;0,110967;-0,110379;-0,0356366;-0,113913;-0;0,194026;-0,143371;3,72459;0,0453786;-0,0235619;0;1,26006;0,952107;-1080;1080;-300;1700;-10;10;-0;-0;0;-0;250;-1,2;0,2;177;-1,2;-1;2555;0,07;2294;4025;8;56579;
18,1513;1,19364;-1,17298;26;-84;2547;0;0,13907;-0,0782033;0,0251966;0,0386421;-0,0242161;0,0258158;-0,0222594;-0,0693115;0,17298;0,0105916;0,00400454;-0,135178;0;0;0;0;0;0;-0,022224;-0,0690085;0,176;0;0;-0,133;0,429441;-0,239014;0,0204775;0,149661;-0,0741987;-0,109982;-0,035447;0,110963;-0,110375;-0,0356359;-0,113921;-0;0,22637;-0,15965;3,71114;0,0401426;-0,0261799;0;1,26005;0,952106;-1080;1080;-300;1700;-10;10;-0;-0;0;-0;250;-1,2;0,2;177;-1,2;-1;2555;0,07;2294;4025;8;56579;
18,1614;1,19364;-1,17314;25;-84;2547;0;0,139587;-0,078184;0,024923;0,0400398;-0,0249989;0,0260653;-0,0222592;-0,0693101;0,173139;0,0100681;0,0039884;-0,134915;0;0;0;0;0;0;-0,022224;-0,0690085;0,176;0;0;-0,133;0,432281;-0,239014;0,0204775;0,149655;-0,0741956;-0,109992;-0,0354459;0,110958;-0,11037;-0,0356347;-0,113931;-0;0,226899;-0,160023;3,69689;0,0401426;-0,0261799;0;1,26005;0,952105;-1080;1080;-300;1700;-10;10;-0;-0;0;-0;250;-1,2;0,2;177;-1,2;-1;2555;0,07;2294;4025;8;56579;
18,1714;1,19364;-1,17331;24;-83;2554;0;0,140402;-0,0773115;0,00118328;0,0414442;-0,0257723;0,0260772;-0,022259;-0,0693086;0,173315;0,00882036;0,00361863;-0,112098;0;0;0;0;0;0;-0,022224;-0,0690085;0,176;0;0;-0,11;0,436316;-0,236819;0,00255969;0,149223;-0,0736929;-0,110914;-0,0354446;0,110953;-0,110365;-0,0356334;-0,113943;-0;0,259956;-0,169627;3,69669;0,0347321;-0,0277507;0;1,26004;0,952103;-1080;1080;-300;1700;-10;10;-0;-0;0;-0;250;-1,2;0,2;177;-1,2;-1;2555;0,07;2294;4025;8;56579;
18,1814;1,19364;-1,17333;24;-83;2554;0;0,140382;-0,0773522;0,00115833;0,0428538;-0,0265489;0,0260888;-0,0222588;-0,069307;0,173328;0,00883971;0,00365905;-0,112074;0;0;0;0;0;0;-0,022224;-0,0690085;0,176;0;0;-0,11;0,436316;-0,236819;0,00255969;0,149222;-0,0736932;-0,110915;-0,0354449;0,110952;-0,110364;-0,0356337;-0,113944;-0;0,260682;-0,170101;3,6796;0,0347321;-0,0277507;0;1,26004;0,952102;-1080;1080;-300;1700;-10;10;-0;-0;0;-0;250;-1,2;0,2;177;-1,2;-1;2555;0,07;2294;4025;8;56579;
18,1914;1,19364;-1,17375;23;-82;2567;0;0,141763;-0,0757357;-0,0408262;0,0442732;-0,0273072;0,02568;-0,0222587;-0,0693056;0,173753;0,00697473;0,00267223;-0,0711505;0;0;0;0;0;0;-0,022224;-0,0690085;0,176;0;0;-0,069;0,441399;-0,235158;-0,0307162;0,148738;-0,0730635;-0,111977;-0,0354412;0,110939;-0,110351;-0,03563;-0,113972;-0;0,298093;-0,181866;3,67958;0,0286234;-0,0296706;0;1,26003;0,952101;-1080;1080;-300;1700;-10;10;-0;-0;0;-0;250;-1,2;0,2;177;-1,2;-1;2555;0,07;2294;4025;8;56579;
18,2013;1,19364;-1,17407;22;-80;2576;0;0,142376;-0,0743475;-0,0727708;0,0456848;-0,0280444;0,0249585;-0,0222585;-0,0693041;0,174073;0,00587662;0,00183557;-0,0402038;0;0;0;0;0;0;-0,022224;-0,0690085;0,176;0;0;-0,038;0,445819;-0,230229;-0,0537534;0,148252;-0,0725119;-0,112975;-0,0354385;0,110929;-0,110341;-0,0356273;-0,113993;-0;0,339293;-0,185987;3,64936;0,0221657;-0,0301942;0;1,26003;0,9521;-1080;1080;-300;1700;-10;10;-0;-0;0;-0;250;-1,2;0,2;177;-1,2;-1;2555;0,07;2294;4025;8;56579;
18,2112;1,19364;-1,17408;22;-80;2576;0;0,142383;-0,0744102;-0,0728295;0,0470974;-0,0287826;0,024236;-0,0222583;-0,0693026;0,174084;0,00586876;0,00189788;-0,0401459;0;0;0;0;0;0;-0,022224;-0,0690085;0,176;0;0;-0,038;0,445819;-0,230229;-0,0537534;0,148252;-0,0725123;-0,112975;-0,0354388;0,110929;-0,110341;-0,0356276;-0,113993;-0;0,340559;-0,186682;3,62636;0,0221657;-0,0301942;0;1,26003;0,952099;-1080;1080;-300;1700;-10;10;-0;-0;0;-0;250;-1,2;0,2;177;-1,2;-1;2555;0,07;2294;4025;8;56579;
18,2212;1,19364;-1,17451;22;-78;2589;0;0,142849;-0,0725549;-0,115826;0,0485237;-0,0295071;0,0230795;-0,0222582;-0,0693011;0,174513;0,00489916;0,000642892;0,00181211;0;0;0;0;0;0;-0,022224;-0,0690085;0,176;0;0;0,004;0,448069;-0,225608;-0,0870294;0,147748;-0,071912;-0,114014;-0,0354351;0,110915;-0,110328;-0,0356238;-0,114021;-0;0,383658;-0,186683;3,62632;0,0151844;-0,0301942;0;1,26002;0,952097;-1080;1080;-300;1700;-10;10;-0;-0;0;-0;250;-1,2;0,2;177;-1,2;-1;2555;0,07;2294;4025;8;56579;
18,2313;1,19364;-1,17498;22;-76;2603;0;0,14265;-0,0704967;-0,162965;0,0499616;-0,0302177;0,0214368;-0,022258;-0,0692997;0,174977;0,00455035;-0,000699751;0,0477992;0;0;0;0;0;0;-0,022224;-0,0690085;0,176;0;0;0,05;0,450491;-0,221014;-0,122865;0,1472;-0,0711964;-0,115166;-0,035431;0,110901;-0,110313;-0,0356197;-0,114052;-0;0,432117;-0,19087;3,59537;0,00767945;-0,0307178;0;1,26002;0,952096;-1080;1080;-300;1700;-10;10;-0;-0;0;-0;250;-1,2;0,2;177;-1,2;-1;2555;0,07;2294;4025;8;56579;
18,2418;1,19364;-1,17499;22;-76;2603;0;0,142625;-0,0705524;-0,162999;0,0514516;-0,0309547;0,0197339;-0,0222578;-0,0692982;0,174985;0,00457479;-0,000644411;0,0478325;0;0;0;0;0;0;-0,022224;-0,0690085;0,176;0;0;0,05;0,450491;-0,221014;-0,122865;0,1472;-0,0711968;-0,115166;-0,0354313;0,110901;-0,110313;-0,03562;-0,114052;-0;0,434477;-0,191912;3,56143;0,00767945;-0,0307178;0;1,26002;0,952095;-1080;1080;-300;1700;-10;10;-0;-0;0;-0;250;-1,2;0,2;177;-1,2;-1;2555;0,07;2294;4025;8;56579;
18,2513;1,19364;-1,17535;23;-74;2614;0;0,142095;-0,0682961;-0,198924;0,0528094;-0,0316073;0,0178332;-0,0222576;-0,0692968;0,175348;0,00482563;-0,00185729;0,0827652;0;0;0;0;0;0;-0,022224;-0,0690085;0,176;0;0;0,085;0,449481;-0,21611;-0,151022;0,146921;-0,0701534;-0,116158;-0,0354282;0,110889;-0,110302;-0,0356169;-0,114076;-0;0,470373;-0,204993;3,56141;0,00191986;-0,0328122;0;1,26001;0,952094;-1080;1080;-300;1700;-10;10;-0;-0;0;-0;250;-1,2;0,2;177;-1,2;-1;2555;0,07;2294;4025;8;56579;
18,2612;1,19093;-1,22004;-27;-42;2627;0;0,199977;-0,0388369;-0,242715;0,0547923;-0,0319924;0,0154264;-0,0115053;-0,0861664;0,220041;-0,0445493;-0,00253412;0,123843;0;0;0;0;0;0;-0,011112;-0,0861038;0,22;-0,04;0,03;0,126;0,598037;-0,123281;-0,184297;0,155428;-0,041371;-0,118872;-0,0151201;0,114101;-0,113238;-0,0152352;-0,117036;-0;0,500707;-0,206936;3,53554;-0,00261799;-0,0329867;0;1,43806;0,991203;-1080;1080;-300;1700;-10;10;-0;-0;0;-0;250;-1,2;0,2;177;-1,2;-1;2555;0,07;2287;4013;8;56579;
18,2713;1,19093;-1,21993;-39;-43;2628;0;0,199816;-0,0402017;-0,243833;0,0568091;-0,0323982;0,0129654;-0,0114677;-0,0861929;0,219928;-0,0443617;-0,00109773;0,12497;0;0;0;0;0;0;-0,011112;-0,0861038;0,22;-0,04;0,03;0,126;0,633355;-0,126264;-0,186857;0,155454;-0,0412994;-0,118863;-0,0150675;0,114112;-0,113249;-0,0151823;-0,117029;-0;0,503223;-0,207976;3,50402;-0,00261799;-0,0329867;0;1,43853;0,991265;-1080;1080;-300;1700;-10;10;-0;-0;0;-0;250;-1,2;0,2;177;-1,2;-1;2555;0,07;2287;4013;8;56579;
18,2813;1,19093;-1,22037;-37;-42;2640;0;0,197962;-0,0386085;-0,284705;0,0587889;-0,0327843;0,0101181;-0,0114804;-0,0861816;0,220371;-0,0429099;-0,00206973;0,165105;0;0;0;0;0;0;-0,011112;-0,0861038;0,22;-0,04;0,03;0,166;0,630374;-0,123891;-0,217573;0,155053;-0,0406782;-0,119599;-0,0150839;0,114095;-0,113232;-0,0151988;-0,117057;-0;0,536197;-0,195901;3,50321;-0,00785398;-0,0310669;0;1,43836;0,991244;-1080;1080;-300;1700;-10;10;-0;-0;0;-0;250;-1,2;0,2;177;-1,2;-1;2555;0,07;2287;4013;8;56579;
18,2914;1,19093;-1,22091;-36;-39;2655;0;0,196864;-0,0366712;-0,336116;0,0607701;-0,0331533;0,00673543;-0,0114856;-0,0861759;0,220913;-0,0418957;-0,00337092;0,216193;0;0;0;0;0;0;-0,011112;-0,0861038;0,22;-0,04;0,03;0,217;0,631001;-0,115697;-0,255969;0,154968;-0,0400421;-0,119923;-0,0150893;0,114076;-0,113214;-0,0152043;-0,117091;-0;0,555225;-0,182445;3,47379;-0,010472;-0,0287979;0;1,4383;0,991235;-1080;1080;-300;1700;-10;10;-0;-0;0;-0;250;-1,2;0,2;177;-1,2;-1;2555;0,07;2287;4013;8;56579;
18,3012;1,19093;-1,22089;-36;-39;2655;0;0,196964;-0,0367021;-0,336209;0,0627122;-0,0335152;0,00342041;-0,0114801;-0,0861783;0,220888;-0,041992;-0,00332991;0,216288;0;0;0;0;0;0;-0,011112;-0,0861038;0,22;-0,04;0,03;0,217;0,631001;-0,115697;-0,255969;0,154972;-0,040032;-0,119921;-0,0150819;0,114078;-0,113216;-0,0151967;-0,117089;-0;0,558468;-0,18351;3,43678;-0,010472;-0,0287979;0;1,43836;0,991243;-1080;1080;-300;1700;-10;10;-0;-0;0;-0;250;-1,2;0,2;177;-1,2;-1;2555;0,07;2287;4013;8;56579;
18,3113;1,19093;-1,22129;-35;-37;2667;0;0,19572;-0,0348166;-0,37569;0,0646708;-0,0338636;-0,000339122;-0,0114808;-0,0861761;0,22129;-0,0408505;-0,00442513;0,255375;0;0;0;0;0;0;-0,011112;-0,0861038;0,22;-0,04;0,03;0,256;0,630886;-0,11026;-0,286685;0,154869;-0,0392417;-0,120314;-0,0150814;0,114065;-0,113203;-0,0151963;-0,117115;-0;0,576201;-0,176841;3,43671;-0,0132645;-0,0277507;0;1,43835;0,991242;-1080;1080;-300;1700;-10;10;-0;-0;0;-0;250;-1,2;0,2;177;-1,2;-1;2555;0,07;2287;4013;8;56579;
18,3212;1,19093;-1,22168;-34;-35;2681;0;0,194784;-0,0328493;-0,422035;0,0666112;-0,0341909;-0,00454344;-0,0114708;-0,0861818;0,221685;-0,0398786;-0,00557251;0,301503;0;0;0;0;0;0;-0,011112;-0,0861038;0,22;-0,04;0,03;0,302;0,631215;-0,104848;-0,322521;0,154906;-0,0384218;-0,120532;-0,0150659;0,114054;-0,113192;-0,0151806;-0,117139;-0;0,589897;-0,168694;3,40829;-0,0150098;-0,0263545;0;1,43847;0,991258;-1080;1080;-300;1700;-10;10;-0;-0;0;-0;250;-1,2;0,2;177;-1,2;-1;2555;0,07;2287;4013;8;56579;
18,3312;1,19093;-1,22172;-33;-35;2681;0;0,194727;-0,0329449;-0,422077;0,0685598;-0,0345206;-0,00876717;-0,0114749;-0,086177;0,221721;-0,0398249;-0,00548496;0,301543;0;0;0;0;0;0;-0,011112;-0,0861038;0,22;-0,04;0,03;0,302;0,628232;-0,104848;-0,322521;0,154902;-0,0384298;-0,120535;-0,0150718;0,114052;-0,11319;-0,0151866;-0,117142;-0;0,592971;-0,169573;3,37492;-0,0150098;-0,0263545;0;1,43842;0,991251;-1080;1080;-300;1700;-10;10;-0;-0;0;-0;250;-1,2;0,2;177;-1,2;-1;2555;0,07;2287;4013;8;56579;
18,3413;1,19093;-1,22198;-33;-33;2690;0;0,194263;-0,0308784;-0,45021;0,0705176;-0,0348317;-0,0133044;-0,0114713;-0,086178;0,221978;-0,0391822;-0,006458;0,329563;0;0;0;0;0;0;-0,011112;-0,0861038;0,22;-0,04;0,03;0,33;0,630341;-0,099189;-0,345558;0,155081;-0,0373364;-0,120648;-0,0150659;0,114045;-0,113183;-0,0151807;-0,117158;-0;0,598566;-0,167329;3,37489;-0,0158825;-0,0260054;0;1,43846;0,991257;-1080;1080;-300;1700;-10;10;-0;-0;0;-0;250;-1,2;0,2;177;-1,2;-1;2555;0,07;2287;4013;8;56579;
18,3512;1,19093;-1,22198;-33;-33;2690;0;0,194255;-0,0309487;-0,450264;0,0724443;-0,0351387;-0,0177701;-0,0114713;-0,0861763;0,221983;-0,0391743;-0,00638807;0,329617;0;0;0;0;0;0;-0,011112;-0,0861038;0,22;-0,04;0,03;0,33;0,630341;-0,099189;-0,345558;0,155081;-0,0373368;-0,120648;-0,0150662;0,114045;-0,113183;-0,0151809;-0,117158;-0;0,60045;-0,167855;3,35464;-0,0158825;-0,0260054;0;1,43846;0,991256;-1080;1080;-300;1700;-10;10;-0;-0;0;-0;250;-1,2;0,2;177;-1,2;-1;2555;0,07;2287;4013;8;56579;
18,3612;1,19093;-1,22242;-32;-30;2702;0;0,193285;-0,0280542;-0,492468;0,0743674;-0,0354178;-0,0226702;-0,0114723;-0,0861738;0,222419;-0,0380919;-0,00813456;0,371614;0;0;0;0;0;0;-0,011112;-0,0861038;0,22;-0,04;0,03;0,372;0,630146;-0,0905746;-0,376274;0,155193;-0,0361887;-0,120853;-0,0150661;0,11403;-0,113169;-0,0151808;-0,117186;-0;0,607184;-0,174614;3,3546;-0,0169297;-0,0270526;0;1,43844;0,991254;-1080;1080;-300;1700;-10;10;-0;-0;0;-0;250;-1,2;0,2;177;-1,2;-1;2555;0,07;2287;4013;8;56579;
18,3712;1,19093;-1,22278;-32;-27;2715;0;0,192839;-0,0248972;-0,536605;0,0763062;-0,0356681;-0,0280652;-0,0114641;-0,0861782;0,222784;-0,0374277;-0,010107;0,415683;0;0;0;0;0;0;-0,011112;-0,0861038;0,22;-0,04;0,03;0,416;0,633178;-0,0819098;-0,40955;0,155411;-0,0350042;-0,120922;-0,0150532;0,11402;-0,113158;-0,0151679;-0,117209;-0;0,611168;-0,183357;3,32422;-0,0171042;-0,0282743;0;1,43854;0,991268;-1080;1080;-300;1700;-10;10;-0;-0;0;-0;250;-1,2;0,2;177;-1,2;-1;2555;0,07;2287;4013;8;56579;
18,3813;1,19093;-1,22278;-32;-27;2716;0;0,19285;-0,0249908;-0,536691;0,0782563;-0,0359209;-0,0334922;-0,0114636;-0,0861769;0,222784;-0,037439;-0,0100129;0,415769;0;0;0;0;0;0;-0,011112;-0,0861038;0,22;-0,04;0,03;0,416;0,633411;-0,0819399;-0,41211;0,155411;-0,0350037;-0,120922;-0,0150529;0,11402;-0,113159;-0,0151675;-0,117209;-0;0,614163;-0,184255;3,29244;-0,0171042;-0,0282743;0;1,43855;0,991268;-1080;1080;-300;1700;-10;10;-0;-0;0;-0;250;-1,2;0,2;177;-1,2;-1;2555;0,07;2287;4013;8;56579;
18,3914;1,19093;-1,22325;-31;-24;2728;0;0,192107;-0,0218928;-0,579739;0,0801816;-0,0361403;-0,0393024;-0,011466;-0,0861734;0,223245;-0,0364961;-0,0119036;0,458731;0;0;0;0;0;0;-0,011112;-0,0861038;0,22;-0,04;0,03;0,459;0,633174;-0,0731577;-0,442826;0,155611;-0,0337964;-0,121008;-0,0150546;0,114005;-0,113143;-0,0151692;-0,117238;-0;0,616433;-0,189942;3,29238;-0,0174533;-0,029147;0;1,43852;0,991264;-1080;1080;-300;1700;-10;10;-0;-0;0;-0;250;-1,2;0,2;177;-1,2;-1;2555;0,07;2287;4013;8;56579;
18,4012;1,19093;-1,22364;-31;-22;2740;0;0,191926;-0,0201387;-0,617705;0,0820727;-0,0363387;-0,0453886;-0,0114666;-0,0861713;0,22364;-0,0360408;-0,0127088;0,496788;0;0;0;0;0;0;-0,011112;-0,0861038;0,22;-0,04;0,03;0,497;0,635959;-0,0673564;-0,473542;0,155885;-0,0328476;-0,120917;-0,015054;0,113992;-0,113131;-0,0151686;-0,117262;-0;0,617089;-0,18399;3,26139;-0,0171042;-0,0280998;0;1,43851;0,991262;-1080;1080;-300;1700;-10;10;-0;-0;0;-0;250;-1,2;0,2;177;-1,2;-1;2555;0,07;2287;4013;8;56579;
18,4112;1,19093;-1,22358;-31;-22;2740;0;0,191994;-0,0201589;-0,617768;0,0839991;-0,036541;-0,0515873;-0,0114612;-0,0861737;0,223577;-0,0361033;-0,0126792;0,496855;0;0;0;0;0;0;-0,011112;-0,0861038;0,22;-0,04;0,03;0,497;0,635959;-0,0673564;-0,473542;0,15589;-0,032838;-0,120913;-0,0150469;0,113995;-0,113134;-0,0151615;-0,117258;-0;0,619664;-0,184758;3,23406;-0,0171042;-0,0280998;0;1,43857;0,991271;-1080;1080;-300;1700;-10;10;-0;-0;0;-0;250;-1,2;0,2;177;-1,2;-1;2555;0,07;2287;4013;8;56579;
18,4212;1,19093;-1,22387;-31;-19;2752;0;0,19208;-0,018145;-0,657597;0,0859159;-0,036722;-0,0581494;-0,0114527;-0,0861784;0,223869;-0,0358909;-0,0137679;0,536822;0;0;0;0;0;0;-0,011112;-0,0861038;0,22;-0,04;0,03;0,537;0,638744;-0,0584264;-0,504258;0,156189;-0,0319129;-0,120775;-0,0150339;0,113987;-0,113126;-0,0151484;-0,117277;-0;0,615098;-0,180171;3,23401;-0,0164061;-0,0274017;0;1,43868;0,991285;-1080;1080;-300;1700;-10;10;-0;-0;0;-0;250;-1,2;0,2;177;-1,2;-1;2555;0,07;2287;4013;8;56579;
18,4313;1,18716;-1,20429;-35;-26;2765;0;0,196216;-0,0242417;-0,700794;0,0878989;-0,036967;-0,0652317;-0,0227263;-0,100904;0,204288;-0,0426534;-0,0208456;0,580854;0;0;0;0;0;0;-0,022224;-0,100762;0,2;-0,05;0,03;0,581;0,654068;-0,0803288;-0,537534;0,153563;-0,0450873;-0,11994;-0,0251592;0,112914;-0,111706;-0,0254313;-0,116156;-0;0,618928;-0,17289;3,20534;-0,0165806;-0,0261799;0;1,34927;0,975562;-1080;1080;-300;1700;-10;10;-0;-0;0;-0;250;-1,2;0,2;177;-1,2;-1;2555;0,07;2283;4003;8;56579;
18,4413;1,18716;-1,20423;-35;-26;2765;0;0,195996;-0,0241517;-0,700569;0,0898557;-0,0372082;-0,0722262;-0,0227211;-0,100905;0,204235;-0,0424281;-0,0209284;0,580633;0;0;0;0;0;0;-0,022224;-0,100762;0,2;-0,05;0,03;0,581;0,654068;-0,0803288;-0,537534;0,153568;-0,0450801;-0,119937;-0,0251538;0,112917;-0,111709;-0,0254258;-0,116153;-0;0,621842;-0,173704;3,17424;-0,0165806;-0,0261799;0;1,34932;0,975574;-1080;1080;-300;1700;-10;10;-0;-0;0;-0;250;-1,2;0,2;177;-1,2;-1;2555;0,07;2283;4003;8;56579;
18,4514;1,18716;-1,20489;-35;-24;2783;0;0,196363;-0,0226191;-0,760196;0,091828;-0,0374353;-0,0798616;-0,0227249;-0,100901;0,204894;-0,0423325;-0,0216685;0,640558;0;0;0;0;0;0;-0,022224;-0,100762;0,2;-0,05;0,03;0,641;0,658326;-0,0746326;-0,583609;0,15403;-0,0442877;-0,119638;-0,0251543;0,112895;-0,111688;-0,0254263;-0,116195;-0;0,611449;-0,162122;3,1744;-0,0150098;-0,0244346;0;1,34927;0,975564;-1080;1080;-300;1700;-10;10;-0;-0;0;-0;250;-1,2;0,2;177;-1,2;-1;2555;0,07;2283;4003;8;56579;
18,4613;1,18716;-1,20532;-35;-24;2798;0;0,196068;-0,0221825;-0,813139;0,0937871;-0,037657;-0,0879864;-0,0227163;-0,100904;0,20532;-0,0416824;-0,0212704;0,693653;0;0;0;0;0;0;-0,022224;-0,100762;0,2;-0,05;0,03;0,694;0,661874;-0,0750349;-0,622004;0,154386;-0,0434529;-0,119486;-0,0251415;0,112884;-0,111676;-0,0254134;-0,116222;-0;0,614243;-0,143361;3,13148;-0,0148353;-0,0214675;0;1,34936;0,975583;-1080;1080;-300;1700;-10;10;-0;-0;0;-0;250;-1,2;0,2;177;-1,2;-1;2555;0,07;2283;4003;8;56579;
18,4713;1,18716;-1,20534;-35;-24;2798;0;0,196005;-0,0222269;-0,813131;0,0957422;-0,0378787;-0,0960974;-0,0227168;-0,100901;0,205335;-0,0416202;-0,0212274;0,693644;0;0;0;0;0;0;-0,022224;-0,100762;0,2;-0,05;0,03;0,694;0,661874;-0,0750349;-0,622004;0,154385;-0,0434543;-0,119487;-0,0251426;0,112883;-0,111676;-0,0254144;-0,116223;-0;0,617749;-0,144179;3,09336;-0,0148353;-0,0214675;0;1,34935;0,975581;-1080;1080;-300;1700;-10;10;-0;-0;0;-0;250;-1,2;0,2;177;-1,2;-1;2555;0,07;2283;4003;8;56579;
18,4813;1,18716;-1,20559;-35;-25;2808;0;0,19564;-0,0234818;-0,845067;0,0976877;-0,0381122;-0,104501;-0,0227118;-0,100902;0,205592;-0,0410075;-0,0194648;0,725717;0;0;0;0;0;0;-0,022224;-0,100762;0,2;-0,05;0,03;0,726;0,66424;-0,0784406;-0,647601;0,154633;-0,0429466;-0,119349;-0,0251352;0,112876;-0,111669;-0,025407;-0,11624;-0;0,618916;-0,118393;3,09337;-0,0150098;-0,0176278;0;1,3494;0,975592;-1080;1080;-300;1700;-10;10;-0;-0;0;-0;250;-1,2;0,2;177;-1,2;-1;2555;0,07;2283;4003;8;56579;
18,4913;1,18716;-1,20555;-35;-25;2808;0;0,195613;-0,0234618;-0,845031;0,0996587;-0,0383486;-0,113015;-0,0227085;-0,100902;0,205552;-0,0409771;-0,0194806;0,725684;0;0;0;0;0;0;-0,022224;-0,100762;0,2;-0,05;0,03;0,726;0,66424;-0,0784406;-0,647601;0,154636;-0,0429424;-0,119347;-0,0251321;0,112878;-0,111671;-0,0254039;-0,116237;-0;0,621034;-0,118799;3,07038;-0,0150098;-0,0176278;0;1,34943;0,975598;-1080;1080;-300;1700;-10;10;-0;-0;0;-0;250;-1,2;0,2;177;-1,2;-1;2555;0,07;2283;4003;8;56579;
18,5013;1,18716;-1,20618;-32;-25;2829;0;0,193119;-0,0228619;-0,91335;0,101586;-0,0385768;-0,122131;-0,0227045;-0,100902;0,206178;-0,0383963;-0,0191509;0,793784;0;0;0;0;0;0;-0,022224;-0,100762;0,2;-0,05;0,03;0,794;0,659764;-0,0790272;-0,701354;0,154723;-0,0420128;-0,119565;-0,0251235;0,11286;-0,111652;-0,0253951;-0,116277;-0;0,633915;-0,102333;3,0704;-0,0169297;-0,0151844;0;1,34947;0,975607;-1080;1080;-300;1700;-10;10;-0;-0;0;-0;250;-1,2;0,2;177;-1,2;-1;2555;0,07;2283;4003;8;56579;
18,5112;1,18716;-1,20662;-33;-19;2840;0;0,193508;-0,0180456;-0,950223;0,103506;-0,0387559;-0,131561;-0,0227087;-0,100898;0,206624;-0,0384021;-0,0225216;0,830655;0;0;0;0;0;0;-0,022224;-0,100762;0,2;-0,05;0,03;0,831;0,66549;-0,0602947;-0,729511;0,155106;-0,0405672;-0,119567;-0,0251259;0,112844;-0,111637;-0,0253975;-0,116306;-0;0,632643;-0,123219;3,02122;-0,016057;-0,0181514;0;1,34942;0,975596;-1080;1080;-300;1700;-10;10;-0;-0;0;-0;250;-1,2;0,2;177;-1,2;-1;2555;0,07;2283;4003;8;56579;
18,5213;1,18716;-1,20651;-33;-20;2840;0;0,193649;-0,0181721;-0,950415;0,105447;-0,038938;-0,141086;-0,0227015;-0,1009;0,206512;-0,0385341;-0,0223852;0,830855;0;0;0;0;0;0;-0,022224;-0,100762;0,2;-0,05;0,03;0,831;0,66549;-0,063468;-0,729511;0,155114;-0,0405573;-0,11956;-0,0251185;0,11285;-0,111643;-0,0253901;-0,116298;-0;0,635116;-0,123701;2,99467;-0,016057;-0,0181514;0;1,34949;0,975612;-1080;1080;-300;1700;-10;10;-0;-0;0;-0;250;-1,2;0,2;177;-1,2;-1;2555;0,07;2283;4003;8;56579;
18,5312;1,18716;-1,20696;-34;-14;2855;0;0,194635;-0,0130643;-1,0031;0,107382;-0,0390679;-0,151058;-0,0226963;-0,100901;0,206959;-0,0390217;-0,0259577;0,883681;0;0;0;0;0;0;-0,022224;-0,100762;0,2;-0,05;0,03;0,884;0,672181;-0,0446626;-0,767906;0,155614;-0,039022;-0,119422;-0,0251097;0,112837;-0,11163;-0,0253812;-0,116327;-0;0,624469;-0,140354;2,99454;-0,0144862;-0,0205949;0;1,34954;0,975623;-1080;1080;-300;1700;-10;10;-0;-0;0;-0;250;-1,2;0,2;177;-1,2;-1;2555;0,07;2283;4003;8;56579;
18,5413;1,18717;-1,20742;-34;-15;2868;0;0,194428;-0,01426;-1,04421;0,109349;-0,0392121;-0,161624;-0,0226989;-0,100897;0,207421;-0,0385656;-0,0241543;0,924917;0;0;0;0;0;0;-0,022224;-0,100762;0,2;-0,05;0,03;0,925;0,675242;-0,0480706;-0,801182;0,155863;-0,0384143;-0,119295;-0,02511;0,112821;-0,111615;-0,0253814;-0,116356;-0;0,626754;-0,120804;2,9566;-0,0143117;-0,0176278;0;1,34951;0,975616;-1080;1080;-300;1700;-10;10;-0;-0;0;-0;250;-1,2;0,2;177;-1,2;-1;2555;0,07;2283;4003;8;56579;
18,5513;1,18717;-1,20731;-34;-15;2868;0;0,194433;-0,0142138;-1,04417;0,11129;-0,039354;-0,172046;-0,0226925;-0,100899;0,20731;-0,0385625;-0,0241918;0,924886;0;0;0;0;0;0;-0,022224;-0,100762;0,2;-0,05;0,03;0,925;0,675242;-0,0480706;-0,801182;0,15587;-0,0384056;-0,119288;-0,0251037;0,112826;-0,11162;-0,0253751;-0,116349;-0;0,62946;-0,121326;2,92701;-0,0143117;-0,0176278;0;1,34957;0,97563;-1080;1080;-300;1700;-10;10;-0;-0;0;-0;250;-1,2;0,2;177;-1,2;-1;2555;0,07;2283;4003;8;56579;
18,5613;1,18717;-1,20785;-31;-15;2880;0;0,192467;-0,0135906;-1,08541;0,113215;-0,03949;-0,182903;-0,0226989;-0,100893;0,207851;-0,0364697;-0,023738;0,965949;0;0;0;0;0;0;-0,022224;-0,100762;0,2;-0,05;0,03;0,966;0,668453;-0,0482717;-0,831898;0,155997;-0,0373285;-0,119463;-0,0251081;0,112807;-0,111601;-0,0253795;-0,116384;-0;0,639027;-0,110515;2,92704;-0,015708;-0,016057;0;1,3495;0,975614;-1080;1080;-300;1700;-10;10;-0;-0;0;-0;250;-1,2;0,2;177;-1,2;-1;2555;0,07;2283;4003;8;56579;
18,5713;1,18717;-1,20806;-31;-15;2892;0;0,192019;-0,0141864;-1,1234;0,115142;-0,0396323;-0,194173;-0,0226897;-0,100896;0,208059;-0,0357515;-0,0222238;1,004;0;0;0;0;0;0;-0,022224;-0,100762;0,2;-0,05;0,03;1,004;0,671238;-0,0484729;-0,862614;0,156267;-0,0364102;-0,119394;-0,0250961;0,112803;-0,111597;-0,0253674;-0,116397;-0;0,642985;-0,0928966;2,89735;-0,0158825;-0,013439;0;1,34959;0,975635;-1080;1080;-300;1700;-10;10;-0;-0;0;-0;250;-1,2;0,2;177;-1,2;-1;2555;0,07;2283;4003;8;56579;
18,5812;1,18717;-1,20804;-31;-15;2892;0;0,191987;-0,0142126;-1,12339;0,117033;-0,0397723;-0,20524;-0,0226885;-0,100895;0,208041;-0,0357188;-0,0221965;1,004;0;0;0;0;0;0;-0,022224;-0,100762;0,2;-0,05;0,03;1,004;0,671238;-0,0484729;-0,862614;0,156268;-0,036409;-0,119393;-0,0250952;0,112804;-0,111598;-0,0253665;-0,116396;-0;0,645528;-0,0932641;2,87;-0,0158825;-0,013439;0;1,3496;0,975636;-1080;1080;-300;1700;-10;10;-0;-0;0;-0;250;-1,2;0,2;177;-1,2;-1;2555;0,07;2283;4003;8;56579;
18,5913;1,18717;-1,2086;-30;-15;2909;0;0,19126;-0,0141065;-1,18037;0,118963;-0,0399147;-0,217154;-0,0226876;-0,100893;0,208601;-0,0347303;-0,0213092;1,06102;0;0;0;0;0;0;-0,022224;-0,100762;0,2;-0,05;0,03;1,061;0,671947;-0,0487578;-0,906129;0,15653;-0,0354157;-0,119348;-0,0250907;0,112786;-0,11158;-0,0253619;-0,116431;-0;0,645528;-0,0799412;2,87001;-0,0158825;-0,0115192;0;1,34961;0,975638;-1080;1080;-300;1700;-10;10;-0;-0;0;-0;250;-1,2;0,2;177;-1,2;-1;2555;0,07;2283;4003;8;56579;
18,6012;1,18717;-1,20878;-28;-15;2921;0;0,188971;-0,014183;-1,22264;0,120839;-0,0400554;-0,229286;-0,0226763;-0,100898;0,208781;-0,0323411;-0,020166;1,10311;0;0;0;0;0;0;-0,022224;-0,100762;0,2;-0,05;0,03;1,103;0,668217;-0,0489589;-0,936845;0,156629;-0,0343491;-0,11953;-0,0250764;0,112784;-0,111578;-0,0253475;-0,116443;-0;0,660261;-0,0670119;2,82899;-0,0174533;-0,00959931;0;1,34973;0,975663;-1080;1080;-300;1700;-10;10;-0;-0;0;-0;250;-1,2;0,2;177;-1,2;-1;2555;0,07;2283;4003;8;56579;
18,6112;1,18717;-1,209;-28;-15;2921;0;0,188858;-0,014277;-1,22264;0,122735;-0,0401987;-0,241561;-0,0226861;-0,10089;0,209004;-0,0322424;-0,0200873;1,10309;0;0;0;0;0;0;-0,022224;-0,100762;0,2;-0,05;0,03;1,103;0,668217;-0,0489589;-0,936845;0,156615;-0,0343643;-0,119544;-0,0250871;0,112774;-0,111568;-0,0253583;-0,116457;-0;0,663139;-0,067304;2,79856;-0,0174533;-0,00959931;0;1,34962;0,975639;-1080;1080;-300;1700;-10;10;-0;-0;0;-0;250;-1,2;0,2;177;-1,2;-1;2555;0,07;2283;4003;8;56579;
18,6212;1,18717;-1,20906;-25;-15;2930;0;0,18602;-0,0135243;-1,25201;0,124594;-0,040334;-0,254078;-0,0226753;-0,100895;0,209059;-0,0293732;-0,019669;1,13218;0;0;0;0;0;0;-0,022224;-0,100762;0,2;-0,05;0,03;1,132;0,660493;-0,0491098;-0,959883;0,156647;-0,0331932;-0,119834;-0,0250742;0,112775;-0,111569;-0,0253453;-0,116461;-0;0,677756;-0,0599619;2,79856;-0,0195477;-0,00855211;0;1,34973;0,975664;-1080;1080;-300;1700;-10;10;-0;-0;0;-0;250;-1,2;0,2;177;-1,2;-1;2555;0,07;2283;4003;8;56579;
18,6312;1,18717;-1,20962;-24;-15;2944;0;0,185487;-0,0138857;-1,29896;0,126442;-0,0404723;-0,26702;-0,0226788;-0,100891;0,209616;-0,0285717;-0,018234;1,17919;0;0;0;0;0;0;-0,022224;-0,100762;0,2;-0,05;0,03;1,179;0,660372;-0,0493444;-0,995718;0,156916;-0,0321198;-0,119774;-0,025075;0,112756;-0,111551;-0,0253461;-0,116496;-0;0,678579;-0,0466415;2,77741;-0,0193732;-0,00663225;0;1,34969;0,975654;-1080;1080;-300;1700;-10;10;-0;-0;0;-0;250;-1,2;0,2;177;-1,2;-1;2555;0,07;2283;4003;8;56579;
18,6413;1,18717;-1,20952;-24;-15;2944;0;0,185513;-0,0138595;-1,29895;0,128315;-0,0406122;-0,280134;-0,0226745;-0,100891;0,20952;-0,0285913;-0,0182545;1,17919;0;0;0;0;0;0;-0,022224;-0,100762;0,2;-0,05;0,03;1,179;0,660372;-0,0493444;-0,995718;0,156922;-0,032114;-0,119768;-0,025071;0,11276;-0,111555;-0,025342;-0,11649;-0;0,68184;-0,0468657;2,74361;-0,0193732;-0,00663225;0;1,34973;0,975664;-1080;1080;-300;1700;-10;10;-0;-0;0;-0;250;-1,2;0,2;177;-1,2;-1;2555;0,07;2283;4003;8;56579;
18,6513;1,18717;-1,20988;-23;-13;2958;0;0,184347;-0,0123131;-1,34402;0,130166;-0,0407358;-0,293628;-0,0226705;-0,100892;0,20988;-0,027224;-0,0185537;1,22419;0;0;0;0;0;0;-0,022224;-0,100762;0,2;-0,05;0,03;1,224;0,66022;-0,0429686;-1,03155;0,157123;-0,0308667;-0,119831;-0,0250642;0,11275;-0,111544;-0,0253351;-0,116513;-0;0,684295;-0,0443991;2,74362;-0,0197222;-0,00628319;0;1,34977;0,975672;-1080;1080;-300;1700;-10;10;-0;-0;0;-0;250;-1,2;0,2;177;-1,2;-1;2555;0,07;2283;4003;8;56579;
18,6613;1,18717;-1,20999;-23;-13;2958;0;0,184321;-0,0124222;-1,34409;0,132004;-0,0408597;-0,307028;-0,0226749;-0,100887;0,209993;-0,0272048;-0,0184518;1,22425;0;0;0;0;0;0;-0,022224;-0,100762;0,2;-0,05;0,03;1,224;0,66022;-0,0429686;-1,03155;0,157117;-0,0308739;-0,119838;-0,0250691;0,112745;-0,11154;-0,0253401;-0,11652;-0;0,687436;-0,044603;2,71117;-0,0197222;-0,00628319;0;1,34971;0,975661;-1080;1080;-300;1700;-10;10;-0;-0;0;-0;250;-1,2;0,2;177;-1,2;-1;2555;0,07;2283;4003;8;56579;
18,6713;1,18273;-1,01338;2;17;2968;0;0,160448;0,0165871;-1,37919;0,133613;-0,0406933;-0,32086;-0,0565748;-0,105795;0,013382;-0,00875078;-0,0912521;1,27236;0;0;0;0;0;0;-0,05556;-0,105045;0,004;-0,09;-0,03;1,273;0,579818;0,0563795;-1,05715;0,151697;-0,074665;-0,106832;-0,0567335;0,107641;-0,106092;-0,057562;-0,103082;-0;0,69484;-0,0545149;2,71113;-0,0207694;-0,00767945;0;1,07973;0,88183;-1080;1080;-300;1700;-10;10;-0;-0;0;-0;250;-1,2;0,2;177;-1,2;-1;2555;0,07;2281;3999;8;56579;
18,6813;1,18273;-1,01366;0;19;2981;0;0,163284;0,018788;-1,42192;0,135246;-0,0405055;-0,33508;-0,0565634;-0,105789;0,0136648;-0,010847;-0,092246;1,31531;0;0;0;0;0;0;-0,05556;-0,105045;0,004;-0,09;-0,03;1,315;0,589;0,0632882;-1,09043;0,152437;-0,073458;-0,106616;-0,056723;0,107636;-0,106087;-0,0575512;-0,103103;-0;0,684938;-0,0571957;2,68585;-0,0190241;-0,00802851;0;1,07979;0,881859;-1080;1080;-300;1700;-10;10;-0;-0;0;-0;250;-1,2;0,2;177;-1,2;-1;2555;0,07;2281;3999;8;56579;
18,6955;1,18273;-1,01417;-1;19;2995;0;0,16355;0,018797;-1,46889;0,137565;-0,0402389;-0,355913;-0,0565637;-0,105787;0,0141653;-0,0104381;-0,0911086;1,36246;0;0;0;0;0;0;-0,05556;-0,105045;0,004;-0,09;-0,03;1,362;0,595103;0,0635854;-1,12626;0,153112;-0,0723115;-0,106432;-0,0567166;0,107622;-0,106073;-0,0575446;-0,103141;-0;0,68168;-0,0487016;2,65509;-0,0181514;-0,00680678;0;1,07978;0,881854;-1080;1080;-300;1700;-10;10;-0;-0;0;-0;250;-1,2;0,2;177;-1,2;-1;2555;0,07;2281;3999;8;56579;
18,7013;1,18273;-1,01407;0;19;2995;0;0,163528;0,0187678;-1,46889;0,138502;-0,0401313;-0,36433;-0,0565561;-0,105782;0,014075;-0,0104092;-0,0910754;1,36246;0;0;0;0;0;0;-0,05556;-0,105045;0,004;-0,09;-0,03;1,362;0,591766;0,0635854;-1,12626;0,153119;-0,0723076;-0,106425;-0,0567139;0,107626;-0,106078;-0,0575419;-0,103134;-0;0,684902;-0,0489317;2,62128;-0,0181514;-0,00680678;0;1,07982;0,881872;-1080;1080;-300;1700;-10;10;-0;-0;0;-0;250;-1,2;0,2;177;-1,2;-1;2555;0,07;2281;3999;8;56579;
18,7113;1,18265;-1,02042;0;19;3011;0;0,162256;0,0187653;-1,52041;0,140124;-0,0399437;-0,379528;-0,0569255;-0,105903;0,0204241;-0,00894796;-0,0901709;1,41365;0;0;0;0;0;0;-0,05556;-0,105045;0,004;-0,09;-0,03;1,413;0,594927;0,0639251;-1,16722;0,153308;-0,0714057;-0,106761;-0,0568538;0,107321;-0,105769;-0,0576877;-0,103609;-0;0,677407;-0,051441;2,62128;-0,0171042;-0,00715585;0;1,07758;0,880815;-1080;1080;-300;1700;-10;10;-0;-0;0;-0;250;-1,2;0,2;177;-1,2;-1;2555;0,07;2281;3999;8;56579;
18,7212;1,18282;-1,00843;-3;24;3010;0;0,166044;0,0232912;-1,51901;0,14178;-0,0397115;-0,394675;-0,0561608;-0,105647;0,00843297;-0,0119015;-0,0942239;1,41314;0;0;0;0;0;0;-0,05556;-0,105045;0,004;-0,09;-0,03;1,413;0,604789;0,0807201;-1,16466;0,154142;-0,0709328;-0,105871;-0,0565476;0,107919;-0,106374;-0,0573689;-0,102709;-0;0,680903;-0,0517064;2,58419;-0,0171042;-0,00715585;0;1,0822;0,882991;-1080;1080;-300;1700;-10;10;-0;-0;0;-0;250;-1,2;0,2;177;-1,2;-1;2555;0,07;2281;3999;8;56579;
18,7313;1,18274;-1,01504;-2;24;3028;0;0,164685;0,0234875;-1,57973;0,143432;-0,039476;-0,410517;-0,0565417;-0,105772;0,0150384;-0,0102407;-0,0932242;1,4735;0;0;0;0;0;0;-0,05556;-0,105045;0,004;-0,09;-0,03;1,473;0,605033;0,0812029;-1,21073;0,154444;-0,0697366;-0,106225;-0,0566931;0,107602;-0,106055;-0,0575205;-0,103206;-0;0,673275;-0,054221;2,5852;-0,016057;-0,00750492;0;1,07988;0,881902;-1080;1080;-300;1700;-10;10;-0;-0;0;-0;250;-1,2;0,2;177;-1,2;-1;2555;0,07;2281;3999;8;56579;
18,7413;1,18274;-1,01538;-6;26;3041;0;0,168714;0,024968;-1,62225;0,145131;-0,0392245;-0,426854;-0,0565347;-0,105767;0,0153768;-0,0134443;-0,0935412;1,51647;0;0;0;0;0;0;-0,05556;-0,105045;0,004;-0,09;-0,03;1,516;0,62118;0,0883472;-1,24401;0,15527;-0,0685732;-0,105778;-0,0566844;0,107595;-0,106047;-0,0575116;-0,103231;-0;0,655874;-0,0532805;2,54148;-0,01309;-0,00733038;0;1,07992;0,881918;-1080;1080;-300;1700;-10;10;-0;-0;0;-0;250;-1,2;0,2;177;-1,2;-1;2555;0,07;2281;3999;8;56579;
18,7513;1,18274;-1,0154;-6;26;3041;0;0,16864;0,0247701;-1,62233;0,146814;-0,0389772;-0,44305;-0,0565348;-0,105765;0,0154047;-0,0133718;-0,0933442;1,51655;0;0;0;0;0;0;-0,05556;-0,105045;0,004;-0,09;-0,03;1,516;0,62118;0,0883472;-1,24401;0,155268;-0,0685741;-0,10578;-0,0566849;0,107594;-0,106046;-0,0575121;-0,103233;-0;0,658636;-0,0535049;2,51087;-0,01309;-0,00733038;0;1,07991;0,881914;-1080;1080;-300;1700;-10;10;-0;-0;0;-0;250;-1,2;0,2;177;-1,2;-1;2555;0,07;2281;3999;8;56579;
18,7615;1,18274;-1,01621;-4;34;3065;0;0,166554;0,0319467;-1,70137;0,148511;-0,0386518;-0,460382;-0,0565338;-0,105763;0,0162081;-0,0108118;-0,098904;1,59525;0;0;0;0;0;0;-0,05556;-0,105045;0,004;-0,09;-0,03;1,595;0,619255;0,116441;-1,30544;0,155743;-0,0669572;-0,106118;-0,0566732;0,107571;-0,106024;-0,0575001;-0,103293;-0;0,662447;-0,0751616;2,51082;-0,0136136;-0,0102974;0;1,07991;0,881913;-1080;1080;-300;1700;-10;10;-0;-0;0;-0;250;-1,2;0,2;177;-1,2;-1;2555;0,07;2281;3999;8;56579;
18,7712;1,18275;-1,01644;1;41;3078;0;0,161213;0,0390917;-1,74499;0,150075;-0,0382725;-0,477314;-0,056521;-0,105757;0,016436;-0,00519399;-0,104366;1,63823;0;0;0;0;0;0;-0,05556;-0,105045;0,004;-0,09;-0,03;1,638;0,604736;0,141007;-1,33872;0,156019;-0,0652748;-0,106759;-0,0566625;0,107568;-0,106021;-0,0574892;-0,10331;-0;0,688066;-0,097572;2,45391;-0,0164061;-0,0132645;0;1,07997;0,881946;-1080;1080;-300;1700;-10;10;-0;-0;0;-0;250;-1,2;0,2;177;-1,2;-1;2555;0,07;2281;3999;8;56579;
18,7813;1,18274;-1,01671;1;41;3078;0;0,161414;0,038926;-1,74529;0,151709;-0,0378786;-0,494974;-0,0565345;-0,105759;0,0167068;-0,00541265;-0,10421;1,63851;0;0;0;0;0;0;-0,05556;-0,105045;0,004;-0,09;-0,03;1,638;0,604736;0,141007;-1,33872;0,156001;-0,0652837;-0,106779;-0,0566679;0,107556;-0,106009;-0,0574947;-0,10333;-0;0,691003;-0,0979885;2,42251;-0,0164061;-0,0132645;0;1,07989;0,881904;-1080;1080;-300;1700;-10;10;-0;-0;0;-0;250;-1,2;0,2;177;-1,2;-1;2555;0,07;2281;3999;8;56579;
18,7914;1,18275;-1,0166;6;45;3101;0;0,156362;0,0423896;-1,82249;0,153279;-0,0374528;-0,513279;-0,0564862;-0,105741;0,0165995;-4,13083e-05;-0,106349;1,71537;0;0;0;0;0;0;-0,05556;-0,105045;0,004;-0,09;-0,03;1,715;0,591979;0,155919;-1,39759;0,156321;-0,063959;-0,107112;-0,0566396;0,107575;-0,106028;-0,0574655;-0,103322;-0;0,706427;-0,10057;2,4223;-0,0185005;-0,0136136;0;1,08017;0,882038;-1080;1080;-300;1700;-10;10;-0;-0;0;-0;250;-1,2;0,2;177;-1,2;-1;2555;0,07;2281;3999;8;56579;
18,8013;1,18275;-1,01725;6;45;3101;0;0,1564;0,0421441;-1,82275;0,15484;-0,0370323;-0,531468;-0,0565189;-0,10575;0,0172492;-0,000120167;-0,106123;1,71559;0;0;0;0;0;0;-0,05556;-0,105045;0,004;-0,09;-0,03;1,715;0,591979;0,155919;-1,39759;0,15628;-0,0639792;-0,10716;-0,0566516;0,107545;-0,105998;-0,057478;-0,10337;-0;0,711741;-0,101326;2,36672;-0,0185005;-0,0136136;0;1,07996;0,881941;-1080;1080;-300;1700;-10;10;-0;-0;0;-0;250;-1,2;0,2;177;-1,2;-1;2555;0,07;2281;3999;8;56579;
18,8113;1,18275;-1,01758;8;46;3117;0;0,154984;0,0430265;-1,87478;0,156378;-0,0366051;-0,550079;-0,0565074;-0,105744;0,0175764;0,0017531;-0,105875;1,76762;0;0;0;0;0;0;-0,05556;-0,105045;0,004;-0,09;-0,03;1,767;0,588087;0,160206;-1,43854;0,156737;-0,0628489;-0,10716;-0,0566402;0,107539;-0,105993;-0,0574663;-0,103394;-0;0,713052;-0,096133;2,36653;-0,018675;-0,0129154;0;1,08003;0,88197;-1080;1080;-300;1700;-10;10;-0;-0;0;-0;250;-1,2;0,2;177;-1,2;-1;2555;0,07;2281;3999;8;56579;
18,8213;1,18275;-1,01783;9;41;3130;0;0,153398;0,0391779;-1,91899;0,157923;-0,0362106;-0,569404;-0,0564968;-0,105739;0,0178328;0,00381634;-0,101045;1,81195;0;0;0;0;0;0;-0,05556;-0,105045;0,004;-0,09;-0,03;1,811;0,587052;0,143389;-1,47182;0,157214;-0,0618676;-0,107033;-0,0566305;0,107535;-0,105989;-0,0574563;-0,103413;-0;0,71924;-0,0731163;2,32907;-0,0190241;-0,00977384;0;1,08008;0,881997;-1080;1080;-300;1700;-10;10;-0;-0;0;-0;250;-1,2;0,2;177;-1,2;-1;2555;0,07;2281;3999;8;56579;
18,8313;1,18276;-1,01767;9;42;3130;0;0,1533;0,0393227;-1,9188;0,159455;-0,0358175;-0,588584;-0,0564875;-0,105734;0,01767;0,00392383;-0,101185;1,81177;0;0;0;0;0;0;-0,05556;-0,105045;0,004;-0,09;-0,03;1,811;0,587052;0,146886;-1,47182;0,157224;-0,0618628;-0,107021;-0,0566278;0,107542;-0,105997;-0,0574534;-0,103401;-0;0,7223;-0,0734273;2,29725;-0,0190241;-0,00977384;0;1,08013;0,88202;-1080;1080;-300;1700;-10;10;-0;-0;0;-0;250;-1,2;0,2;177;-1,2;-1;2555;0,07;2281;3999;8;56579;
18,8412;1,15235;-0,77407;22;92;3137;0;0,141728;0,171003;-1,9421;0,160852;-0,0341325;-0,607721;-0,124812;-0,155343;-0,22593;0,0118639;-0,264151;1,85416;0;0;0;0;0;0;-0,122232;-0,153303;-0,239;-0,22;-0,14;1,854;0,542909;0,322402;-1,48974;0,153592;-0,0931484;-0,0879365;-0,0786677;0,10196;-0,0979108;-0,0819207;-0,0843689;-0;0,727507;-0,0419581;2,29739;-0,0197222;-0,00558505;0;0,893947;0,77955;-1080;1080;-300;1700;-10;10;-0;-0;0;-0;250;-1,2;0,2;177;-1,2;-1;2555;0,07;2281;3997;8;56579;
18,8512;1,15236;-0,774347;18;142;3152;0;0,144975;0,163665;-1,99229;0,162306;-0,0324909;-0,627704;-0,124783;-0,155323;-0,225653;0,0095087;-0,255946;1,905;0;0;0;0;0;0;-0,122232;-0,153303;-0,239;-0,22;-0,14;1,902;0,55956;0,499814;-1,52813;0,154484;-0,0922814;-0,0872861;-0,0786585;0,101957;-0,0979093;-0,08191;-0,0843933;-0;0,714742;-0,010513;2,28061;-0,0178024;-0,00139626;0;0,893997;0,779581;-1080;1080;-300;1700;-10;10;-0;-0;0;-0;250;-1,2;0,2;177;-1,2;-1;2555;0,07;2281;3997;8;56579;
18,8613;1,15239;-0,774011;17;175;3153;0;0,146251;0,162553;-1,99398;0,163786;-0,0308457;-0,647885;-0,124739;-0,155293;-0,225989;0,00825161;-0,254831;1,90673;0;0;0;0;0;0;-0,122232;-0,153303;-0,239;-0,22;-0,14;1,902;0,563252;0,615959;-1,53069;0,154503;-0,0922782;-0,0872556;-0,078658;0,10197;-0,0979242;-0,0819077;-0,0843625;-0;0,718172;-0,0105635;2,24448;-0,0178024;-0,00139626;0;0,894075;0,77963;-1080;1080;-300;1700;-10;10;-0;-0;0;-0;250;-1,2;0,2;177;-1,2;-1;2555;0,07;2281;3997;8;56579;
18,8713;1,15238;-0,774592;10;176;3162;0;0,152272;0,163575;-2,02573;0,165296;-0,0292244;-0,667964;-0,124766;-0,155307;-0,225408;0,00307046;-0,254837;1,9389;0;0;0;0;0;0;-0,122232;-0,153303;-0,239;-0,22;-0,14;1,933;0,58953;0,62124;-1,55373;0,155342;-0,091262;-0,0868337;-0,0786524;0,101952;-0,097906;-0,0819029;-0,0844149;-0;0,693305;-0,0132064;2,24326;-0,0144862;-0,00174533;0;0,894018;0,779595;-1080;1080;-300;1700;-10;10;-0;-0;0;-0;250;-1,2;0,2;177;-1,2;-1;2555;0,07;2281;3997;8;56579;
18,8813;1,15237;-0,775093;8;180;3174;0;0,154395;0,167149;-2,06436;0,166849;-0,0275429;-0,688732;-0,124773;-0,15531;-0,224907;0,00174332;-0,257175;1,97767;0;0;0;0;0;0;-0,122232;-0,153303;-0,239;-0,22;-0,14;1,972;0,598841;0,637741;-1,58445;0,156138;-0,0900263;-0,0866963;-0,0786452;0,101939;-0,097893;-0,0818956;-0,0844599;-0;0,680888;-0,0225188;2,2204;-0,0125664;-0,00296706;0;0,893998;0,779582;-1080;1080;-300;1700;-10;10;-0;-0;0;-0;250;-1,2;0,2;177;-1,2;-1;2555;0,07;2281;3997;8;56579;
18,8913;1,1524;-0,774611;8;180;3174;0;0,154466;0,167157;-2,06435;0,168386;-0,0258791;-0,709278;-0,124714;-0,155271;-0,225389;0,00169819;-0,25718;1,9777;0;0;0;0;0;0;-0,122232;-0,153303;-0,239;-0,22;-0,14;1,972;0,598841;0,637741;-1,58445;0,156165;-0,0900222;-0,0866525;-0,0786449;0,101958;-0,0979138;-0,081893;-0,0844158;-0;0,683384;-0,0226013;2,19259;-0,0125664;-0,00296706;0;0,894104;0,779648;-1080;1080;-300;1700;-10;10;-0;-0;0;-0;250;-1,2;0,2;177;-1,2;-1;2555;0,07;2281;3997;8;56579;
18,9012;1,15239;-0,775348;8;184;3189;0;0,154249;0,171305;-2,11515;0,169916;-0,0241798;-0,73026;-0,124734;-0,155282;-0,224652;0,00252429;-0,26018;2,02841;0;0;0;0;0;0;-0,122232;-0,153303;-0,239;-0,22;-0,14;2,023;0,601671;0,654964;-1,62284;0,156773;-0,0888751;-0,0867374;-0,0786355;0,101937;-0,0978932;-0,0818839;-0,0844821;-0;0,678086;-0,0332371;2,1926;-0,0118682;-0,00436332;0;0,89406;0,779621;-1080;1080;-300;1700;-10;10;-0;-0;0;-0;250;-1,2;0,2;177;-1,2;-1;2555;0,07;2281;3997;8;56579;
18,9112;1,15241;-0,775548;9;187;3204;0;0,153502;0,174134;-2,16408;0,171454;-0,0224355;-0,751938;-0,124698;-0,155257;-0,224452;0,00385663;-0,261943;2,07731;0;0;0;0;0;0;-0,122232;-0,153303;-0,239;-0,22;-0,14;2,072;0,600931;0,66875;-1,66124;0,157359;-0,0878091;-0,0867633;-0,0786265;0,101937;-0,0978947;-0,0818732;-0,0844994;-0;0,678681;-0,0387401;2,15603;-0,0115192;-0,00506145;0;0,894123;0,77966;-1080;1080;-300;1700;-10;10;-0;-0;0;-0;250;-1,2;0,2;177;-1,2;-1;2555;0,07;2281;3997;8;56579;
18,9212;1,15243;-0,775407;9;187;3204;0;0,153617;0,174089;-2,16418;0,172992;-0,0206922;-0,77361;-0,124679;-0,155242;-0,224593;0,00374925;-0,261897;2,07743;0;0;0;0;0;0;-0,122232;-0,153303;-0,239;-0,22;-0,14;2,072;0,600931;0,66875;-1,66124;0,157366;-0,0878079;-0,0867504;-0,0786265;0,101942;-0,0979009;-0,0818723;-0,0844865;-0;0,681804;-0,0389183;2,12081;-0,0115192;-0,00506145;0;0,894154;0,77968;-1080;1080;-300;1700;-10;10;-0;-0;0;-0;250;-1,2;0,2;177;-1,2;-1;2555;0,07;2281;3997;8;56579;
18,9313;1,15242;-0,775987;10;183;3217;0;0,152621;0,169774;-2,20967;0,174533;-0,018978;-0,795921;-0,124688;-0,155246;-0,224013;0,00519619;-0,256955;2,12311;0;0;0;0;0;0;-0,122232;-0,153303;-0,239;-0,22;-0,14;2,117;0,599784;0,657131;-1,69451;0,157817;-0,0871809;-0,0865629;-0,0786181;0,101927;-0,0978858;-0,0818639;-0,0845385;-0;0,680474;-0,0201304;2,12073;-0,0113446;-0,00261799;0;0,89413;0,779665;-1080;1080;-300;1700;-10;10;-0;-0;0;-0;250;-1,2;0,2;177;-1,2;-1;2555;0,07;2281;3997;8;56579;
18,9413;1,15243;-0,776356;15;174;3231;0;0,1478;0,162073;-2,25545;0,176015;-0,0173532;-0,818532;-0,124675;-0,155236;-0,223644;0,0104452;-0,248564;2,16897;0;0;0;0;0;0;-0,122232;-0,153303;-0,239;-0,22;-0,14;2,162;0,584389;0,627597;-1,73035;0,158245;-0,0864911;-0,0864738;-0,0786099;0,10192;-0,0978793;-0,0818548;-0,0845713;-0;0,694111;0,010782;2,08798;-0,0127409;0,00139626;0;0,894149;0,779677;-1080;1080;-300;1700;-10;10;-0;-0;0;-0;250;-1,2;0,2;177;-1,2;-1;2555;0,07;2281;3997;8;56579;
18,9513;1,15243;-0,776458;15;175;3231;0;0,147662;0,162301;-2,25521;0,177489;-0,0157326;-0,84105;-0,124681;-0,155238;-0,223542;0,0105777;-0,248793;2,16873;0;0;0;0;0;0;-0,122232;-0,153303;-0,239;-0,22;-0,14;2,162;0,584389;0,631197;-1,73035;0,15824;-0,0864916;-0,0864829;-0,0786097;0,101916;-0,0978755;-0,0818547;-0,0845805;-0;0,697073;0,010828;2,05503;-0,0127409;0,00139626;0;0,894132;0,779666;-1080;1080;-300;1700;-10;10;-0;-0;0;-0;250;-1,2;0,2;177;-1,2;-1;2555;0,07;2281;3997;8;56579;
18,9613;1,15244;-0,776686;20;164;3245;0;0,143292;0,152082;-2,30215;0,178918;-0,014216;-0,864007;-0,124653;-0,155218;-0,223314;0,0153464;-0,238039;2,21587;0;0;0;0;0;0;-0,122232;-0,153303;-0,239;-0,22;-0,14;2,208;0,568835;0,594155;-1,76618;0,158639;-0,0859567;-0,0862854;-0,0786015;0,101914;-0,097875;-0,0818451;-0,0846004;-0;0,706493;0,0487245;2,0552;-0,0139626;0,00628319;0;0,89418;0,779696;-1080;1080;-300;1700;-10;10;-0;-0;0;-0;250;-1,2;0,2;177;-1,2;-1;2555;0,07;2281;3997;8;56579;
18,9713;1,15245;-0,776519;20;164;3245;0;0,143089;0,152461;-2,30174;0,180352;-0,0126882;-0,887073;-0,124632;-0,155203;-0,223481;0,0155587;-0,238417;2,21547;0;0;0;0;0;0;-0,122232;-0,153303;-0,239;-0,22;-0,14;2,208;0,568835;0,594155;-1,76618;0,158648;-0,0859553;-0,0862703;-0,0786017;0,10192;-0,097882;-0,0818444;-0,0845852;-0;0,709572;0,0489369;2,0214;-0,0139626;0,00628319;0;0,894214;0,779717;-1080;1080;-300;1700;-10;10;-0;-0;0;-0;250;-1,2;0,2;177;-1,2;-1;2555;0,07;2281;3997;8;56579;
18,9813;1,15246;-0,776832;20;155;3258;0;0,1436;0,143784;-2,34422;0,181791;-0,0112474;-0,910564;-0,124617;-0,155192;-0,223168;0,0155878;-0,229181;2,25839;0;0;0;0;0;0;-0,122232;-0,153303;-0,239;-0,22;-0,14;2,25;0,571114;0,56385;-1,79946;0,159188;-0,0853968;-0,0858292;-0,0785942;0,101914;-0,0978772;-0,081836;-0,0846129;-0;0,702776;0,0801982;2,0217;-0,01309;0,0102974;0;0,894236;0,779731;-1080;1080;-300;1700;-10;10;-0;-0;0;-0;250;-1,2;0,2;177;-1,2;-1;2555;0,07;2281;3997;8;56579;
18,9914;1,15246;-0,777334;24;141;3272;0;0,139183;0,131548;-2,39188;0,183187;-0,00992806;-0,934553;-0,124616;-0,155189;-0,222666;0,0204071;-0,216421;2,30628;0;0;0;0;0;0;-0,122232;-0,153303;-0,239;-0,22;-0,14;2,297;0,558977;0,515193;-1,8353;0,15959;-0,0848737;-0,0855999;-0,0785855;0,101902;-0,0978656;-0,0818269;-0,0846577;-0;0,71369;0,122814;1,99112;-0,0141372;0,015708;0;0,894233;0,779729;-1080;1080;-300;1700;-10;10;-0;-0;0;-0;250;-1,2;0,2;177;-1,2;-1;2555;0,07;2281;3997;8;56579;
19,0012;1,15247;-0,777252;25;142;3272;0;0,138864;0,131934;-2,39138;0,184558;-0,00862534;-0,958165;-0,124604;-0,15518;-0,222748;0,0207309;-0,216807;2,30579;0;0;0;0;0;0;-0,122232;-0,153303;-0,239;-0,22;-0,14;2,297;0,555329;0,518843;-1,8353;0,159595;-0,0848729;-0,0855925;-0,0785856;0,101905;-0,0978692;-0,0818265;-0,0846502;-0;0,716821;0,123353;1,95681;-0,0141372;0,015708;0;0,89425;0,77974;-1080;1080;-300;1700;-10;10;-0;-0;0;-0;250;-1,2;0,2;177;-1,2;-1;2555;0,07;2281;3997;8;56579;
19,0112;1,15248;-0,777891;24;133;3293;0;0,139898;0,123283;-2,46174;0,185956;-0,00739363;-0,98276;-0,124594;-0,155171;-0,222109;0,0202726;-0,207482;2,37656;0;0;0;0;0;0;-0,122232;-0,153303;-0,239;-0,22;-0,14;2,367;0,562565;0,489116;-1,88905;0,16017;-0,0841992;-0,0851823;-0,0785729;0,101891;-0,0978562;-0,0818129;-0,0847071;-0;0,707235;0,150754;1,95717;-0,0129154;0,0191986;0;0,894263;0,779748;-1080;1080;-300;1700;-10;10;-0;-0;0;-0;250;-1,2;0,2;177;-1,2;-1;2555;0,07;2281;3997;8;56579;
19,0212;1,1525;-0,777816;25;125;3304;0;0,138344;0,116154;-2,49971;0,187338;-0,00623348;-1,00773;-0,124548;-0,155141;-0,222184;0,0222078;-0,199863;2,41477;0;0;0;0;0;0;-0,122232;-0,153303;-0,239;-0,22;-0,14;2,405;0,56076;0,461261;-1,91721;0,160552;-0,0837091;-0,084946;-0,0785673;0,101899;-0,0978656;-0,0818052;-0,0846997;-0;0,711796;0,175172;1,90651;-0,0129154;0,0221657;0;0,894345;0,779799;-1080;1080;-300;1700;-10;10;-0;-0;0;-0;250;-1,2;0,2;177;-1,2;-1;2555;0,07;2281;3997;8;56579;
19,0313;1,1525;-0,778013;25;125;3304;0;0,138127;0,116242;-2,49951;0,188737;-0,0050556;-1,03306;-0,124562;-0,155148;-0,221987;0,0224146;-0,199953;2,41454;0;0;0;0;0;0;-0,122232;-0,153303;-0,239;-0,22;-0,14;2,405;0,56076;0,461261;-1,91721;0,160542;-0,0837105;-0,0849637;-0,0785667;0,101892;-0,0978582;-0,081805;-0,0847175;-0;0,714258;0,175778;1,87918;-0,0129154;0,0221657;0;0,894313;0,779779;-1080;1080;-300;1700;-10;10;-0;-0;0;-0;250;-1,2;0,2;177;-1,2;-1;2555;0,07;2281;3997;8;56579;
19,0413;1,1525;-0,77849;28;119;3322;0;0,135401;0,110256;-2,55684;0,190089;-0,00395513;-1,05857;-0,12455;-0,155138;-0,22151;0,0256042;-0,193134;2,47194;0;0;0;0;0;0;-0,122232;-0,153303;-0,239;-0,22;-0,14;2,462;0,552703;0,441533;-1,96328;0,161005;-0,0828775;-0,0849037;-0,0785566;0,101882;-0,0978492;-0,081794;-0,0847599;-0;0,717002;0,193764;1,87932;-0,0132645;0,0244346;0;0,89433;0,77979;-1080;1080;-300;1700;-10;10;-0;-0;0;-0;250;-1,2;0,2;177;-1,2;-1;2555;0,07;2281;3997;8;56579;
19,0513;1,15249;-0,779397;31;119;3340;0;0,133116;0,110999;-2,61974;0,19142;-0,00284492;-1,08478;-0,12457;-0,155149;-0,220603;0,0282288;-0,193031;2,53466;0;0;0;0;0;0;-0,122232;-0,153303;-0,239;-0,22;-0,14;2,525;0,544524;0,443926;-2,00935;0,161344;-0,0820323;-0,0850803;-0,078544;0,101857;-0,0978247;-0,0817817;-0,0848412;-0;0,722119;0,190599;1,83805;-0,013439;0,023911;0;0,894286;0,779762;-1080;1080;-300;1700;-10;10;-0;-0;0;-0;250;-1,2;0,2;177;-1,2;-1;2555;0,07;2281;3997;8;56579;
19,0614;1,15252;-0,778922;31;120;3340;0;0,133196;0,111165;-2,61966;0,192762;-0,00172481;-1,11117;-0,124525;-0,155119;-0,221078;0,0281725;-0,193194;2,53462;0;0;0;0;0;0;-0,122232;-0,153303;-0,239;-0,22;-0,14;2,525;0,544524;0,447653;-2,00935;0,161369;-0,0820288;-0,0850376;-0,0785458;0,101874;-0,0978431;-0,0817817;-0,084798;-0;0,726221;0,191682;1,79277;-0,013439;0,023911;0;0,894367;0,779813;-1080;1080;-300;1700;-10;10;-0;-0;0;-0;250;-1,2;0,2;177;-1,2;-1;2555;0,07;2281;3997;8;56579;
19,0713;1,08614;-0,40055;-19;170;3347;0;0,277067;0,218066;-2,64306;0,195514;0,00044102;-1,13742;-0,260829;-0,163851;-0,59945;-0,136488;-0,352474;2,59646;0;0;0;0;0;0;-0,255576;-0,162496;-0,616;-0,45;-0,09;2,58;0,73214;0,635211;-2,02727;0,140579;-0,134408;-0,0466037;-0,11032;0,076567;-0,0693024;-0,121884;-0,0480454;-0;0,730396;0,20427;1,79282;-0,0139626;0,0254818;0;0,560893;0,531942;-1080;1080;-300;1700;-10;10;-0;-0;0;-0;250;-1,2;0,2;177;-1,2;-1;2555;0,07;2280;3995;8;56579;
19,0814;1,08614;-0,401141;-69;220;3363;0;0,274211;0,211323;-2,69347;0,198262;0,00255848;-1,16441;-0,260836;-0,163851;-0,598859;-0,133069;-0,345156;2,64691;0;0;0;0;0;0;-0,255576;-0,162496;-0,616;-0,45;-0,09;2,628;0,922654;0,825456;-2,06823;0,141142;-0,133833;-0,0465591;-0,110311;0,0765591;-0,0692949;-0,121875;-0,0481123;-0;0,73612;0,217315;1,77598;-0,0144862;0,0270526;0;0,56088;0,531932;-1080;1080;-300;1700;-10;10;-0;-0;0;-0;250;-1,2;0,2;177;-1,2;-1;2555;0,07;2280;3995;8;56579;
19,0914;1,08621;-0,400677;-119;225;3363;0;0,274738;0,2088;-2,69515;0,201031;0,00466339;-1,19158;-0,260745;-0,163832;-0,599323;-0,133576;-0,34263;2,64865;0;0;0;0;0;0;-0,255576;-0,162496;-0,616;-0,45;-0,09;2,628;1,10923;0,844157;-2,06823;0,141162;-0,13383;-0,0465058;-0,110315;0,0765748;-0,0693133;-0,121872;-0,0480587;-0;0,739445;0,218296;1,73969;-0,0144862;0,0270526;0;0,560983;0,532019;-1080;1080;-300;1700;-10;10;-0;-0;0;-0;250;-1,2;0,2;177;-1,2;-1;2555;0,07;2280;3995;8;56579;
