time 	e1	e2	ctrlpitch	ctrlroll	ctrlthrust	ctrlyaw	edx	edy	edz	cumulx	cumuly	cumulz	x_pred	y_pred	z_pred	dxr_pred	dyr_pred	dzr_pred	dxrT	dyrT	dzrT	dxrUn	dyrUn	dzrUn	x	y	z	dx	dy	dz	ux	uy	uz	dxd	dyd	dzd	Perpx	Tangx	Perpy	Tangy	Perpz	Tanz	ax	ay	az	pitch	roll	yaw	yawd	eyaw	kpvx	kpvy	kpvz	kpyaw	kivx	kivy	kivz	kdvx	kdvy	kdvz	kdyaw	ktg	veld	pitchoff	ke1	ke2	gravity	thr_vel	gps_accuracy	height_accuracy	gps_sat_num	gps_status
29.3184	0.696493	-1.88323	50	50	1450	-50	-0.0679493	0.0964	-0.161524	-0.000358976	0.000509281	-0.00085333	0.593023	0.2606	-0.116771	0	0	0	0	0	0	0	0	0	0.577824	0.255576	-0.109	0	0	0	0.205665	0.0810057	2.82845	-0.0679493	0.0964	-0.161524	0.0545189	-0.0412775	0.0239579	0.0939316	-0.161018	-0	0	-0	9.81	0.03735	-0.0226893	0	-2.72755	-0.402311	-1080	1080	-600	1700	-10	10	-10	-0	0	-0	250	-1.2	0.2	177	-1.2	-1	2555	0.07	3783	4527	9	56579	
29.3231	0.696493	-1.88323	100	100	1500	-100	-0.0679008	0.0964105	-0.161538	-0.000681573	0.000967328	-0.0016208	0.593023	0.2606	-0.116771	0	0	0	0	0	0	0	0	0	0.577824	0.255576	-0.109	0	0	0	0.129036	0.167558	2.70047	-0.0679008	0.0964105	-0.161538	0.0545189	-0.0412775	0.0239579	0.0939316	-0.161018	-0	0.253963	-0.143268	3.44616	0.03735	-0.0225147	0	-2.72755	-0.402311	-1080	1080	-600	1700	-10	10	-10	-0	0	-0	250	-1.2	0.2	177	-1.2	-1	2555	0.07	3783	4527	9	56579	
29.3333	0.696493	-1.88223	150	104	1550	-150	-0.067915	0.0963685	-0.162947	-0.00137281	0.00194817	-0.00327927	0.593023	0.2606	-0.117771	-8.55877e-06	7.06018e-05	0.00143531	0	0	0	0	0	0	0.577824	0.255576	-0.11	0	0	0	0.0467625	0.180064	2.57249	-0.0679235	0.0964391	-0.161511	0.0545377	-0.0412917	0.0239662	0.0939639	-0.160988	-0	0.255074	-0.142159	3.44612	0.0371755	-0.0223402	0	-2.72755	-0.402311	-1080	1080	-600	1700	-10	10	-10	-0	0	-0	250	-1.2	0.2	177	-1.2	-1	2555	0.07	3783	4527	9	56579	
29.3431	0.696493	-1.88123	200	104	1600	-200	-0.0678349	0.0963168	-0.165147	-0.00203963	0.00289496	-0.00490266	0.593023	0.2606	-0.118769	-9.5186e-05	0.00019201	0.00368038	0	0	0	0	0	0	0.577824	0.255576	-0.111	0	0	0	-0.04112	0.185873	2.4445	-0.0679301	0.0965088	-0.161467	0.0545565	-0.0413059	0.0239744	0.0939962	-0.160958	-0	0.256267	-0.142205	3.44406	0.037001	-0.0223402	0	-2.72755	-0.402311	-1080	1080	-600	1700	-10	10	-10	-0	0	-0	250	-1.2	0.2	177	-1.2	-1	2555	0.07	3783	4527	9	56579	
29.3533	0.696492	-1.88124	250	103	1650	-250	-0.0675962	0.096115	-0.169606	-0.00272397	0.00386803	-0.00661976	0.593024	0.2606	-0.118762	-0.000333704	0.000393531	0.00813921	0	0	0	0	0	0	0.577824	0.255576	-0.111	0	0	0	-0.134569	0.18984	2.31652	-0.0679299	0.0965085	-0.161467	0.0545563	-0.0413058	0.0239743	0.093996	-0.160958	-0	0.256396	-0.142276	3.44085	0.037001	-0.0223402	0	-2.72755	-0.402311	-1080	1080	-600	1700	-10	10	-10	-0	0	-0	250	-1.2	0.2	177	-1.2	-1	2555	0.07	3783	4527	9	56579	
29.3632	0.69649	-1.88126	249	103	1700	-300	-0.0671049	0.0959295	-0.175525	-0.00339328	0.00482483	-0.00837044	0.593025	0.260601	-0.118741	-0.000776016	0.000588576	0.0140428	0	0	0	0	0	0	0.577824	0.255576	-0.111	0	0	0	-0.136748	0.195592	2.18853	-0.0678809	0.0965181	-0.161482	0.0545557	-0.0413056	0.0239741	0.0939953	-0.160958	-0	0.256656	-0.141308	3.43439	0.037001	-0.0221657	0	-2.72755	-0.402312	-1080	1080	-600	1700	-10	10	-10	-0	0	-0	250	-1.2	0.2	177	-1.2	-1	2555	0.07	3783	4527	9	56579	
29.3733	0.696486	-1.8813	248	103	1750	-350	-0.0663821	0.0958551	-0.182905	-0.0040638	0.00579306	-0.010218	0.593027	0.260603	-0.118695	-0.00149409	0.000714765	0.0214521	0	0	0	0	0	0	0.577824	0.255576	-0.111	0	0	0	-0.138816	0.201345	2.06055	-0.0678762	0.0965699	-0.161453	0.0545545	-0.0413052	0.0239737	0.0939938	-0.16096	-0	0.258114	-0.142612	3.42582	0.0368264	-0.0223402	0	-2.72755	-0.402314	-1080	1080	-600	1700	-10	10	-10	-0	0	-0	250	-1.2	0.2	177	-1.2	-1	2555	0.07	3783	4527	9	56579	
29.3832	0.69648	-1.88039	247	103	1800	-400	-0.0654305	0.0957917	-0.191509	-0.00471183	0.00674178	-0.0121147	0.593029	0.260608	-0.119611	-0.00242208	0.000844655	0.0300861	0	0	0	0	0	0	0.577824	0.255576	-0.112	0	0	0	-0.140772	0.207098	1.93256	-0.0678526	0.0966364	-0.161423	0.0545711	-0.0413188	0.0239814	0.0940233	-0.160932	-0	0.258546	-0.14285	3.41515	0.0368264	-0.0223402	0	-2.72754	-0.402319	-1080	1080	-600	1700	-10	10	-10	-0	0	-0	250	-1.2	0.2	177	-1.2	-1	2555	0.07	3783	4527	9	56579	
29.3933	0.696471	-1.88053	246	103	1850	-450	-0.0642815	0.0956461	-0.20137	-0.00535554	0.00769958	-0.0141312	0.593032	0.260617	-0.11947	-0.00356871	0.000984466	0.0399423	0	0	0	0	0	0	0.577824	0.255576	-0.112	0	0	0	-0.142616	0.212851	1.80458	-0.0678502	0.0966306	-0.161428	0.0545675	-0.0413178	0.0239805	0.0940184	-0.160937	-0	0.259048	-0.143128	3.40272	0.0368264	-0.0223402	0	-2.72753	-0.402328	-1080	1080	-600	1700	-10	10	-10	-0	0	-0	250	-1.2	0.2	177	-1.2	-1	2555	0.07	3783	4527	9	56579	
29.4031	0.696459	-1.87974	245	103	1900	-500	-0.0629451	0.0955912	-0.212087	-0.0059753	0.00864077	-0.0162194	0.593034	0.260631	-0.120258	-0.00490802	0.00112843	0.0507134	0	0	0	0	0	0	0.577824	0.255576	-0.113	0	0	0	-0.144348	0.218603	1.67659	-0.0678531	0.0967196	-0.161373	0.0545811	-0.0413308	0.0239877	0.0940433	-0.160913	-0	0.260744	-0.144567	3.38847	0.0366519	-0.0225147	0	-2.72752	-0.402345	-1080	1080	-600	1700	-10	10	-10	-0	0	-0	250	-1.2	0.2	177	-1.2	-1	2555	0.07	3783	4527	9	56579	
29.4131	0.696445	-1.88005	243	103	1950	-550	-0.0613268	0.0954044	-0.223843	-0.00658826	0.00959434	-0.0184567	0.593035	0.260652	-0.11995	-0.00647274	0.00131283	0.0624456	0	0	0	0	0	0	0.577824	0.255576	-0.113	0	0	0	-0.143791	0.224356	1.54861	-0.0677995	0.0967173	-0.161397	0.0545736	-0.0413292	0.0239863	0.0940323	-0.160923	-0	0.261373	-0.143792	3.37299	0.0366519	-0.0223402	0	-2.72749	-0.402372	-1080	1080	-600	1700	-10	10	-10	-0	0	-0	250	-1.2	0.2	177	-1.2	-1	2555	0.07	3783	4527	9	56579	
29.4231	0.664204	-1.87947	241	101	2000	-600	-0.0596571	0.0940961	-0.236855	-0.00718531	0.0105361	-0.0208271	0.615257	0.260682	-0.120529	-0.00822431	0.00149918	0.0748251	0	0	0	0	0	0	0.600048	0.255576	-0.114	0	0	0	-0.14301	0.225643	1.42063	-0.0678814	0.0955952	-0.16203	0.0525699	-0.0402412	0.0222736	0.0949766	-0.161556	-0	0.263188	-0.145298	3.35601	0.0364774	-0.0225147	0	-2.74083	-0.390123	-1080	1080	-600	1700	-10	10	-10	-0	0	-0	250	-1.2	0.2	177	-1.2	-1	2555	0.07	3756	4495	9	56579	
29.4332	0.664185	-1.88003	239	101	2050	-650	-0.0576665	0.0938371	-0.249996	-0.0077678	0.0114839	-0.0233524	0.615253	0.260724	-0.119966	-0.0102062	0.00173477	0.0879486	0	0	0	0	0	0	0.600048	0.255576	-0.114	0	0	0	-0.142005	0.231285	1.29264	-0.0678727	0.0955719	-0.162047	0.0525568	-0.0402391	0.0222718	0.0949559	-0.161573	-0	0.263954	-0.145721	3.33722	0.0364774	-0.0225147	0	-2.74077	-0.390179	-1080	1080	-600	1700	-10	10	-10	-0	0	-0	250	-1.2	0.2	177	-1.2	-1	2555	0.07	3756	4495	9	56579	
29.4432	0.664163	-1.88076	236	101	2100	-663	-0.055433	0.093572	-0.263665	-0.00831963	0.0124154	-0.0259771	0.615244	0.26078	-0.119238	-0.0123807	0.00200805	0.101598	0	0	0	0	0	0	0.600048	0.255576	-0.114	0	0	0	-0.138432	0.236926	1.16466	-0.0678137	0.0955801	-0.162067	0.0525401	-0.040237	0.0222699	0.0949288	-0.161595	-0	0.264728	-0.146148	3.31824	0.0364774	-0.0225147	0	-2.74068	-0.390255	-1080	1080	-600	1700	-10	10	-10	-0	0	-0	250	-1.2	0.2	177	-1.2	-1	2555	0.07	3756	4495	9	56579	
29.4531	0.664139	-1.88069	234	100	2150	-663	-0.0530756	0.0933121	-0.277756	-0.00884662	0.0133419	-0.028735	0.615228	0.260855	-0.119314	-0.014748	0.00231423	0.11572	0	0	0	0	0	0	0.600048	0.255576	-0.115	0	0	0	-0.136924	0.240167	1.03667	-0.0678236	0.0956263	-0.162036	0.0525373	-0.0402488	0.0222757	0.0949271	-0.161594	-0	0.266669	-0.147729	3.2985	0.0363028	-0.0226893	0	-2.74057	-0.390358	-1080	1080	-600	1700	-10	10	-10	-0	0	-0	250	-1.2	0.2	177	-1.2	-1	2555	0.07	3756	4495	9	56579	
29.4632	0.664113	-1.88082	231	100	2200	-663	-0.0505302	0.0928904	-0.292018	-0.00935834	0.0142826	-0.0316923	0.615205	0.260951	-0.119181	-0.0172847	0.00272936	0.129975	0	0	0	0	0	0	0.600048	0.255576	-0.116	0	0	0	-0.132736	0.245752	0.908689	-0.067815	0.0956197	-0.162043	0.0525298	-0.0402608	0.0222815	0.0949171	-0.161598	-0	0.268642	-0.147051	3.27814	0.0361283	-0.0225147	0	-2.74043	-0.390492	-1080	1080	-600	1700	-10	10	-10	-0	0	-0	250	-1.2	0.2	177	-1.2	-1	2555	0.07	3756	4495	9	56579	
29.4731	0.664086	-1.88219	228	99	2250	-664	-0.0477691	0.092382	-0.306416	-0.00983173	0.0151981	-0.0347288	0.615172	0.261071	-0.117809	-0.0200274	0.00317939	0.14433	0	0	0	0	0	0	0.600048	0.255576	-0.116	0	0	0	-0.128212	0.248825	0.780705	-0.0677966	0.0955614	-0.162085	0.0524987	-0.0402594	0.0222797	0.0948648	-0.16164	-0	0.269489	-0.147515	3.25753	0.0361283	-0.0225147	0	-2.74024	-0.390662	-1080	1080	-600	1700	-10	10	-10	-0	0	-0	250	-1.2	0.2	177	-1.2	-1	2555	0.07	3756	4495	9	56579	
29.4834	0.664057	-1.88285	225	99	2300	-664	-0.0447776	0.091775	-0.321002	-0.0102908	0.0161391	-0.0380201	0.615128	0.261222	-0.117152	-0.0229761	0.00375694	0.158882	0	0	0	0	0	0	0.600048	0.255576	-0.117	0	0	0	-0.123353	0.254355	0.65272	-0.0677537	0.0955319	-0.162121	0.0524794	-0.0402725	0.0222861	0.0948341	-0.16166	-0	0.270345	-0.146836	3.23673	0.0361283	-0.0223402	0	-2.74001	-0.390878	-1080	1080	-600	1700	-10	10	-10	-0	0	-0	250	-1.2	0.2	177	-1.2	-1	2555	0.07	3756	4495	9	56579	
29.4933	0.664028	-1.88378	222	98	2350	-664	-0.0417211	0.0911728	-0.335221	-0.0107062	0.0170468	-0.0413575	0.615069	0.261406	-0.116219	-0.0260319	0.00436062	0.173101	0	0	0	0	0	0	0.600048	0.255576	-0.118	0	0	0	-0.118158	0.257261	0.524736	-0.067753	0.0955334	-0.16212	0.0524539	-0.0402869	0.022293	0.0947922	-0.161688	-0	0.272362	-0.148458	3.21565	0.0359538	-0.0225147	0	-2.73972	-0.391142	-1080	1080	-600	1700	-10	10	-10	-0	0	-0	250	-1.2	0.2	177	-1.2	-1	2555	0.07	3756	4495	9	56579	
29.5033	0.663997	-1.88607	218	97	2400	-665	-0.0383397	0.0903572	-0.349605	-0.0110895	0.0179501	-0.0448525	0.614995	0.261632	-0.113925	-0.0293382	0.00511494	0.187417	0	0	0	0	0	0	0.600048	0.255576	-0.118	0	0	0	-0.109947	0.260055	0.396751	-0.0676779	0.0954721	-0.162187	0.052402	-0.0402886	0.0222929	0.0947028	-0.161757	-0	0.27321	-0.14892	3.1951	0.0359538	-0.0225147	0	-2.73937	-0.391469	-1080	1080	-600	1700	-10	10	-10	-0	0	-0	250	-1.2	0.2	177	-1.2	-1	2555	0.07	3756	4495	9	56579	
29.5131	0.663965	-1.88868	214	96	2450	-666	-0.0348929	0.089399	-0.363316	-0.0114316	0.0188266	-0.0484145	0.614902	0.2619	-0.111322	-0.0327559	0.0059588	0.201049	0	0	0	0	0	0	0.600048	0.255576	-0.118	0	0	0	-0.101289	0.262738	0.268767	-0.0676488	0.0953578	-0.162267	0.0523429	-0.0402924	0.022294	0.0946007	-0.161835	-0	0.274069	-0.149388	3.1743	0.0359538	-0.0225147	0	-2.73894	-0.391858	-1080	1080	-600	1700	-10	10	-10	-0	0	-0	250	-1.2	0.2	177	-1.2	-1	2555	0.07	3756	4495	9	56579	
29.5232	0.663931	-1.89066	210	95	2500	-666	-0.0313555	0.0883465	-0.376538	-0.0117481	0.0197183	-0.0522149	0.614789	0.262218	-0.109344	-0.0362692	0.00694858	0.214224	0	0	0	0	0	0	0.600048	0.255576	-0.119	0	0	0	-0.0921831	0.265309	0.140783	-0.0676248	0.0952951	-0.162314	0.0522934	-0.0403127	0.0223041	0.0945159	-0.161894	-0	0.276049	-0.149835	3.15448	0.0357792	-0.0225147	0	-2.73844	-0.392323	-1080	1080	-600	1700	-10	10	-10	-0	0	-0	250	-1.2	0.2	177	-1.2	-1	2555	0.07	3756	4495	9	56579	
29.5332	0.663896	-1.89298	207	94	2550	-667	-0.0277382	0.0870709	-0.388945	-0.0120239	0.020584	-0.0560821	0.614654	0.26259	-0.107016	-0.0398611	0.00811602	0.226557	0	0	0	0	0	0	0.600048	0.255576	-0.12	0	0	0	-0.0854793	0.267768	0.0127984	-0.0675993	0.0951869	-0.162388	0.0522356	-0.0403361	0.0223158	0.0944163	-0.161963	-0	0.278006	-0.149101	3.13535	0.0356047	-0.0223402	0	-2.73785	-0.392865	-1080	1080	-600	1700	-10	10	-10	-0	0	-0	250	-1.2	0.2	177	-1.2	-1	2555	0.07	3756	4495	9	56579	
29.5432	0.663857	-1.89678	202	92	2600	-668	-0.0238778	0.0857018	-0.400921	-0.0122634	0.0214438	-0.0601042	0.614493	0.263029	-0.103223	-0.0436548	0.00936747	0.238437	0	0	0	0	0	0	0.600048	0.255576	-0.12	0	0	0	-0.0726301	0.267212	-0.115186	-0.0675326	0.0950692	-0.162484	0.0521486	-0.0403493	0.0223218	0.0942646	-0.162075	-0	0.278754	-0.15067	3.11739	0.0356047	-0.0225147	0	-2.73715	-0.393509	-1080	1080	-600	1700	-10	10	-10	-0	0	-0	250	-1.2	0.2	177	-1.2	-1	2555	0.07	3756	4495	9	56579	
29.5533	0.663814	-1.90097	198	91	2650	-670	-0.019961	0.084084	-0.411875	-0.0124651	0.0222934	-0.0642662	0.614305	0.263535	-0.0990346	-0.0475364	0.0107937	0.249264	0	0	0	0	0	0	0.600048	0.255576	-0.12	0	0	0	-0.0621829	0.269392	-0.24317	-0.0674974	0.0948776	-0.162611	0.0520519	-0.040367	0.0223301	0.094096	-0.162199	-0	0.279476	-0.15106	3.10005	0.0356047	-0.0225147	0	-2.73634	-0.39425	-1080	1080	-600	1700	-10	10	-10	-0	0	-0	250	-1.2	0.2	177	-1.2	-1	2555	0.07	3756	4495	9	56579	
29.5632	0.663765	-1.90362	194	89	2700	-671	-0.0160608	0.0823372	-0.421862	-0.012624	0.0231082	-0.0684409	0.614087	0.264121	-0.0963815	-0.0514347	0.0124249	0.259182	0	0	0	0	0	0	0.600048	0.255576	-0.122	0	0	0	-0.0512886	0.268446	-0.371155	-0.0674955	0.0947621	-0.162679	0.0519798	-0.0404179	0.0223567	0.0939726	-0.162277	-0	0.28131	-0.151417	3.08418	0.0354302	-0.0225147	0	-2.73541	-0.395108	-1080	1080	-600	1700	-10	10	-10	-0	0	-0	250	-1.2	0.2	177	-1.2	-1	2555	0.07	3756	4495	9	56579	
29.5732	0.663707	-1.90775	190	87	2750	-673	-0.0119783	0.0804082	-0.430817	-0.0127433	0.0239085	-0.0727288	0.613837	0.264794	-0.0922476	-0.0554605	0.0142107	0.268031	0	0	0	0	0	0	0.600048	0.255576	-0.123	0	0	0	-0.0399472	0.267276	-0.499139	-0.0674389	0.094619	-0.162786	0.0518773	-0.0404611	0.0223786	0.0937957	-0.162398	-0	0.281916	-0.152919	3.0697	0.0354302	-0.0226893	0	-2.73433	-0.396093	-1080	1080	-600	1700	-10	10	-10	-0	0	-0	250	-1.2	0.2	177	-1.2	-1	2555	0.07	3756	4495	9	56579	
29.5831	0.663638	-1.91329	185	84	2800	-675	-0.00791889	0.0781598	-0.438335	-0.0128222	0.0246876	-0.0770977	0.613555	0.265553	-0.0867113	-0.0594868	0.0161961	0.275383	0	0	0	0	0	0	0.600048	0.255576	-0.123	0	0	0	-0.0250299	0.262756	-0.627123	-0.0674057	0.0943559	-0.162952	0.0517462	-0.0404973	0.0223963	0.0935684	-0.16256	-0	0.282459	-0.153214	3.0567	0.0354302	-0.0226893	0	-2.73313	-0.397203	-1080	1080	-600	1700	-10	10	-10	-0	0	-0	250	-1.2	0.2	177	-1.2	-1	2555	0.07	3756	4495	9	56579	
29.5933	0.663554	-1.91831	181	81	2822	-677	-0.00389953	0.0756453	-0.444516	-0.012862	0.0254596	-0.0816345	0.613239	0.266414	-0.0816867	-0.063483	0.0184606	0.281409	0	0	0	0	0	0	0.600048	0.255576	-0.124	0	0	0	-0.0126133	0.255366	-0.683436	-0.0673825	0.0941058	-0.163106	0.0516199	-0.0405555	0.0224257	0.0933517	-0.162706	-0	0.284096	-0.152282	3.04577	0.0352557	-0.0225147	0	-2.73176	-0.39846	-1080	1080	-600	1700	-10	10	-10	-0	0	-0	250	-1.2	0.2	177	-1.2	-1	2555	0.07	3756	4495	9	56579	
29.6032	0.646846	-1.92378	177	78	2825	-669	7.40851e-05	0.0723279	-0.449527	-0.0128613	0.0261733	-0.0860699	0.624082	0.267362	-0.0762207	-0.0674932	0.0208819	0.285922	0	0	0	0	0	0	0.61116	0.255576	-0.125	0	0	0	0	0.246173	-0.691115	-0.0674191	0.0932099	-0.163605	0.0504347	-0.0400837	0.0216066	0.0935641	-0.163183	-0	0.284474	-0.152485	3.03677	0.0352557	-0.0225147	0	-2.73684	-0.393793	-1080	1080	-600	1700	-10	10	-10	-0	0	-0	250	-1.2	0.2	177	-1.2	-1	2555	0.07	3730	4466	9	56579	
29.6132	0.645636	-1.93004	173	72	2828	-671	0.00326477	0.0673415	-0.454399	-0.0128287	0.0268454	-0.0906053	0.624333	0.26866	-0.0699615	-0.0706801	0.0254764	0.290569	0	0	0	0	0	0	0.61116	0.255576	-0.126	0	0	0	0.0126401	0.227485	-0.698795	-0.0674154	0.0928179	-0.163829	0.0502038	-0.0401528	0.0216034	0.0933104	-0.163382	-0	0.284782	-0.151466	3.02945	0.0352557	-0.0223402	0	-2.73523	-0.395271	-1080	1080	-600	1700	-10	10	-10	-0	0	-0	250	-1.2	0.2	177	-1.2	-1	2555	0.07	3730	4466	9	56579	
29.6232	0.646586	-1.92536	171	72	2808	-674	0.0055292	0.0668793	-0.420906	-0.0127732	0.0275163	-0.0948274	0.623436	0.26927	-0.0746391	-0.07315	0.0260455	0.257222	0	0	0	0	0	0	0.61116	0.255576	-0.126	0	0	0	0.0188261	0.225876	-0.647601	-0.0676208	0.0929248	-0.163684	0.0503243	-0.0403393	0.0217357	0.0933969	-0.163232	-0	0.285081	-0.151626	3.02232	0.0352557	-0.0223402	0	-2.73388	-0.396509	-1080	1080	-600	1700	-10	10	-10	-0	0	-0	250	-1.2	0.2	177	-1.2	-1	2555	0.07	3730	4466	9	56579	
29.6333	0.647549	-1.9213	169	72	2790	-675	0.00722217	0.0666087	-0.391616	-0.0127005	0.0281869	-0.0987702	0.622582	0.269754	-0.0787019	-0.074997	0.0264292	0.22806	0	0	0	0	0	0	0.61116	0.255576	-0.127	0	0	0	0.0249405	0.224428	-0.601526	-0.0677748	0.0930379	-0.163556	0.0504393	-0.0404995	0.0218545	0.0934711	-0.163099	-0	0.284235	-0.149375	3.07044	0.0350811	-0.0221657	0	-2.73273	-0.397569	-1080	1080	-600	1700	-10	10	-10	-0	0	-0	250	-1.2	0.2	177	-1.2	-1	2555	0.07	3730	4466	9	56579	
29.6432	0.648302	-1.91816	167	71	2774	-677	0.00850658	0.0659316	-0.363425	-0.0126158	0.0288434	-0.102389	0.621865	0.270246	-0.0818353	-0.0763845	0.027211	0.199971	0	0	0	0	0	0	0.61116	0.255576	-0.127	0	0	0	0.0309968	0.220043	-0.560571	-0.0678779	0.0931426	-0.163453	0.0505244	-0.0406414	0.0219566	0.0935203	-0.162995	-0	0.282461	-0.148442	3.11252	0.0350811	-0.0221657	0	-2.73164	-0.398565	-1080	1080	-600	1700	-10	10	-10	-0	0	-0	250	-1.2	0.2	177	-1.2	-1	2555	0.07	3730	4466	9	56579	
29.6533	0.648705	-1.912	168	70	2755	-678	0.00769583	0.0652862	-0.332775	-0.0125384	0.0295001	-0.105736	0.621537	0.270378	-0.0879974	-0.0757363	0.0280536	0.169501	0	0	0	0	0	0	0.61116	0.255576	-0.128	0	0	0	0.0277061	0.215459	-0.511937	-0.0680405	0.0933399	-0.163273	0.0506533	-0.0407612	0.022035	0.0937005	-0.162811	-0	0.281913	-0.146383	3.15303	0.0349066	-0.0219911	0	-2.73127	-0.398906	-1080	1080	-600	1700	-10	10	-10	-0	0	-0	250	-1.2	0.2	177	-1.2	-1	2555	0.07	3730	4466	9	56579	
29.6631	0.648303	-1.90699	171	68	2738	-678	0.0056517	0.0633652	-0.304077	-0.0124828	0.0301228	-0.108724	0.621743	0.270524	-0.0930124	-0.0738485	0.0300948	0.140938	0	0	0	0	0	0	0.61116	0.255576	-0.128	0	0	0	0.0183568	0.208013	-0.468423	-0.0681968	0.09346	-0.163139	0.0507108	-0.0408412	0.0220646	0.093865	-0.162674	-0	0.280048	-0.145414	3.19708	0.0349066	-0.0219911	0	-2.73119	-0.398975	-1080	1080	-600	1700	-10	10	-10	-0	0	-0	250	-1.2	0.2	177	-1.2	-1	2555	0.07	3730	4466	9	56579	
29.6732	0.647874	-1.902	173	66	2722	-678	0.00353091	0.061635	-0.277038	-0.0124472	0.0307455	-0.111524	0.621979	0.270643	-0.0979971	-0.0718773	0.0320007	0.114062	0	0	0	0	0	0	0.61116	0.255576	-0.128	0	0	0	0.0121663	0.200717	-0.427468	-0.0683464	0.0936357	-0.162976	0.050767	-0.0409161	0.0220904	0.0940314	-0.162538	-0	0.279447	-0.145654	3.23832	0.0347321	-0.0221657	0	-2.73117	-0.398996	-1080	1080	-600	1700	-10	10	-10	-0	0	-0	250	-1.2	0.2	177	-1.2	-1	2555	0.07	3730	4466	9	56579	
29.6832	0.64742	-1.8961	175	65	2707	-678	0.00145065	0.0600761	-0.251681	-0.0124327	0.0313449	-0.114035	0.62224	0.270741	-0.1039	-0.0699243	0.0337499	0.0888683	0	0	0	0	0	0	0.61116	0.255576	-0.129	0	0	0	0.00604965	0.196587	-0.389072	-0.0684736	0.0938261	-0.162813	0.0508388	-0.0410003	0.0221204	0.0942303	-0.162375	-0	0.277794	-0.144792	3.27719	0.0347321	-0.0221657	0	-2.73119	-0.398977	-1080	1080	-600	1700	-10	10	-10	-0	0	-0	250	-1.2	0.2	177	-1.2	-1	2555	0.07	3730	4466	9	56579	
29.6933	0.646944	-1.89136	177	63	2693	-678	-0.000606316	0.0586267	-0.228101	-0.0124388	0.0319354	-0.116332	0.622518	0.270834	-0.108643	-0.0679918	0.0353542	0.0654295	0	0	0	0	0	0	0.61116	0.255576	-0.129	0	0	0	0	0.189555	-0.353237	-0.0685981	0.093981	-0.162671	0.0508891	-0.0410667	0.0221399	0.0943928	-0.162246	-0	0.277377	-0.143985	3.31364	0.0345575	-0.0221657	0	-2.73123	-0.398942	-1080	1080	-600	1700	-10	10	-10	-0	0	-0	250	-1.2	0.2	177	-1.2	-1	2555	0.07	3730	4466	9	56579	
29.7033	0.646449	-1.88676	179	62	2679	-678	-0.00260869	0.0572981	-0.206195	-0.012465	0.0325116	-0.118406	0.622815	0.270914	-0.113241	-0.0661272	0.0367958	0.0436476	0	0	0	0	0	0	0.61116	0.255576	-0.129	0	0	0	-0.00598708	0.185577	-0.317401	-0.0687359	0.0940938	-0.162548	0.050936	-0.0411287	0.0221563	0.0945523	-0.16212	-0	0.27593	-0.143233	3.34753	0.0345575	-0.0221657	0	-2.7313	-0.398881	-1080	1080	-600	1700	-10	10	-10	-0	0	-0	250	-1.2	0.2	177	-1.2	-1	2555	0.07	3730	4466	9	56579	
29.7131	0.646091	-1.8813	182	60	2667	-678	-0.00463501	0.056151	-0.185886	-0.0125103	0.0330598	-0.12022	0.623028	0.270975	-0.118696	-0.0642269	0.0381162	0.0234922	0	0	0	0	0	0	0.61116	0.255576	-0.13	0	0	0	-0.0149006	0.178787	-0.286685	-0.0688619	0.0942672	-0.162394	0.0510078	-0.0412046	0.022185	0.094738	-0.161966	-0	0.274585	-0.142535	3.37902	0.0345575	-0.0221657	0	-2.73134	-0.398842	-1080	1080	-600	1700	-10	10	-10	-0	0	-0	250	-1.2	0.2	177	-1.2	-1	2555	0.07	3730	4466	9	56579	
29.7232	0.645733	-1.87701	184	59	2656	-677	-0.00661577	0.0551639	-0.167185	-0.0125768	0.0336147	-0.121902	0.62325	0.271014	-0.122987	-0.0623508	0.0392846	0.00494089	0	0	0	0	0	0	0.61116	0.255576	-0.13	0	0	0	-0.0207748	0.175083	-0.258528	-0.0689666	0.0944485	-0.162244	0.0510598	-0.0412607	0.0222028	0.0948872	-0.161845	-0	0.274455	-0.143005	3.40822	0.034383	-0.0223402	0	-2.73142	-0.39877	-1080	1080	-600	1700	-10	10	-10	-0	0	-0	250	-1.2	0.2	177	-1.2	-1	2555	0.07	3730	4466	9	56579	
29.7332	0.645357	-1.87187	186	59	2646	-677	-0.00860417	0.0543882	-0.150077	-0.0126632	0.0341604	-0.123408	0.623496	0.271026	-0.128133	-0.0604866	0.0402711	-0.011991	0	0	0	0	0	0	0.61116	0.255576	-0.131	0	0	0	-0.0266099	0.174424	-0.232932	-0.0690907	0.0946593	-0.162068	0.051127	-0.0413246	0.0222242	0.0950674	-0.161699	-0	0.274414	-0.143517	3.43511	0.0342085	-0.0225147	0	-2.73155	-0.398652	-1080	1080	-600	1700	-10	10	-10	-0	0	-0	250	-1.2	0.2	177	-1.2	-1	2555	0.07	3730	4466	9	56579	
29.7433	0.644966	-1.86795	188	58	2636	-677	-0.0104795	0.0536333	-0.134576	-0.0127687	0.0347007	-0.124764	0.623753	0.271037	-0.132053	-0.0587212	0.0411314	-0.0273838	0	0	0	0	0	0	0.61116	0.255576	-0.131	0	0	0	-0.0324003	0.17082	-0.207335	-0.0692008	0.0947647	-0.16196	0.0511714	-0.0413702	0.0222353	0.0952077	-0.161589	-0	0.273355	-0.142963	3.4597	0.0342085	-0.0225147	0	-2.73168	-0.398528	-1080	1080	-600	1700	-10	10	-10	-0	0	-0	250	-1.2	0.2	177	-1.2	-1	2555	0.07	3730	4466	9	56579	
29.7533	0.644601	-1.86323	190	57	2628	-677	-0.0123037	0.0531078	-0.120567	-0.012892	0.0352326	-0.125971	0.624008	0.27101	-0.136774	-0.0569917	0.0418192	-0.0412575	0	0	0	0	0	0	0.61116	0.255576	-0.132	0	0	0	-0.038175	0.167366	-0.186857	-0.0692953	0.0949271	-0.161824	0.0512334	-0.0414227	0.0222509	0.0953769	-0.161454	-0	0.272396	-0.142461	3.48199	0.0342085	-0.0225147	0	-2.73187	-0.398357	-1080	1080	-600	1700	-10	10	-10	-0	0	-0	250	-1.2	0.2	177	-1.2	-1	2555	0.07	3730	4466	9	56579	
29.7633	0.644218	-1.85974	192	57	2621	-676	-0.0140153	0.0526201	-0.10812	-0.0130329	0.0357618	-0.127059	0.624274	0.270987	-0.140261	-0.0553546	0.0424426	-0.0535921	0	0	0	0	0	0	0.61116	0.255576	-0.132	0	0	0	-0.0439306	0.16692	-0.168939	-0.0693699	0.0950627	-0.161712	0.051272	-0.0414573	0.0222563	0.0955055	-0.161356	-0	0.272629	-0.142008	3.50213	0.0340339	-0.0225147	0	-2.73205	-0.398186	-1080	1080	-600	1700	-10	10	-10	-0	0	-0	250	-1.2	0.2	177	-1.2	-1	2555	0.07	3730	4466	9	56579	
29.7732	0.643855	-1.85648	194	56	2614	-676	-0.0156635	0.0523186	-0.0971358	-0.0131872	0.0362773	-0.128016	0.62454	0.27093	-0.143516	-0.0537411	0.0428778	-0.0644831	0	0	0	0	0	0	0.61116	0.255576	-0.132	0	0	0	-0.049655	0.163555	-0.151022	-0.0694045	0.0951964	-0.161619	0.051309	-0.0414842	0.0222582	0.0956283	-0.161265	-0	0.271855	-0.141605	3.52003	0.0340339	-0.0225147	0	-2.73229	-0.397973	-1080	1080	-600	1700	-10	10	-10	-0	0	-0	250	-1.2	0.2	177	-1.2	-1	2555	0.07	3730	4466	9	56579	
29.7832	0.643506	-1.8535	195	56	2608	-676	-0.0172408	0.052135	-0.0876714	-0.0133607	0.0368018	-0.128898	0.624807	0.270851	-0.146504	-0.0522359	0.0431508	-0.0738637	0	0	0	0	0	0	0.61116	0.255576	-0.132	0	0	0	-0.0524551	0.163179	-0.135663	-0.0694767	0.0952859	-0.161535	0.0513429	-0.0415044	0.0222569	0.0957433	-0.16118	-0	0.271173	-0.14125	3.53582	0.0340339	-0.0225147	0	-2.73255	-0.397733	-1080	1080	-600	1700	-10	10	-10	-0	0	-0	250	-1.2	0.2	177	-1.2	-1	2555	0.07	3730	4466	9	56579	
29.7933	0.643185	-1.84976	197	56	2604	-675	-0.0187767	0.052176	-0.0796087	-0.01355	0.0373278	-0.1297	0.625069	0.270741	-0.150238	-0.0507683	0.0432669	-0.0818043	0	0	0	0	0	0	0.61116	0.255576	-0.133	0	0	0	-0.0581939	0.162929	-0.125425	-0.069545	0.0954429	-0.161413	0.0513932	-0.0415314	0.0222603	0.095885	-0.161073	-0	0.271676	-0.140943	3.54943	0.0338594	-0.0225147	0	-2.73285	-0.397456	-1080	1080	-600	1700	-10	10	-10	-0	0	-0	250	-1.2	0.2	177	-1.2	-1	2555	0.07	3730	4466	9	56579	
29.8033	0.642878	-1.84732	198	56	2600	-675	-0.0202271	0.0522885	-0.0730597	-0.0137509	0.0378471	-0.130426	0.625334	0.270602	-0.152682	-0.0493341	0.0432621	-0.0882825	0	0	0	0	0	0	0.61116	0.255576	-0.133	0	0	0	-0.0610097	0.162679	-0.115186	-0.0695613	0.0955507	-0.161342	0.0514222	-0.0415358	0.022252	0.0959851	-0.161004	-0	0.271173	-0.140682	3.56102	0.0338594	-0.0225147	0	-2.73319	-0.397142	-1080	1080	-600	1700	-10	10	-10	-0	0	-0	250	-1.2	0.2	177	-1.2	-1	2555	0.07	3730	4466	9	56579	
29.8131	0.642597	-1.84414	200	57	2596	-674	-0.0215266	0.0525198	-0.0677755	-0.0139635	0.0383658	-0.131095	0.62558	0.270466	-0.155859	-0.0480838	0.0431473	-0.0934765	0	0	0	0	0	0	0.61116	0.255576	-0.134	0	0	0	-0.0667171	0.165328	-0.104947	-0.0696103	0.095667	-0.161252	0.0514661	-0.0415521	0.0222511	0.096109	-0.160912	-0	0.271853	-0.139382	3.57043	0.0336849	-0.0223402	0	-2.73352	-0.396843	-1080	1080	-600	1700	-10	10	-10	-0	0	-0	250	-1.2	0.2	177	-1.2	-1	2555	0.07	3730	4466	9	56579	
29.8232	0.642362	-1.84229	201	57	2594	-674	-0.0227245	0.0528727	-0.0639599	-0.0141918	0.038897	-0.131738	0.62581	0.270297	-0.157713	-0.0469132	0.0428639	-0.097239	0	0	0	0	0	0	0.61116	0.255576	-0.134	0	0	0	-0.0695641	0.165201	-0.0998278	-0.0696378	0.0957366	-0.161199	0.0514903	-0.0415456	0.0222394	0.0961894	-0.160859	-0	0.271522	-0.139212	3.57802	0.0336849	-0.0223402	0	-2.73388	-0.396511	-1080	1080	-600	1700	-10	10	-10	-0	0	-0	250	-1.2	0.2	177	-1.2	-1	2555	0.07	3730	4466	9	56579	
29.8331	0.649268	-1.84073	200	59	2593	-649	-0.021994	0.0549595	-0.0612508	-0.0144105	0.0394435	-0.132347	0.62601	0.258949	-0.159267	-0.045931	0.0424581	-0.0996716	0	0	0	0	0	0	0.61116	0.244464	-0.134	0	0	0	-0.06664	0.17093	-0.0972681	-0.067925	0.0974176	-0.160922	0.05237	-0.0400381	0.0216629	0.0967921	-0.160675	-0	0.272369	-0.138003	3.5835	0.0335103	-0.0221657	0	-2.74937	-0.382239	-1080	1080	-600	1700	-10	10	-10	-0	0	-0	250	-1.2	0.2	177	-1.2	-1	2555	0.07	3703	4436	9	56579	
29.8432	0.649132	-1.83951	201	60	2592	-649	-0.0229354	0.0555585	-0.0601165	-0.0146425	0.0400055	-0.132955	0.626213	0.258678	-0.160492	-0.04495	0.0419504	-0.100767	0	0	0	0	0	0	0.61116	0.244464	-0.134	0	0	0	-0.0695105	0.17376	-0.0947084	-0.0678854	0.0975089	-0.160884	0.0523929	-0.040009	0.0216426	0.0968547	-0.160639	-0	0.272199	-0.137917	3.58738	0.0335103	-0.0221657	0	-2.74986	-0.381791	-1080	1080	-600	1700	-10	10	-10	-0	0	-0	250	-1.2	0.2	177	-1.2	-1	2555	0.07	3703	4436	9	56579	
29.8532	0.649059	-1.83763	202	61	2592	-648	-0.0236914	0.0562297	-0.0602663	-0.0148789	0.0405666	-0.133556	0.626374	0.258406	-0.162373	-0.0441833	0.0414069	-0.100545	0	0	0	0	0	0	0.61116	0.244464	-0.135	0	0	0	-0.0724067	0.176655	-0.0947084	-0.0678747	0.0976366	-0.160811	0.052432	-0.039991	0.0216304	0.0969379	-0.160583	-0	0.273213	-0.137881	3.589	0.0333358	-0.0221657	0	-2.75032	-0.381364	-1080	1080	-600	1700	-10	10	-10	-0	0	-0	250	-1.2	0.2	177	-1.2	-1	2555	0.07	3703	4436	9	56579	
29.8632	0.649041	-1.83708	203	61	2593	-647	-0.0242958	0.056974	-0.0617025	-0.0151217	0.041136	-0.134173	0.626508	0.25811	-0.16292	-0.0435493	0.0407141	-0.0990896	0	0	0	0	0	0	0.61116	0.244464	-0.135	0	0	0	-0.0753319	0.176723	-0.0972681	-0.0678451	0.097688	-0.160792	0.0524511	-0.0399524	0.021609	0.0969759	-0.160566	-0	0.273223	-0.137886	3.58877	0.0333358	-0.0221657	0	-2.7508	-0.380922	-1080	1080	-600	1700	-10	10	-10	-0	0	-0	250	-1.2	0.2	177	-1.2	-1	2555	0.07	3703	4436	9	56579	
29.8732	0.649081	-1.83591	203	62	2595	-646	-0.0247609	0.0578802	-0.0644512	-0.0153695	0.0417153	-0.134818	0.626612	0.257791	-0.16409	-0.0430463	0.0399226	-0.0962871	0	0	0	0	0	0	0.61116	0.244464	-0.136	0	0	0	-0.07539	0.179758	-0.102387	-0.0678072	0.0978029	-0.160738	0.0524863	-0.0399206	0.0215931	0.097035	-0.160529	-0	0.2744	-0.137933	3.58669	0.0331613	-0.0221657	0	-2.75129	-0.380464	-1080	1080	-600	1700	-10	10	-10	-0	0	-0	250	-1.2	0.2	177	-1.2	-1	2555	0.07	3703	4436	9	56579	
29.8831	0.649161	-1.83608	204	63	2597	-646	-0.0250522	0.0588398	-0.0683787	-0.015618	0.0422988	-0.135496	0.626693	0.257465	-0.163922	-0.042668	0.0390524	-0.0923418	0	0	0	0	0	0	0.61116	0.244464	-0.136	0	0	0	-0.0783498	0.182797	-0.107507	-0.0677202	0.0978922	-0.160721	0.0524997	-0.0398703	0.0215685	0.0970479	-0.160532	-0	0.274575	-0.139107	3.58272	0.0331613	-0.0223402	0	-2.75178	-0.380011	-1080	1080	-600	1700	-10	10	-10	-0	0	-0	250	-1.2	0.2	177	-1.2	-1	2555	0.07	3703	4436	9	56579	
29.8933	0.64941	-1.83562	204	65	2600	-645	-0.0251672	0.0599544	-0.0734853	-0.0158725	0.0429052	-0.136239	0.626666	0.257128	-0.164378	-0.0424913	0.038068	-0.0871819	0	0	0	0	0	0	0.61116	0.244464	-0.137	0	0	0	-0.0784403	0.188817	-0.115186	-0.0676585	0.0980223	-0.160667	0.0525363	-0.0398322	0.0215562	0.0970782	-0.160513	-0	0.275912	-0.140322	3.57705	0.0329867	-0.0225147	0	-2.75223	-0.379599	-1080	1080	-600	1700	-10	10	-10	-0	0	-0	250	-1.2	0.2	177	-1.2	-1	2555	0.07	3703	4436	9	56579	
29.9032	0.649724	-1.83636	204	66	2603	-644	-0.0250965	0.0610746	-0.079161	-0.0161221	0.0435126	-0.137027	0.626597	0.256785	-0.163644	-0.0424882	0.0369764	-0.0815197	0	0	0	0	0	0	0.61116	0.244464	-0.137	0	0	0	-0.0785308	0.191942	-0.122865	-0.0675848	0.098051	-0.160681	0.0525554	-0.0397787	0.0215377	0.0970664	-0.16053	-0	0.276238	-0.140487	3.56967	0.0329867	-0.0225147	0	-2.75266	-0.379202	-1080	1080	-600	1700	-10	10	-10	-0	0	-0	250	-1.2	0.2	177	-1.2	-1	2555	0.07	3703	4436	9	56579	
29.9132	0.650105	-1.83616	204	67	2607	-643	-0.0248942	0.0622924	-0.0847133	-0.0163708	0.0441349	-0.137873	0.62649	0.25643	-0.163835	-0.0425893	0.0358597	-0.0759483	0	0	0	0	0	0	0.61116	0.244464	-0.138	0	0	0	-0.0786515	0.195149	-0.133104	-0.0674835	0.0981521	-0.160662	0.0525963	-0.0397382	0.0215283	0.0970853	-0.160516	-0	0.276601	-0.140672	3.56148	0.0329867	-0.0225147	0	-2.75308	-0.378808	-1080	1080	-600	1700	-10	10	-10	-0	0	-0	250	-1.2	0.2	177	-1.2	-1	2555	0.07	3703	4436	9	56579	
29.9231	0.650509	-1.83711	203	68	2610	-643	-0.0242554	0.0632973	-0.0904143	-0.0166123	0.0447651	-0.138773	0.626324	0.256179	-0.162893	-0.0431408	0.0349075	-0.0702517	0	0	0	0	0	0	0.61116	0.244464	-0.138	0	0	0	-0.0758257	0.198289	-0.140783	-0.0673962	0.0982048	-0.160666	0.0526144	-0.0396988	0.0215204	0.0970583	-0.160538	-0	0.278046	-0.140852	3.55347	0.0328122	-0.0225147	0	-2.75333	-0.378577	-1080	1080	-600	1700	-10	10	-10	-0	0	-0	250	-1.2	0.2	177	-1.2	-1	2555	0.07	3703	4436	9	56579	
29.9331	0.650951	-1.83798	202	69	2613	-643	-0.0235785	0.0642872	-0.095527	-0.0168461	0.0454027	-0.13972	0.626134	0.255924	-0.162019	-0.0437476	0.0339337	-0.0651586	0	0	0	0	0	0	0.61116	0.244464	-0.138	0	0	0	-0.0729933	0.201435	-0.148462	-0.0673261	0.0982209	-0.160686	0.0526364	-0.0396609	0.0215144	0.0970328	-0.160556	-0	0.279504	-0.139944	3.54524	0.0326377	-0.0223402	0	-2.75358	-0.378352	-1080	1080	-600	1700	-10	10	-10	-0	0	-0	250	-1.2	0.2	177	-1.2	-1	2555	0.07	3703	4436	9	56579	
29.9432	0.65144	-1.8388	201	70	2616	-642	-0.0229014	0.0652964	-0.10008	-0.017079	0.0460667	-0.140738	0.625918	0.255656	-0.161198	-0.0443582	0.0329487	-0.0606183	0	0	0	0	0	0	0.61116	0.244464	-0.138	0	0	0	-0.0701541	0.204588	-0.156141	-0.0672597	0.0982451	-0.160699	0.0526628	-0.0396232	0.0215101	0.0970088	-0.160572	-0	0.279834	-0.140109	3.53786	0.0326377	-0.0223402	0	-2.75382	-0.378125	-1080	1080	-600	1700	-10	10	-10	-0	0	-0	250	-1.2	0.2	177	-1.2	-1	2555	0.07	3703	4436	9	56579	
29.9532	0.652007	-1.83958	201	72	2618	-642	-0.0220784	0.0663535	-0.104148	-0.0172992	0.0467284	-0.141777	0.625647	0.255393	-0.160422	-0.0450666	0.0319577	-0.0565579	0	0	0	0	0	0	0.61116	0.244464	-0.138	0	0	0	-0.0702078	0.210592	-0.16126	-0.067145	0.0983112	-0.160706	0.0526951	-0.0395894	0.0215105	0.0969838	-0.160584	-0	0.280127	-0.140256	3.53127	0.0326377	-0.0223402	0	-2.75403	-0.377931	-1080	1080	-600	1700	-10	10	-10	-0	0	-0	250	-1.2	0.2	177	-1.2	-1	2555	0.07	3703	4436	9	56579	
29.9631	0.652595	-1.84025	200	73	2620	-642	-0.0212109	0.0673054	-0.107562	-0.01751	0.0473973	-0.142846	0.625355	0.255152	-0.159753	-0.0458536	0.0310452	-0.053154	0	0	0	0	0	0	0.61116	0.244464	-0.138	0	0	0	-0.0673339	0.213679	-0.16638	-0.0670646	0.0983506	-0.160716	0.05273	-0.0395611	0.0215145	0.0969606	-0.160593	-0	0.281486	-0.139291	3.52539	0.0324631	-0.0221657	0	-2.7542	-0.377777	-1080	1080	-600	1700	-10	10	-10	-0	0	-0	250	-1.2	0.2	177	-1.2	-1	2555	0.07	3703	4436	9	56579	
29.9732	0.653138	-1.84087	199	74	2622	-641	-0.0203947	0.0681249	-0.110529	-0.0177151	0.0480823	-0.143957	0.625089	0.254916	-0.159125	-0.0465798	0.0303078	-0.0501739	0	0	0	0	0	0	0.61116	0.244464	-0.138	0	0	0	-0.0644556	0.216771	-0.171499	-0.0669745	0.0984327	-0.160703	0.0527625	-0.0395327	0.0215169	0.0969397	-0.160602	-0	0.281707	-0.140498	3.52045	0.0324631	-0.0223402	0	-2.75437	-0.377614	-1080	1080	-600	1700	-10	10	-10	-0	0	-0	250	-1.2	0.2	177	-1.2	-1	2555	0.07	3703	4436	9	56579	
29.9831	0.653647	-1.84144	198	74	2624	-641	-0.0195651	0.0687227	-0.113049	-0.017909	0.0487635	-0.145078	0.62483	0.25472	-0.158563	-0.0473604	0.0297349	-0.0476586	0	0	0	0	0	0	0.61116	0.244464	-0.138	0	0	0	-0.0615728	0.216936	-0.176618	-0.0669256	0.0984576	-0.160708	0.0527925	-0.0395104	0.0215215	0.0969194	-0.160609	-0	0.281899	-0.140594	3.51615	0.0324631	-0.0223402	0	-2.7545	-0.377499	-1080	1080	-600	1700	-10	10	-10	-0	0	-0	250	-1.2	0.2	177	-1.2	-1	2555	0.07	3703	4436	9	56579	
29.9932	0.654142	-1.84194	197	75	2625	-641	-0.0187982	0.069246	-0.115129	-0.0180994	0.0494648	-0.146244	0.624581	0.25452	-0.158064	-0.0480584	0.0292759	-0.0455683	0	0	0	0	0	0	0.61116	0.244464	-0.138	0	0	0	-0.0586632	0.219951	-0.179178	-0.0668566	0.0985219	-0.160697	0.052823	-0.039488	0.0215256	0.0969018	-0.160615	-0	0.283161	-0.140676	3.5125	0.0322886	-0.0223402	0	-2.75463	-0.377374	-1080	1080	-600	1700	-10	10	-10	-0	0	-0	250	-1.2	0.2	177	-1.2	-1	2555	0.07	3703	4436	9	56579	
30.0032	0.637721	-1.84239	196	74	2626	-631	-0.0181821	0.0689038	-0.117208	-0.0182802	0.05015	-0.147409	0.635509	0.25435	-0.15761	-0.0487363	0.0289449	-0.0438745	0	0	0	0	0	0	0.622272	0.244464	-0.138	0	0	0	-0.0557514	0.217102	-0.181738	-0.0669184	0.0978487	-0.161082	0.0517233	-0.0389535	0.0207013	0.0973278	-0.160954	-0	0.282199	-0.139644	3.50948	0.0324631	-0.0221657	0	-2.76089	-0.371575	-1080	1080	-600	1700	-10	10	-10	-0	0	-0	250	-1.2	0.2	177	-1.2	-1	2555	0.07	3676	4401	9	56579	
30.0131	0.638098	-1.84377	195	75	2627	-631	-0.0174169	0.069152	-0.118516	-0.0184534	0.0508376	-0.148588	0.635325	0.254192	-0.15623	-0.0494168	0.0287229	-0.0425855	0	0	0	0	0	0	0.622272	0.244464	-0.137	0	0	0	-0.0528373	0.220118	-0.184297	-0.0668337	0.097875	-0.161102	0.0517288	-0.0389218	0.0206966	0.0972806	-0.160989	-0	0.283433	-0.139711	3.50645	0.0322886	-0.0221657	0	-2.761	-0.371469	-1080	1080	-600	1700	-10	10	-10	-0	0	-0	250	-1.2	0.2	177	-1.2	-1	2555	0.07	3676	4401	9	56579	
30.0232	0.638413	-1.84412	195	75	2628	-631	-0.0167939	0.0692734	-0.119526	-0.018622	0.051533	-0.149788	0.635172	0.254058	-0.155883	-0.0500073	0.0286187	-0.0415785	0	0	0	0	0	0	0.622272	0.244464	-0.137	0	0	0	-0.0528574	0.220202	-0.186857	-0.0668012	0.0978921	-0.161105	0.0517481	-0.0389059	0.0206984	0.0972689	-0.160993	-0	0.283519	-0.139753	3.50454	0.0322886	-0.0221657	0	-2.7611	-0.371377	-1080	1080	-600	1700	-10	10	-10	-0	0	-0	250	-1.2	0.2	177	-1.2	-1	2555	0.07	3676	4401	9	56579	
30.0332	0.638694	-1.84441	194	75	2628	-631	-0.0161211	0.0692354	-0.120217	-0.0187841	0.0522291	-0.150996	0.635026	0.253962	-0.15559	-0.0506342	0.0287071	-0.0408759	0	0	0	0	0	0	0.622272	0.244464	-0.137	0	0	0	-0.0499209	0.220202	-0.186857	-0.0667553	0.0979426	-0.161093	0.0517648	-0.0388956	0.020702	0.0972575	-0.160997	-0	0.284685	-0.139786	3.50306	0.0321141	-0.0221657	0	-2.76115	-0.37133	-1080	1080	-600	1700	-10	10	-10	-0	0	-0	250	-1.2	0.2	177	-1.2	-1	2555	0.07	3676	4401	9	56579	
30.0432	0.638958	-1.84365	194	75	2628	-631	-0.0155662	0.0691952	-0.120611	-0.0189394	0.0529198	-0.1522	0.634896	0.253854	-0.156346	-0.0511571	0.0287922	-0.0404678	0	0	0	0	0	0	0.622272	0.244464	-0.138	0	0	0	-0.0499209	0.220202	-0.186857	-0.0667233	0.0979874	-0.161079	0.0517999	-0.0388973	0.0207114	0.0972832	-0.160968	-0	0.284731	-0.138708	3.50203	0.0321141	-0.0219911	0	-2.76123	-0.371259	-1080	1080	-600	1700	-10	10	-10	-0	0	-0	250	-1.2	0.2	177	-1.2	-1	2555	0.07	3676	4401	9	56579	
30.0532	0.639193	-1.84384	193	75	2628	-631	-0.0150163	0.069048	-0.120766	-0.0190895	0.05361	-0.153407	0.634778	0.253763	-0.156156	-0.0516365	0.0289909	-0.0403113	0	0	0	0	0	0	0.622272	0.244464	-0.138	0	0	0	-0.0469844	0.220202	-0.186857	-0.0666528	0.0980389	-0.161077	0.0518152	-0.0388878	0.020714	0.0972762	-0.16097	-0	0.284758	-0.138721	3.50144	0.0321141	-0.0219911	0	-2.76129	-0.371204	-1080	1080	-600	1700	-10	10	-10	-0	0	-0	250	-1.2	0.2	177	-1.2	-1	2555	0.07	3676	4401	9	56579	
30.0631	0.639393	-1.84401	192	74	2629	-630	-0.014528	0.0688084	-0.120764	-0.0192333	0.054291	-0.154603	0.634676	0.253691	-0.155994	-0.0521076	0.0292417	-0.0403132	0	0	0	0	0	0	0.622272	0.244464	-0.138	0	0	0	-0.0440647	0.21735	-0.189417	-0.0666356	0.0980501	-0.161077	0.0518281	-0.0388805	0.0207166	0.09727	-0.160971	-0	0.28477	-0.138727	3.50119	0.0321141	-0.0219911	0	-2.76133	-0.371164	-1080	1080	-600	1700	-10	10	-10	-0	0	-0	250	-1.2	0.2	177	-1.2	-1	2555	0.07	3676	4401	9	56579	
30.0732	0.639571	-1.84412	192	74	2628	-630	-0.0140928	0.0685008	-0.120558	-0.0193758	0.0549837	-0.155822	0.634587	0.253621	-0.15588	-0.0524945	0.0295579	-0.0405341	0	0	0	0	0	0	0.622272	0.244464	-0.138	0	0	0	-0.0440479	0.217267	-0.186857	-0.0665873	0.0980587	-0.161092	0.0518403	-0.0388735	0.0207187	0.0972658	-0.160971	-0	0.284771	-0.137627	3.50116	0.0321141	-0.0218166	0	-2.76138	-0.371121	-1080	1080	-600	1700	-10	10	-10	-0	0	-0	250	-1.2	0.2	177	-1.2	-1	2555	0.07	3676	4401	9	56579	
30.0832	0.639699	-1.84421	192	74	2628	-630	-0.0137405	0.0681192	-0.120189	-0.0195131	0.0556641	-0.157022	0.634524	0.253568	-0.155788	-0.0527856	0.0299854	-0.0409006	0	0	0	0	0	0	0.622272	0.244464	-0.138	0	0	0	-0.0440479	0.217267	-0.186857	-0.0665261	0.0981046	-0.161089	0.051849	-0.038868	0.0207198	0.0972626	-0.160971	-0	0.284759	-0.137621	3.50143	0.0321141	-0.0218166	0	-2.76142	-0.371085	-1080	1080	-600	1700	-10	10	-10	-0	0	-0	250	-1.2	0.2	177	-1.2	-1	2555	0.07	3676	4401	9	56579	
30.0931	0.639824	-1.84425	191	73	2628	-630	-0.0133415	0.0676672	-0.119644	-0.0196455	0.0563359	-0.15821	0.634452	0.253544	-0.155745	-0.0531576	0.030453	-0.0414474	0	0	0	0	0	0	0.622272	0.244464	-0.138	0	0	0	-0.0411115	0.214332	-0.186857	-0.0664991	0.0981202	-0.161091	0.0518574	-0.0388675	0.0207236	0.0972594	-0.16097	-0	0.285836	-0.136509	3.50193	0.0319395	-0.0216421	0	-2.76141	-0.371092	-1080	1080	-600	1700	-10	10	-10	-0	0	-0	250	-1.2	0.2	177	-1.2	-1	2555	0.07	3676	4401	9	56579	
30.1032	0.639907	-1.84429	191	73	2628	-630	-0.0130777	0.0671967	-0.119037	-0.019777	0.0570117	-0.159407	0.63441	0.25351	-0.155711	-0.0534145	0.0309297	-0.0420528	0	0	0	0	0	0	0.622272	0.244464	-0.138	0	0	0	-0.0411115	0.214332	-0.186857	-0.0664921	0.0981264	-0.16109	0.0518635	-0.0388643	0.0207246	0.0972582	-0.160969	-0	0.285802	-0.136493	3.50269	0.0319395	-0.0216421	0	-2.76143	-0.37107	-1080	1080	-600	1700	-10	10	-10	-0	0	-0	250	-1.2	0.2	177	-1.2	-1	2555	0.07	3676	4401	9	56579	
30.1131	0.639982	-1.8433	191	72	2627	-630	-0.0128658	0.0667731	-0.118324	-0.0199048	0.0576749	-0.160582	0.634371	0.253486	-0.156697	-0.0536267	0.0314566	-0.0427026	0	0	0	0	0	0	0.622272	0.244464	-0.139	0	0	0	-0.0410958	0.211316	-0.184297	-0.0664925	0.0982296	-0.161027	0.0518873	-0.0388764	0.0207335	0.0972914	-0.160937	-0	0.286863	-0.137575	3.50353	0.031765	-0.0218166	0	-2.76144	-0.37106	-1080	1080	-600	1700	-10	10	-10	-0	0	-0	250	-1.2	0.2	177	-1.2	-1	2555	0.07	3676	4401	9	56579	
30.1231	0.639988	-1.84227	190	72	2627	-630	-0.0126984	0.0662485	-0.117471	-0.0200311	0.0583338	-0.161751	0.634352	0.253524	-0.157734	-0.0537773	0.0320203	-0.0435388	0	0	0	0	0	0	0.622272	0.244464	-0.14	0	0	0	-0.0381604	0.211316	-0.184297	-0.0664757	0.0982688	-0.16101	0.0519053	-0.0388965	0.0207444	0.0973243	-0.160905	-0	0.286818	-0.136453	3.50453	0.031765	-0.0216421	0	-2.76138	-0.371118	-1080	1080	-600	1700	-10	10	-10	-0	0	-0	250	-1.2	0.2	177	-1.2	-1	2555	0.07	3676	4401	9	56579	
30.1332	0.639939	-1.84223	190	71	2626	-631	-0.0125944	0.0656111	-0.116694	-0.0201592	0.0590009	-0.162937	0.634361	0.253582	-0.157768	-0.0538867	0.0326469	-0.0443203	0	0	0	0	0	0	0.622272	0.244464	-0.14	0	0	0	-0.0381459	0.208303	-0.181738	-0.0664811	0.098258	-0.161014	0.0519008	-0.0389044	0.0207471	0.0973232	-0.160905	-0	0.287862	-0.135327	3.50573	0.0315905	-0.0214675	0	-2.76131	-0.371186	-1080	1080	-600	1700	-10	10	-10	-0	0	-0	250	-1.2	0.2	177	-1.2	-1	2555	0.07	3676	4401	9	56579	
30.1432	0.639939	-1.84219	190	70	2626	-631	-0.0125344	0.0651123	-0.115874	-0.0202842	0.0596502	-0.164093	0.634349	0.253612	-0.157813	-0.0539523	0.0331438	-0.0451394	0	0	0	0	0	0	0.622272	0.244464	-0.14	0	0	0	-0.0381459	0.20537	-0.181738	-0.0664868	0.0982561	-0.161013	0.0519006	-0.0389096	0.0207498	0.0973229	-0.160904	-0	0.287812	-0.135303	3.50682	0.0315905	-0.0214675	0	-2.76126	-0.37123	-1080	1080	-600	1700	-10	10	-10	-0	0	-0	250	-1.2	0.2	177	-1.2	-1	2555	0.07	3676	4401	9	56579	
30.1532	0.639922	-1.84212	190	70	2625	-631	-0.0124676	0.0646066	-0.115003	-0.0204089	0.0602964	-0.165243	0.634342	0.253658	-0.157882	-0.0540069	0.033683	-0.0459949	0	0	0	0	0	0	0.622272	0.244464	-0.14	0	0	0	-0.0381314	0.205292	-0.179178	-0.0664745	0.0982896	-0.160998	0.0518992	-0.0389171	0.0207532	0.0973229	-0.160902	-0	0.288858	-0.135279	3.50797	0.0314159	-0.0214675	0	-2.76119	-0.371291	-1080	1080	-600	1700	-10	10	-10	-0	0	-0	250	-1.2	0.2	177	-1.2	-1	2555	0.07	3676	4401	9	56579	
30.1632	0.639897	-1.84205	190	69	2625	-631	-0.0125334	0.064185	-0.114164	-0.0205346	0.0609403	-0.166388	0.634353	0.253671	-0.157949	-0.053912	0.0341293	-0.0468311	0	0	0	0	0	0	0.622272	0.244464	-0.14	0	0	0	-0.0381314	0.20236	-0.179178	-0.0664454	0.0983142	-0.160995	0.0518983	-0.0389193	0.0207536	0.097325	-0.160901	-0	0.288802	-0.135252	3.5092	0.0314159	-0.0214675	0	-2.76118	-0.371303	-1080	1080	-600	1700	-10	10	-10	-0	0	-0	250	-1.2	0.2	177	-1.2	-1	2555	0.07	3676	4401	9	56579	
30.1732	0.639834	-1.84299	190	69	2624	-631	-0.0125773	0.0636718	-0.1134	-0.0206601	0.0615755	-0.16752	0.63438	0.253707	-0.15701	-0.0538285	0.0346703	-0.047594	0	0	0	0	0	0	0.622272	0.244464	-0.139	0	0	0	-0.0381169	0.202283	-0.176618	-0.0664058	0.0983421	-0.160994	0.0518758	-0.0389101	0.0207466	0.0972924	-0.160931	-0	0.289846	-0.136326	3.51038	0.0312414	-0.0216421	0	-2.76115	-0.371334	-1080	1080	-600	1700	-10	10	-10	-0	0	-0	250	-1.2	0.2	177	-1.2	-1	2555	0.07	3676	4401	9	56579	
30.1832	0.63978	-1.84294	190	68	2624	-631	-0.0126743	0.0632256	-0.112668	-0.0207871	0.062209	-0.168648	0.634403	0.25374	-0.157063	-0.0537383	0.0351123	-0.0483256	0	0	0	0	0	0	0.622272	0.244464	-0.139	0	0	0	-0.0381169	0.199352	-0.176618	-0.0664127	0.098338	-0.160994	0.051872	-0.0389142	0.0207471	0.0972936	-0.16093	-0	0.289797	-0.136303	3.51145	0.0312414	-0.0216421	0	-2.76112	-0.371364	-1080	1080	-600	1700	-10	10	-10	-0	0	-0	250	-1.2	0.2	177	-1.2	-1	2555	0.07	3676	4401	9	56579	
30.1931	0.639692	-1.8439	190	68	2623	-631	-0.0127661	0.0627246	-0.112087	-0.020913	0.0628279	-0.169754	0.634447	0.253772	-0.156096	-0.0535776	0.0356118	-0.0489362	0	0	0	0	0	0	0.622272	0.244464	-0.138	0	0	0	-0.0381023	0.199276	-0.174059	-0.0663436	0.0983365	-0.161023	0.0518474	-0.0389032	0.0207384	0.0972608	-0.160962	-0	0.28975	-0.136281	3.51248	0.0312414	-0.0216421	0	-2.7611	-0.371382	-1080	1080	-600	1700	-10	10	-10	-0	0	-0	250	-1.2	0.2	177	-1.2	-1	2555	0.07	3676	4401	9	56579	
30.2031	0.639608	-1.84387	191	67	2623	-631	-0.0129386	0.0623485	-0.111491	-0.0210426	0.063452	-0.170871	0.634495	0.25379	-0.156127	-0.0533598	0.0360489	-0.0495138	0	0	0	0	0	0	0.622272	0.244464	-0.138	0	0	0	-0.0410332	0.196347	-0.174059	-0.0662984	0.0983974	-0.161005	0.0518418	-0.0389039	0.0207361	0.0972629	-0.160962	-0	0.289713	-0.137362	3.51329	0.0312414	-0.0218166	0	-2.7611	-0.371381	-1080	1080	-600	1700	-10	10	-10	-0	0	-0	250	-1.2	0.2	177	-1.2	-1	2555	0.07	3676	4401	9	56579	
30.2131	0.639525	-1.84487	191	67	2623	-631	-0.0131914	0.0620055	-0.111085	-0.0211745	0.0640722	-0.171982	0.634553	0.25378	-0.155127	-0.0530759	0.0364096	-0.0499211	0	0	0	0	0	0	0.622272	0.244464	-0.137	0	0	0	-0.0410332	0.196347	-0.174059	-0.0662673	0.0984151	-0.161007	0.0518183	-0.0388863	0.020724	0.0972315	-0.160995	-0	0.290772	-0.138442	3.51412	0.0310669	-0.0219911	0	-2.76114	-0.371339	-1080	1080	-600	1700	-10	10	-10	-0	0	-0	250	-1.2	0.2	177	-1.2	-1	2555	0.07	3676	4401	9	56579	
30.2231	0.639422	-1.84488	191	67	2623	-631	-0.0134577	0.0616763	-0.110714	-0.0213096	0.0646913	-0.173093	0.63462	0.253782	-0.15512	-0.0528109	0.036734	-0.0502949	0	0	0	0	0	0	0.622272	0.244464	-0.137	0	0	0	-0.0410332	0.196347	-0.174059	-0.0662685	0.0984103	-0.161009	0.0518112	-0.0388834	0.0207191	0.0972338	-0.160997	-0	0.290746	-0.13843	3.51468	0.0310669	-0.0219911	0	-2.76118	-0.371308	-1080	1080	-600	1700	-10	10	-10	-0	0	-0	250	-1.2	0.2	177	-1.2	-1	2555	0.07	3676	4401	9	56579	
30.2332	0.649239	-1.84591	193	65	2622	-664	-0.0152371	0.0605007	-0.110333	-0.0214624	0.0652982	-0.1742	0.623517	0.264941	-0.154091	-0.05251	0.0370365	-0.0505917	0	0	0	0	0	0	0.61116	0.255576	-0.136	0	0	0	-0.0468772	0.190414	-0.171499	-0.067747	0.0975373	-0.160925	0.0520634	-0.0408893	0.0221224	0.0962297	-0.160835	-0	0.289625	-0.138419	3.51519	0.0312414	-0.0219911	0	-2.7398	-0.391073	-1080	1080	-600	1700	-10	10	-10	-0	0	-0	250	-1.2	0.2	177	-1.2	-1	2555	0.07	3649	4366	9	56579	
30.2432	0.649205	-1.84695	193	65	2622	-664	-0.0154262	0.0602512	-0.110133	-0.0216172	0.0659028	-0.175305	0.623522	0.264984	-0.153045	-0.0522223	0.0373124	-0.0508178	0	0	0	0	0	0	0.61116	0.255576	-0.135	0	0	0	-0.0468772	0.190414	-0.171499	-0.0676485	0.0975636	-0.16095	0.0520406	-0.0408799	0.0221162	0.0961926	-0.160868	-0	0.288504	-0.139506	3.51571	0.0314159	-0.0221657	0	-2.73974	-0.391124	-1080	1080	-600	1700	-10	10	-10	-0	0	-0	250	-1.2	0.2	177	-1.2	-1	2555	0.07	3649	4366	9	56579	
30.2531	0.649188	-1.84702	194	65	2622	-665	-0.0156395	0.0601277	-0.110032	-0.0217721	0.0664982	-0.176394	0.623514	0.265029	-0.152976	-0.052014	0.0374278	-0.0509215	0	0	0	0	0	0	0.61116	0.255576	-0.135	0	0	0	-0.0498069	0.190414	-0.171499	-0.0676535	0.0975555	-0.160953	0.0520366	-0.0408853	0.0221185	0.0961878	-0.16087	-0	0.288492	-0.1395	3.51597	0.0314159	-0.0221657	0	-2.73967	-0.391185	-1080	1080	-600	1700	-10	10	-10	-0	0	-0	250	-1.2	0.2	177	-1.2	-1	2555	0.07	3649	4366	9	56579	
30.2632	0.649174	-1.84711	194	65	2622	-665	-0.0159514	0.0601112	-0.109986	-0.0219328	0.0671037	-0.177502	0.623522	0.265032	-0.152895	-0.0516678	0.0374942	-0.0509518	0	0	0	0	0	0	0.61116	0.255576	-0.135	0	0	0	-0.0498069	0.190414	-0.171499	-0.0676192	0.0976054	-0.160937	0.0520341	-0.0408841	0.0221174	0.0961852	-0.160873	-0	0.288486	-0.140596	3.51609	0.0314159	-0.0223402	0	-2.73967	-0.391184	-1080	1080	-600	1700	-10	10	-10	-0	0	-0	250	-1.2	0.2	177	-1.2	-1	2555	0.07	3649	4366	9	56579	
30.2733	0.649172	-1.8482	194	65	2622	-665	-0.0161718	0.0601028	-0.110021	-0.0220956	0.067709	-0.17861	0.623525	0.265029	-0.1518	-0.0513405	0.0375058	-0.0509591	0	0	0	0	0	0	0.61116	0.255576	-0.134	0	0	0	-0.0498069	0.190414	-0.171499	-0.0675122	0.0976086	-0.16098	0.0520141	-0.040868	0.0221086	0.0961486	-0.160907	-0	0.287387	-0.140595	3.51613	0.0315905	-0.0223402	0	-2.73968	-0.39118	-1080	1080	-600	1700	-10	10	-10	-0	0	-0	250	-1.2	0.2	177	-1.2	-1	2555	0.07	3649	4366	9	56579	
30.2832	0.649186	-1.84829	194	65	2622	-664	-0.0164317	0.0601635	-0.11001	-0.0222593	0.0683082	-0.179706	0.623519	0.26502	-0.151711	-0.051044	0.0374691	-0.0509713	0	0	0	0	0	0	0.61116	0.255576	-0.134	0	0	0	-0.0498069	0.190414	-0.171499	-0.0674756	0.0976326	-0.160981	0.0520137	-0.0408658	0.0221079	0.0961458	-0.160909	-0	0.287391	-0.140596	3.51605	0.0315905	-0.0223402	0	-2.73969	-0.391172	-1080	1080	-600	1700	-10	10	-10	-0	0	-0	250	-1.2	0.2	177	-1.2	-1	2555	0.07	3649	4366	9	56579	
30.2934	0.649291	-1.8484	195	65	2622	-665	-0.016639	0.0602281	-0.110109	-0.022429	0.0689225	-0.180829	0.623453	0.26501	-0.151596	-0.0507536	0.0374162	-0.0509	0	0	0	0	0	0	0.61116	0.255576	-0.134	0	0	0	-0.0527367	0.190414	-0.171499	-0.0673926	0.0976443	-0.161009	0.0520188	-0.0408659	0.0221115	0.0961397	-0.160911	-0	0.286294	-0.139498	3.51604	0.031765	-0.0221657	0	-2.73966	-0.391194	-1080	1080	-600	1700	-10	10	-10	-0	0	-0	250	-1.2	0.2	177	-1.2	-1	2555	0.07	3649	4366	9	56579	
30.3032	0.649421	-1.8485	195	65	2622	-665	-0.0169276	0.0603861	-0.110155	-0.0225943	0.0695122	-0.181905	0.623381	0.264974	-0.151498	-0.0504561	0.0372644	-0.0508534	0	0	0	0	0	0	0.61116	0.255576	-0.134	0	0	0	-0.0527367	0.190414	-0.171499	-0.0673837	0.0976505	-0.161009	0.0520268	-0.0408632	0.0221145	0.0961351	-0.160911	-0	0.286302	-0.139502	3.51587	0.031765	-0.0221657	0	-2.73967	-0.391187	-1080	1080	-600	1700	-10	10	-10	-0	0	-0	250	-1.2	0.2	177	-1.2	-1	2555	0.07	3649	4366	9	56579	
30.3131	0.649547	-1.84862	195	66	2622	-665	-0.0170901	0.0605225	-0.110279	-0.0227635	0.0701114	-0.182997	0.623302	0.264963	-0.151378	-0.050255	0.0371557	-0.0507287	0	0	0	0	0	0	0.61116	0.255576	-0.134	0	0	0	-0.0527367	0.193343	-0.171499	-0.0673451	0.0976782	-0.161008	0.0520333	-0.0408638	0.0221191	0.0961284	-0.160912	-0	0.286306	-0.139504	3.51578	0.031765	-0.0221657	0	-2.73964	-0.391215	-1080	1080	-600	1700	-10	10	-10	-0	0	-0	250	-1.2	0.2	177	-1.2	-1	2555	0.07	3649	4366	9	56579	
30.3231	0.649714	-1.84875	195	66	2623	-665	-0.017276	0.0607628	-0.110449	-0.0229367	0.0707207	-0.184104	0.62321	0.264917	-0.151249	-0.0500082	0.036933	-0.0505737	0	0	0	0	0	0	0.61116	0.255576	-0.134	0	0	0	-0.0527568	0.193417	-0.174059	-0.0672842	0.0976958	-0.161023	0.0520434	-0.0408602	0.0221229	0.0961224	-0.160913	-0	0.286315	-0.13841	3.51558	0.031765	-0.0219911	0	-2.73965	-0.391207	-1080	1080	-600	1700	-10	10	-10	-0	0	-0	250	-1.2	0.2	177	-1.2	-1	2555	0.07	3649	4366	9	56579	
30.3332	0.649867	-1.84788	196	66	2623	-665	-0.0175088	0.0609897	-0.110579	-0.0231134	0.0713361	-0.18522	0.623125	0.264876	-0.152118	-0.0498031	0.0367572	-0.0504011	0	0	0	0	0	0	0.61116	0.255576	-0.135	0	0	0	-0.0556877	0.193417	-0.174059	-0.0673119	0.097747	-0.16098	0.0520706	-0.0408712	0.022134	0.0961501	-0.160883	-0	0.287425	-0.138416	3.5153	0.0315905	-0.0219911	0	-2.73966	-0.391201	-1080	1080	-600	1700	-10	10	-10	-0	0	-0	250	-1.2	0.2	177	-1.2	-1	2555	0.07	3649	4366	9	56579	
30.3432	0.650044	-1.84801	196	66	2623	-665	-0.0176575	0.0612169	-0.110709	-0.0232899	0.0719478	-0.186326	0.623024	0.264835	-0.151988	-0.0496434	0.0365376	-0.0502708	0	0	0	0	0	0	0.61116	0.255576	-0.135	0	0	0	-0.0556877	0.193417	-0.174059	-0.0673009	0.0977546	-0.16098	0.0520813	-0.0408687	0.0221387	0.0961435	-0.160884	-0	0.287435	-0.138421	3.51509	0.0315905	-0.0219911	0	-2.73965	-0.391203	-1080	1080	-600	1700	-10	10	-10	-0	0	-0	250	-1.2	0.2	177	-1.2	-1	2555	0.07	3649	4366	9	56579	
30.3531	0.650209	-1.84814	196	67	2623	-665	-0.0177883	0.0614415	-0.110831	-0.0234668	0.0725591	-0.187429	0.622931	0.264795	-0.151859	-0.0494855	0.0363328	-0.0501482	0	0	0	0	0	0	0.61116	0.255576	-0.135	0	0	0	-0.0556877	0.196347	-0.174059	-0.0672738	0.0977742	-0.16098	0.0520911	-0.0408659	0.0221428	0.0961373	-0.160884	-0	0.287445	-0.138426	3.51488	0.0315905	-0.0219911	0	-2.73966	-0.391202	-1080	1080	-600	1700	-10	10	-10	-0	0	-0	250	-1.2	0.2	177	-1.2	-1	2555	0.07	3649	4366	9	56579	
30.3632	0.650395	-1.84726	196	67	2623	-665	-0.017936	0.0617286	-0.110907	-0.0236472	0.0731799	-0.188544	0.622829	0.264742	-0.152742	-0.0493189	0.0360847	-0.050057	0	0	0	0	0	0	0.61116	0.255576	-0.136	0	0	0	-0.0556877	0.196347	-0.174059	-0.0672549	0.0978134	-0.160964	0.0521212	-0.0408764	0.0221548	0.0961654	-0.160854	-0	0.287454	-0.137332	3.51467	0.0315905	-0.0218166	0	-2.73967	-0.39119	-1080	1080	-600	1700	-10	10	-10	-0	0	-0	250	-1.2	0.2	177	-1.2	-1	2555	0.07	3649	4366	9	56579	
30.3732	0.650598	-1.84739	196	67	2623	-665	-0.0179861	0.0619795	-0.111064	-0.0238271	0.0737999	-0.189655	0.622711	0.2647	-0.152606	-0.0492573	0.0358424	-0.0498998	0	0	0	0	0	0	0.61116	0.255576	-0.136	0	0	0	-0.0556877	0.196347	-0.174059	-0.0672434	0.0978219	-0.160963	0.0521335	-0.0408745	0.0221607	0.0961579	-0.160854	-0	0.28746	-0.137335	3.51454	0.0315905	-0.0218166	0	-2.73966	-0.3912	-1080	1080	-600	1700	-10	10	-10	-0	0	-0	250	-1.2	0.2	177	-1.2	-1	2555	0.07	3649	4366	9	56579	
30.3832	0.6508	-1.84651	196	67	2623	-665	-0.0180197	0.0622397	-0.11113	-0.0240076	0.0744233	-0.190768	0.622589	0.264669	-0.15349	-0.0492243	0.035635	-0.0498013	0	0	0	0	0	0	0.61116	0.255576	-0.137	0	0	0	-0.0556877	0.196347	-0.174059	-0.067244	0.0978747	-0.160931	0.0521639	-0.0408888	0.0221754	0.0961842	-0.160823	-0	0.287471	-0.13734	3.51429	0.0315905	-0.0218166	0	-2.73963	-0.391226	-1080	1080	-600	1700	-10	10	-10	-0	0	-0	250	-1.2	0.2	177	-1.2	-1	2555	0.07	3649	4366	9	56579	
30.3931	0.651003	-1.84562	196	68	2623	-665	-0.0181449	0.0625201	-0.111219	-0.0241871	0.0750418	-0.191868	0.622478	0.264611	-0.154375	-0.0491077	0.0353948	-0.0496835	0	0	0	0	0	0	0.61116	0.255576	-0.138	0	0	0	-0.0556877	0.199276	-0.174059	-0.0672526	0.097915	-0.160903	0.0521953	-0.0408991	0.0221878	0.0962121	-0.160791	-0	0.288575	-0.136244	3.51416	0.0314159	-0.0216421	0	-2.73964	-0.391213	-1080	1080	-600	1700	-10	10	-10	-0	0	-0	250	-1.2	0.2	177	-1.2	-1	2555	0.07	3624	4337	9	56579	
30.4032	0.65122	-1.84474	196	68	2623	-665	-0.0181579	0.0627762	-0.111317	-0.02437	0.0756742	-0.19299	0.622348	0.264576	-0.155256	-0.0490945	0.0351645	-0.0495703	0	0	0	0	0	0	0.61116	0.255576	-0.139	0	0	0	-0.0556877	0.199276	-0.174059	-0.0672524	0.0979406	-0.160887	0.0522268	-0.0409133	0.022203	0.0962381	-0.16076	-0	0.288582	-0.135149	3.51401	0.0314159	-0.0214675	0	-2.73962	-0.391239	-1080	1080	-600	1700	-10	10	-10	-0	0	-0	250	-1.2	0.2	177	-1.2	-1	2555	0.07	3624	4337	9	56579	
30.4131	0.651446	-1.84486	196	68	2623	-665	-0.0181647	0.0630246	-0.111415	-0.0245507	0.076301	-0.194098	0.622217	0.264527	-0.155137	-0.0490755	0.0349268	-0.0494713	0	0	0	0	0	0	0.61116	0.255576	-0.139	0	0	0	-0.0556877	0.199276	-0.174059	-0.0672402	0.0979514	-0.160886	0.0522411	-0.0409113	0.0222096	0.096231	-0.160759	-0	0.28859	-0.135153	3.51384	0.0314159	-0.0214675	0	-2.73961	-0.391247	-1080	1080	-600	1700	-10	10	-10	-0	0	-0	250	-1.2	0.2	177	-1.2	-1	2555	0.07	3624	4337	9	56579	
30.4231	0.651652	-1.84398	196	69	2623	-665	-0.0181421	0.0632365	-0.111481	-0.0247319	0.0769326	-0.195212	0.622092	0.264497	-0.156022	-0.0490703	0.0347681	-0.0493836	0	0	0	0	0	0	0.61116	0.255576	-0.14	0	0	0	-0.0556877	0.202206	-0.174059	-0.0672124	0.0980046	-0.160865	0.0522718	-0.0409259	0.0222246	0.0962571	-0.160728	-0	0.287499	-0.135156	3.51367	0.0315905	-0.0214675	0	-2.73958	-0.391276	-1080	1080	-600	1700	-10	10	-10	-0	0	-0	250	-1.2	0.2	177	-1.2	-1	2555	0.07	3624	4337	9	56579	
30.4332	0.651892	-1.84409	196	69	2623	-665	-0.0180797	0.0634646	-0.111554	-0.0249142	0.0775724	-0.196336	0.621948	0.264456	-0.155914	-0.0490891	0.0345478	-0.0493248	0	0	0	0	0	0	0.61116	0.255576	-0.14	0	0	0	-0.0556877	0.202206	-0.174059	-0.0671687	0.0980124	-0.160879	0.0522869	-0.0409258	0.0222327	0.0962495	-0.160726	-0	0.287505	-0.13406	3.51355	0.0315905	-0.021293	0	-2.73955	-0.391301	-1080	1080	-600	1700	-10	10	-10	-0	0	-0	250	-1.2	0.2	177	-1.2	-1	2555	0.07	3624	4337	9	56579	
30.4431	0.652129	-1.84318	196	69	2623	-665	-0.0179911	0.0636924	-0.111558	-0.0250922	0.0782028	-0.19744	0.621803	0.264425	-0.156818	-0.04915	0.0343752	-0.0492985	0	0	0	0	0	0	0.61116	0.255576	-0.141	0	0	0	-0.0556877	0.202206	-0.174059	-0.0671411	0.0980676	-0.160857	0.05232	-0.0409416	0.0222493	0.0962755	-0.160694	-0	0.286413	-0.134063	3.51342	0.031765	-0.021293	0	-2.73951	-0.391339	-1080	1080	-600	1700	-10	10	-10	-0	0	-0	250	-1.2	0.2	177	-1.2	-1	2555	0.07	3624	4337	9	56579	
30.4532	0.65236	-1.84329	196	69	2623	-665	-0.0178884	0.0638549	-0.11164	-0.0252728	0.0788473	-0.198567	0.621658	0.264402	-0.156708	-0.0492447	0.0342209	-0.0492149	0	0	0	0	0	0	0.61116	0.255576	-0.141	0	0	0	-0.0556877	0.202206	-0.174059	-0.0671331	0.0980757	-0.160855	0.0523338	-0.040944	0.0222585	0.0962668	-0.160692	-0	0.286415	-0.134064	3.51339	0.031765	-0.021293	0	-2.73945	-0.391388	-1080	1080	-600	1700	-10	10	-10	-0	0	-0	250	-1.2	0.2	177	-1.2	-1	2555	0.07	3624	4337	9	56579	
30.4632	0.652599	-1.84238	196	69	2623	-665	-0.0178192	0.0640737	-0.111634	-0.0254505	0.0794864	-0.199681	0.62151	0.264371	-0.157623	-0.049315	0.0340573	-0.0491866	0	0	0	0	0	0	0.61116	0.255576	-0.142	0	0	0	-0.0556877	0.202206	-0.174059	-0.0671342	0.098131	-0.160821	0.0523673	-0.0409601	0.0222754	0.096293	-0.160659	-0	0.286421	-0.134067	3.51324	0.031765	-0.021293	0	-2.73941	-0.391429	-1080	1080	-600	1700	-10	10	-10	-0	0	-0	250	-1.2	0.2	177	-1.2	-1	2555	0.07	3624	4337	9	56579	
30.4732	0.652828	-1.84246	196	70	2624	-665	-0.0176405	0.0641958	-0.111663	-0.0256275	0.0801304	-0.200801	0.621359	0.264367	-0.157535	-0.0494441	0.0339548	-0.049166	0	0	0	0	0	0	0.61116	0.255576	-0.142	0	0	0	-0.0557089	0.205214	-0.176618	-0.0670846	0.0981506	-0.160829	0.0523808	-0.0409655	0.0222862	0.096284	-0.160657	-0	0.285324	-0.134067	3.51322	0.0319395	-0.021293	0	-2.73933	-0.391503	-1080	1080	-600	1700	-10	10	-10	-0	0	-0	250	-1.2	0.2	177	-1.2	-1	2555	0.07	3624	4337	9	56579	
30.4831	0.653068	-1.84254	196	70	2624	-665	-0.0175329	0.0643799	-0.111645	-0.025801	0.0807676	-0.201906	0.621207	0.264345	-0.157462	-0.0495401	0.0338333	-0.0491515	0	0	0	0	0	0	0.61116	0.255576	-0.142	0	0	0	-0.0557089	0.205214	-0.176618	-0.0670731	0.0982131	-0.160796	0.0523958	-0.0409689	0.0222962	0.0962762	-0.160655	-0	0.286425	-0.135167	3.51316	0.031765	-0.0214675	0	-2.73927	-0.391557	-1080	1080	-600	1700	-10	10	-10	-0	0	-0	250	-1.2	0.2	177	-1.2	-1	2555	0.07	3624	4337	9	56579	
30.4931	0.653298	-1.84262	196	70	2624	-665	-0.0173524	0.064457	-0.111626	-0.0259746	0.0814125	-0.203023	0.621052	0.264347	-0.157384	-0.0497172	0.0337625	-0.0491681	0	0	0	0	0	0	0.61116	0.255576	-0.142	0	0	0	-0.0557089	0.205214	-0.176618	-0.0670696	0.0982195	-0.160794	0.0524093	-0.0409755	0.0223077	0.0962671	-0.160653	-0	0.286425	-0.135167	3.51316	0.031765	-0.0214675	0	-2.73918	-0.391642	-1080	1080	-600	1700	-10	10	-10	-0	0	-0	250	-1.2	0.2	177	-1.2	-1	2555	0.07	3624	4337	9	56579	
30.5031	0.653552	-1.84268	195	70	2623	-665	-0.0172063	0.0646195	-0.111564	-0.0261464	0.0820574	-0.204136	0.620889	0.264331	-0.15732	-0.0498694	0.0336501	-0.0491961	0	0	0	0	0	0	0.61116	0.255576	-0.142	0	0	0	-0.0527568	0.205136	-0.174059	-0.0670756	0.0982695	-0.160761	0.0524251	-0.0409803	0.022319	0.0962589	-0.16065	-0	0.287523	-0.136266	3.51316	0.0315905	-0.0216421	0	-2.7391	-0.39171	-1080	1080	-600	1700	-10	10	-10	-0	0	-0	250	-1.2	0.2	177	-1.2	-1	2555	0.07	3624	4337	9	56579	
30.5131	0.653768	-1.84274	195	70	2623	-666	-0.0170047	0.064646	-0.111507	-0.0263169	0.0827057	-0.205254	0.620737	0.264347	-0.157258	-0.0500538	0.0336407	-0.0492502	0	0	0	0	0	0	0.61116	0.255576	-0.142	0	0	0	-0.0527568	0.205136	-0.174059	-0.0670585	0.0982867	-0.160757	0.0524375	-0.040989	0.0223311	0.0962497	-0.160647	-0	0.28752	-0.136265	3.51322	0.0315905	-0.0216421	0	-2.73899	-0.391811	-1080	1080	-600	1700	-10	10	-10	-0	0	-0	250	-1.2	0.2	177	-1.2	-1	2555	0.07	3624	4337	9	56579	
30.5232	0.653941	-1.84281	195	70	2623	-666	-0.016852	0.0646819	-0.111501	-0.0264863	0.0833562	-0.206375	0.620641	0.264299	-0.157195	-0.0501917	0.03364	-0.0492405	0	0	0	0	0	0	0.61116	0.255576	-0.142	0	0	0	-0.0527568	0.205136	-0.174059	-0.0670436	0.0983219	-0.160742	0.0524493	-0.0409862	0.0223355	0.0962459	-0.160646	-0	0.288616	-0.136264	3.51327	0.0314159	-0.0216421	0	-2.739	-0.391802	-1080	1080	-600	1700	-10	10	-10	-0	0	-0	250	-1.2	0.2	177	-1.2	-1	2555	0.07	3624	4337	9	56579	
30.5332	0.65415	-1.84284	195	70	2623	-666	-0.0166894	0.06479	-0.111427	-0.0266541	0.0840076	-0.207496	0.620526	0.264238	-0.157157	-0.0503424	0.0335459	-0.0493109	0	0	0	0	0	0	0.61116	0.255576	-0.142	0	0	0	-0.0527568	0.205136	-0.174059	-0.0670318	0.098336	-0.160738	0.0524644	-0.040983	0.0223409	0.0962428	-0.160643	-0	0.288616	-0.136264	3.51326	0.0314159	-0.0216421	0	-2.73902	-0.391787	-1080	1080	-600	1700	-10	10	-10	-0	0	-0	250	-1.2	0.2	177	-1.2	-1	2555	0.07	3624	4337	9	56579	
