time ;e1;e2;ctrlpitch;ctrlroll;ctrlthrust;ctrlyaw;edx;edy;edz;cumulx;cumuly;cumulz;x;y;z;dxr;dyr;dzr;dxrT;dyrT;dzrT;dxrUn;dyrUn;dzrUn;x_pred;y_pred;z_pred;dx_pred;dy_pred;dz_pred;ux;uy;uz;dxd;dyd;dzd;Perpx;Tangx;Perpy;Tangy;Perpz;Tanz;ax;ay;az;err_sti_x;err_sti_y;err_sti_z;err_sti_dx;err_sti_dy;err_sti_dz;pitch;roll;yaw;yawd;eyaw;kpvx;kpvy;kpvz;kpyaw;kivx;kivy;kivz;kdvx;kdvy;kdvz;kdyaw;ktg;veld;pitchoff;ke1;ke2;gravity;thr_vel;gps_accuracy;height_accuracy;gps_sat_num;gps_status
22,387;1,12115;-2,255;50;39;1450;0;-0,138854;0,0361728;-0,218179;-0,00130148;0,000339047;-0,00204499;0,122232;0,169179;0,255;0,0303634;0,00555888;0,0554271;0;0;0;0;0;0;0,122232;0,169179;0,255;0,03;-0,01;0,055;0,205665;0,0631864;2,82845;-0,108491;0,0417316;-0,162752;-0,0803038;0,00374989;0,0035035;0,0859513;-0,16167;-0;0;-0;9,81;0;0;0;0;0;0;0,0125664;-0,00715585;0;-2,19646;-0,810573;-1080;1080;-600;1700;-10;10;-10;-0;0;-0;250;1,2;0,2;177;-1,2;-1;2555;0,07;2205;2986;8;56579;
22,3875;1,12115;-2,255;100;39;1500;0;-0,138892;0,0361889;-0,215173;-0,00137287;0,000357648;-0,00215559;0,122232;0,169179;0,255;0,0304011;0,00557119;0,0524284;0;0;0;0;0;0;0,122534;0,169079;0,255524;0,03;-0,01;0,052;0,129036;0,0653653;2,70047;-0,108491;0,04176;-0,162745;-0,0803038;0,00374989;0,0035035;0,0859513;-0,16167;-0;0,416738;-0,0472471;3,36456;0;0;0;0;0;0;0,0125664;-0,00733038;0;-2,19646;-0,810573;-1080;1080;-600;1700;-10;10;-10;-0;0;-0;250;1,2;0,2;177;-1,2;-1;2555;0,07;2205;2986;8;56579;
22,3976;1,12115;-2,255;150;39;1550;0;-0,138892;0,0361889;-0,215173;-0,00277373;0,000722649;-0,00432583;0,122232;0,169179;0,255;0,0304011;0,00557119;0,0524284;0;0;0;0;0;0;0,122815;0,168985;0,256011;0,0313328;-0,00959051;0,0703283;0,0467625;0,0675441;2,57249;-0,108491;0,04176;-0,162745;-0,0803038;0,00374989;0,0035035;0,0859513;-0,16167;-0;0,416459;-0,0472154;3,36889;0;0;0;0;0;-1,9442e-05;0,0125664;-0,00733038;0;-2,19646;-0,810573;-1080;1080;-600;1700;-10;10;-10;-0;0;-0;250;1,2;0,2;177;-1,2;-1;2555;0,07;2205;2986;8;56579;
22,4075;1,12115;-2,255;200;39;1600;0;-0,138979;0,0364054;-0,214087;-0,00415713;0,00108503;-0,00645685;0,122232;0,169179;0,255;0,0304316;0,00552475;0,0514237;0;0;0;0;0;0;0,122857;0,168989;0,256391;0,0335945;-0,00872456;0,106591;-0,04112;0,069723;2,4445;-0,108547;0,0419301;-0,162663;-0,0803038;0,00374989;0,0035035;0,0859513;-0,16167;-0;0,418706;-0,0539608;3,36883;-2,00937e-06;6,6979e-07;-3,48291e-06;0;0;-2,6094e-05;0,0122173;-0,00837758;0;-2,19646;-0,810573;-1080;1080;-600;1700;-10;10;-10;-0;0;-0;250;1,2;0,2;177;-1,2;-1;2555;0,07;2205;2986;8;56579;
22,4174;1,12115;-2,255;250;39;1650;0;-0,139004;0,0366012;-0,215031;-0,00553466;0,00144775;-0,00858781;0,122232;0,169179;0,255;0,0304285;0,00547068;0,0524231;0;0;0;0;0;0;0,122845;0,168989;0,256393;0,0320286;-0,00868023;0,10507;-0,134569;0,0719018;2,31652;-0,108576;0,0420719;-0,162608;-0,0803038;0,00374989;0,0035035;0,0859513;-0,16167;-0;0,419729;-0,0595675;3,37035;-5,89252e-06;1,96417e-06;-1,02137e-05;-8,87367e-06;-2,72625e-06;-0,000148118;0,0120428;-0,00925025;0;-2,19646;-0,810573;-1080;1080;-600;1700;-10;10;-10;-0;0;-0;250;1,2;0,2;177;-1,2;-1;2555;0,07;2205;2986;8;56579;
22,4274;1,12115;-2,255;300;39;1700;0;-0,139004;0,0366012;-0,215031;-0,00692484;0,0018138;-0,0107383;0,122232;0,169179;0,255;0,0304285;0,00547068;0,0524231;0;0;0;0;0;0;0,12285;0,168985;0,256421;0,0303557;-0,00859792;0,103946;-0,233538;0,0740806;2,18853;-0,108576;0,0420719;-0,162608;-0,0803038;0,00374989;0,0035035;0,0859513;-0,16167;-0;0,419821;-0,0595806;3,36894;-1,01744e-05;3,27166e-06;-1,97472e-05;-3,35009e-05;-1,14647e-05;-0,000522137;0,0120428;-0,00925025;0;-2,19646;-0,810573;-1080;1080;-600;1700;-10;10;-10;-0;0;-0;250;1,2;0,2;177;-1,2;-1;2555;0,07;2205;2986;8;56579;
22,4375;1,12115;-2,255;326;39;1750;0;-0,138797;0,0367021;-0,21912;-0,00832461;0,00218394;-0,0129482;0,122232;0,169179;0,255;0,030342;0,00541821;0,0564447;0;0;0;0;0;0;0,12311;0,168903;0,257391;0,0278301;-0,00789251;0,127834;-0,291159;0,0762595;2,06055;-0,108455;0,0421203;-0,162676;-0,0803038;0,00374989;0,0035035;0,0859513;-0,16167;-0;0,415337;-0,0607052;3,36889;-1,62982e-05;5,16906e-06;-3,36498e-05;-5,37532e-05;-2,46405e-05;-0,00101201;0,0127409;-0,00942478;0;-2,19646;-0,810573;-1080;1080;-600;1700;-10;10;-10;-0;0;-0;250;1,2;0,2;177;-1,2;-1;2555;0,07;2205;2986;8;56579;
22,4475;1,01709;-2,241;276;89;1800;0;-0,0690536;0,0886953;-0,222837;-0,00901535;0,00307115;-0,0151772;0,11112;0,170398;0,241;-0,0345954;-0,0424401;0,0581635;0;0;0;0;0;0;0,10952;0,169832;0,243357;-0,0550895;-0,0178448;0,126763;-0,19906;0,178964;1,93256;-0,103649;0,0462552;-0,164673;-0,0742238;0,0038371;0,00325224;0,0875717;-0,163697;-0;0,412351;-0,0585108;3,36294;-0,000133072;1,92345e-05;-0,000187168;-0,000853694;-0,000138148;-0,00145945;0,0132645;-0,00907571;0;-2,14866;-0,837631;-1080;1080;-600;1700;-10;10;-10;-0;0;-0;250;1,2;0,2;177;-1,2;-1;2555;0,07;2205;2988;8;56579;
22,4574;1,01709;-2,241;251;95;1850;0;-0,0690536;0,0886953;-0,222837;-0,00969822;0,00394826;-0,0173808;0,11112;0,170398;0,241;-0,0345954;-0,0424401;0,0581635;0;0;0;0;0;0;0,109424;0,169837;0,243251;-0,0577445;-0,017782;0,123153;-0,152947;0,196328;1,80458;-0,103649;0,0462552;-0,164673;-0,0742238;0,0038371;0,00325224;0,0875717;-0,163697;-0;0,412697;-0,0585599;3,35754;-0,000252956;3,41783e-05;-0,000351059;-0,00163189;-0,000259207;-0,0021477;0,0132645;-0,00907571;0;-2,14866;-0,837631;-1080;1080;-600;1700;-10;10;-10;-0;0;-0;250;1,2;0,2;177;-1,2;-1;2555;0,07;2205;2988;8;56579;
22,4675;1,01709;-2,241;251;95;1900;0;-0,0690225;0,0884589;-0,223939;-0,0103924;0,00483789;-0,019633;0,11112;0,170398;0,241;-0,0346002;-0,0424211;0,0591885;0;0;0;0;0;0;0,109409;0,169839;0,24324;-0,057995;-0,0167034;0,120434;-0,15708;0,201635;1,67659;-0,103623;0,0460379;-0,164751;-0,0742238;0,0038371;0,00325224;0,0875717;-0,163697;-0;0,410452;-0,0529297;3,35749;-0,000236911;3,98582e-05;-0,0003747;-0,00158085;-0,000280823;-0,00281731;0,0136136;-0,00820305;0;-2,14866;-0,837631;-1080;1080;-600;1700;-10;10;-10;-0;0;-0;250;1,2;0,2;177;-1,2;-1;2555;0,07;2205;2988;8;56579;
22,4776;1,01709;-2,241;251;95;1950;0;-0,0689794;0,0880893;-0,2231;-0,0110887;0,00572707;-0,021885;0,11112;0,170398;0,241;-0,034588;-0,042355;0,0582299;0;0;0;0;0;0;0,109452;0,169875;0,243149;-0,0556568;-0,014492;0,115308;-0,161214;0,206941;1,54861;-0,103567;0,0457343;-0,16487;-0,0742238;0,0038371;0,00325224;0,0875717;-0,163697;-0;0,407184;-0,0439317;3,35585;-0,000219961;4,546e-05;-0,000397189;-0,00150346;-0,000302986;-0,00345834;0,0141372;-0,00680678;0;-2,14866;-0,837631;-1080;1080;-600;1700;-10;10;-10;-0;0;-0;250;1,2;0,2;177;-1,2;-1;2555;0,07;2205;2988;8;56579;
22,4875;1,01709;-2,241;251;95;2000;0;-0,0689794;0,0880893;-0,2231;-0,0117743;0,00660267;-0,0241026;0,11112;0,170398;0,241;-0,034588;-0,042355;0,0582299;0;0;0;0;0;0;0,109475;0,169883;0,243097;-0,0547642;-0,0141008;0,111361;-0,165348;0,212247;1,42063;-0,103567;0,0457343;-0,16487;-0,0742238;0,0038371;0,00325224;0,0875717;-0,163697;-0;0,407111;-0,0439238;3,357;-0,000202882;5,10389e-05;-0,00041955;-0,00142365;-0,000335896;-0,00407164;0,0141372;-0,00680678;0;-2,14866;-0,837631;-1080;1080;-600;1700;-10;10;-10;-0;0;-0;250;1,2;0,2;177;-1,2;-1;2555;0,07;2205;2988;8;56579;
22,4976;1,01709;-2,241;251;94;2050;0;-0,0688965;0,0878404;-0,218236;-0,0124678;0,00748688;-0,0262993;0,11112;0,170398;0,241;-0,0345367;-0,042313;0,0532243;0;0;0;0;0;0;0,109478;0,169886;0,242906;-0,0548968;-0,0139289;0,102615;-0,169481;0,215264;1,29264;-0,103433;0,0455274;-0,165012;-0,0742238;0,0038371;0,00325224;0,0875717;-0,163697;-0;0,40037;-0,0394192;3,35695;-0,000186175;5,62779e-05;-0,000441067;-0,001367;-0,000391049;-0,00468554;0,0151844;-0,00610865;0;-2,14866;-0,837631;-1080;1080;-600;1700;-10;10;-10;-0;0;-0;250;1,2;0,2;177;-1,2;-1;2555;0,07;2205;2988;8;56579;
22,5075;1,01709;-2,241;251;94;2100;0;-0,0688925;0,0876544;-0,212329;-0,0131535;0,0083593;-0,0284127;0,11112;0,170398;0,241;-0,034443;-0,042295;0,0472103;0;0;0;0;0;0;0,109482;0,169889;0,242681;-0,0550245;-0,0137647;0,0927834;-0,173615;0,220515;1,16466;-0,103335;0,0453594;-0,165119;-0,0742238;0,0038371;0,00325224;0,0875717;-0,163697;-0;0,394325;-0,0371267;3,3639;-0,000169679;6,14411e-05;-0,000462099;-0,00131922;-0,00045022;-0,00532106;0,016057;-0,00575959;0;-2,14866;-0,837631;-1080;1080;-600;1700;-10;10;-10;-0;0;-0;250;1,2;0,2;177;-1,2;-1;2555;0,07;2205;2988;8;56579;
22,5175;1,01709;-2,241;251;94;2150;0;-0,0688925;0,0876544;-0,212329;-0,0138384;0,00923076;-0,0305236;0,11112;0,170398;0,241;-0,034443;-0,042295;0,0472103;0;0;0;0;0;0;0,109488;0,169893;0,242633;-0,0551455;-0,0136322;0,0888898;-0,177749;0,225765;1,03667;-0,103335;0,0453594;-0,165119;-0,0742238;0,0038371;0,00325224;0,0875717;-0,163697;-0;0,393807;-0,037078;3,37235;-0,000153201;6,65783e-05;-0,000481222;-0,00127008;-0,000511134;-0,00586903;0,016057;-0,00575959;0;-2,14866;-0,837631;-1080;1080;-600;1700;-10;10;-10;-0;0;-0;250;1,2;0,2;177;-1,2;-1;2555;0,07;2205;2988;8;56579;
22,5274;1,01709;-2,241;251;94;2200;0;-0,0690079;0,0873627;-0,20444;-0,0145274;0,010103;-0,0325648;0,11112;0,170398;0,241;-0,0342683;-0,0422928;0,0392046;0;0;0;0;0;0;0,109503;0,169899;0,242336;-0,0552408;-0,0135558;0,0768085;-0,181883;0,231015;0,908689;-0,103276;0,0450698;-0,165235;-0,0742238;0,0038371;0,00325224;0,0875717;-0,163697;-0;0,388203;-0,0337076;3,3723;-0,000136843;7,16577e-05;-0,000498006;-0,00121991;-0,000573401;-0,00639614;0,0169297;-0,00523599;0;-2,14866;-0,837631;-1080;1080;-600;1700;-10;10;-10;-0;0;-0;250;1,2;0,2;177;-1,2;-1;2555;0,07;2205;2988;8;56579;
22,5375;1,01709;-2,241;251;94;2250;0;-0,0690079;0,0873627;-0,20444;-0,0152244;0,0109854;-0,0346296;0,11112;0,170398;0,241;-0,0342683;-0,0422928;0,0392046;0;0;0;0;0;0;0,10951;0,169903;0,24229;-0,0553598;-0,0134044;0,0729277;-0,186016;0,236266;0,780705;-0,103276;0,0450698;-0,165235;-0,0742238;0,0038371;0,00325224;0,0875717;-0,163697;-0;0,387521;-0,0336483;3,38361;-0,000120549;7,66973e-05;-0,000514317;-0,00116852;-0,000636997;-0,00688441;0,0169297;-0,00523599;0;-2,14866;-0,837631;-1080;1080;-600;1700;-10;10;-10;-0;0;-0;250;1,2;0,2;177;-1,2;-1;2555;0,07;2205;2988;8;56579;
22,5475;1,01709;-2,241;251;94;2300;0;-0,0692694;0,0869929;-0,193555;-0,0159174;0,0118557;-0,0365661;0,11112;0,170398;0,241;-0,0339989;-0,0422974;0,0282135;0;0;0;0;0;0;0,109521;0,169908;0,241911;-0,0554638;-0,0132722;0,057964;-0,19015;0,241516;0,65272;-0,103268;0,0446955;-0,165342;-0,0742238;0,0038371;0,00325224;0,0875717;-0,163697;-0;0,383046;-0,0291622;3,38356;-0,000104443;8,16666e-05;-0,000527624;-0,00111632;-0,000701179;-0,00736056;0,0176278;-0,00453786;0;-2,14866;-0,837631;-1080;1080;-600;1700;-10;10;-10;-0;0;-0;250;1,2;0,2;177;-1,2;-1;2555;0,07;2205;2988;8;56579;
22,5575;1,01709;-2,241;252;93;2350;0;-0,0696329;0,0867253;-0,186577;-0,016611;0,0127195;-0,0384244;0,11112;0,170398;0,241;-0,0337577;-0,0423553;0,0212237;0;0;0;0;0;0;0,10952;0,16991;0,241663;-0,0556088;-0,0130877;0,0472163;-0,196908;0,244143;0,524736;-0,103391;0,04437;-0,165353;-0,0742238;0,0038371;0,00325224;0,0875717;-0,163697;-0;0,382114;-0,0279724;3,39919;-8,83264e-05;8,66198e-05;-0,000540533;-0,00106268;-0,000767192;-0,00787028;0,0176278;-0,00436332;0;-2,14866;-0,837631;-1080;1080;-600;1700;-10;10;-10;-0;0;-0;250;1,2;0,2;177;-1,2;-1;2555;0,07;2205;2988;8;56579;
22,5674;1,01709;-2,241;252;93;2400;0;-0,0696329;0,0867253;-0,186577;-0,017301;0,0135789;-0,0402732;0,11112;0,170398;0,241;-0,0337577;-0,0423553;0,0212237;0;0;0;0;0;0;0,109523;0,169913;0,241623;-0,0557393;-0,0129218;0,0433839;-0,201098;0,249337;0,396751;-0,103391;0,04437;-0,165353;-0,0742238;0,0038371;0,00325224;0,0875717;-0,163697;-0;0,381518;-0,0279287;3,40919;-7,22883e-05;9,153e-05;-0,000549672;-0,00100788;-0,000834669;-0,00823099;0,0176278;-0,00436332;0;-2,14866;-0,837631;-1080;1080;-600;1700;-10;10;-10;-0;0;-0;250;1,2;0,2;177;-1,2;-1;2555;0,07;2205;2988;8;56579;
22,5775;1,01709;-2,241;252;93;2450;0;-0,0701494;0,0864593;-0,178543;-0,0180092;0,0144518;-0,0420758;0,11112;0,170398;0,241;-0,0334444;-0,0424587;0,0132184;0;0;0;0;0;0;0,109531;0,169918;0,241339;-0,0558798;-0,0128029;0,031485;-0,205287;0,254532;0,268767;-0,103594;0,0440006;-0,165325;-0,0742238;0,0038371;0,00325224;0,0875717;-0,163697;-0;0,382636;-0,0301632;3,40915;-5,62524e-05;9,64184e-05;-0,00055632;-0,00095167;-0,000903942;-0,00856387;0,0174533;-0,00471239;0;-2,14866;-0,837631;-1080;1080;-600;1700;-10;10;-10;-0;0;-0;250;1,2;0,2;177;-1,2;-1;2555;0,07;2205;2988;8;56579;
22,5874;1,01709;-2,241;253;93;2500;0;-0,0706672;0,0860036;-0,16861;-0,0187108;0,0153056;-0,0437498;0,11112;0,170398;0,241;-0,0330852;-0,0425544;0,00323912;0;0;0;0;0;0;0,109548;0,169924;0,240994;-0,0560136;-0,0127522;0,0175059;-0,212269;0,259726;0,140783;-0,103752;0,0434492;-0,165371;-0,0742238;0,0038371;0,00325224;0,0875717;-0,163697;-0;0,380834;-0,0267635;3,42067;-4,03522e-05;0,000101245;-0,000562521;-0,000894518;-0,000974427;-0,00895606;0,0176278;-0,00418879;0;-2,14866;-0,837631;-1080;1080;-600;1700;-10;10;-10;-0;0;-0;250;1,2;0,2;177;-1,2;-1;2555;0,07;2205;2988;8;56579;
22,5974;1,01709;-2,241;253;93;2550;0;-0,0706672;0,0860036;-0,16861;-0,0194149;0,0161625;-0,0454298;0,11112;0,170398;0,241;-0,0330852;-0,0425544;0,00323912;0;0;0;0;0;0;0,109549;0,169926;0,240956;-0,0561513;-0,0125814;0,0136872;-0,216514;0,264921;0,0127984;-0,103752;0,0434492;-0,165371;-0,0742238;0,0038371;0,00325224;0,0875717;-0,163697;-0;0,379984;-0,0267037;3,43493;-2,4484e-05;0,000106043;-0,000565911;-0,000835789;-0,00104631;-0,00923059;0,0176278;-0,00418879;0;-2,14866;-0,837631;-1080;1080;-600;1700;-10;10;-10;-0;0;-0;250;1,2;0,2;177;-1,2;-1;2555;0,07;2205;2988;8;56579;
22,6075;1,01709;-2,241;253;92;2600;0;-0,0710672;0,0853094;-0,156879;-0,0201345;0,0170264;-0,0470183;0,11112;0,170398;0,241;-0,0326117;-0,0427056;-0,00875838;0;0;0;0;0;0;0,109558;0,169931;0,240558;-0,0562921;-0,0124411;-0,00218049;-0,22076;0,267212;-0,115186;-0,103679;0,0426038;-0,165637;-0,0742238;0,0038371;0,00325224;0,0875717;-0,163697;-0;0,367768;-0,0178026;3,43489;-8,79459e-06;0,000110774;-0,000565855;-0,000775787;-0,00111863;-0,00948508;0,0195477;-0,00279253;0;-2,14866;-0,837631;-1080;1080;-600;1700;-10;10;-10;-0;0;-0;250;1,2;0,2;177;-1,2;-1;2555;0,07;2205;2988;8;56579;
22,6175;1,01377;-2,255;294;54;2636;0;-0,108697;0,0505909;-0,134384;-0,0212143;0,017529;-0,0483533;0,11112;0,178336;0,255;0,00584466;-0,00850308;-0,0318989;0;0;0;0;0;0;0,11106;0,178212;0,25387;-0,0064294;-0,00226869;-0,0300517;-0,344473;0,159042;-0,207335;-0,102853;0,0420879;-0,166283;-0,0736988;0,00400053;0,00337968;0,0872373;-0,164106;-0;0,3535;-0,0133167;3,45174;6,90593e-06;0,000194841;-0,000425467;-0,000214499;-0,00109283;-0,00994177;0,0216421;-0,0020944;0;-2,12802;-0,848725;-1080;1080;-600;1700;-10;10;-10;-0;0;-0;250;1,2;0,2;177;-1,2;-1;2555;0,07;2206;2989;8;56579;
22,6275;1,01377;-2,255;294;54;2636;0;-0,108697;0,0505909;-0,134384;-0,022305;0,0180366;-0,0497017;0,11112;0,178336;0,255;0,00584466;-0,00850308;-0,0318989;0;0;0;0;0;0;0,111066;0,178255;0,253903;-0,00650692;-0,00213152;-0,0339204;-0,344473;0,159042;-0,207335;-0,102853;0,0420879;-0,166283;-0,0736988;0,00400053;0,00337968;0,0872373;-0,164106;-0;0,351701;-0,0132489;3,4841;2,25389e-05;0,000278948;-0,000280959;0,00034876;-0,0010684;-0,0102401;0,0216421;-0,0020944;0;-2,12802;-0,848725;-1080;1080;-600;1700;-10;10;-10;-0;0;-0;250;1,2;0,2;177;-1,2;-1;2555;0,07;2206;2989;8;56579;
22,6376;1,01377;-2,255;295;54;2622;0;-0,109381;0,0498409;-0,111523;-0,0234059;0,0185382;-0,0508242;0,11112;0,178336;0,255;0,00646465;-0,00841191;-0,0548858;0;0;0;0;0;0;0,111065;0,178256;0,253179;-0,00782489;-0,00317436;-0,0604295;-0,345569;0,158197;-0,171499;-0,102917;0,041429;-0,166409;-0,0736988;0,00400053;0,00337968;0,0872373;-0,164106;-0;0,343986;-0,0143531;3,48407;2,31411e-05;0,000280195;-0,000269649;0,000413106;-0,00114578;-0,0104898;0,0228638;-0,00226893;0;-2,12802;-0,848725;-1080;1080;-600;1700;-10;10;-10;-0;0;-0;250;1,2;0,2;177;-1,2;-1;2555;0,07;2206;2989;8;56579;
22,6475;1,01377;-2,255;296;53;2603;0;-0,110343;0,0489823;-0,080668;-0,0245064;0,0190267;-0,0516287;0,11112;0,178336;0,255;0,00728682;-0,00839863;-0,0858625;0;0;0;0;0;0;0,111028;0,178224;0,25222;-0,0103187;-0,00533627;-0,0933408;-0,34597;0,154143;-0,122865;-0,103056;0,0405836;-0,166531;-0,0736988;0,00400053;0,00337968;0,0872373;-0,164106;-0;0,337811;-0,0076884;3,51696;2,36805e-05;0,000281009;-0,000258642;0,000478379;-0,00122471;-0,0110123;0,0235619;-0,00122173;0;-2,12802;-0,848725;-1080;1080;-600;1700;-10;10;-10;-0;0;-0;250;1,2;0,2;177;-1,2;-1;2555;0,07;2206;2989;8;56579;
22,6575;1,01377;-2,255;296;53;2603;0;-0,110343;0,0489823;-0,080668;-0,0256016;0,0195129;-0,0524294;0,11112;0,178336;0,255;0,00728682;-0,00839863;-0,0858625;0;0;0;0;0;0;0,111029;0,178225;0,252235;-0,0103008;-0,00536126;-0,092995;-0,34597;0,154143;-0,122865;-0,103056;0,0405836;-0,166531;-0,0736988;0,00400053;0,00337968;0,0872373;-0,164106;-0;0,335427;-0,00763415;3,56136;2,42287e-05;0,000281808;-0,000240415;0,000556714;-0,00129304;-0,0112682;0,0235619;-0,00122173;0;-2,12802;-0,848725;-1080;1080;-600;1700;-10;10;-10;-0;0;-0;250;1,2;0,2;177;-1,2;-1;2555;0,07;2206;2989;8;56579;
22,6675;1,01377;-2,255;297;52;2577;0;-0,111708;0,0479883;-0,0360001;-0,0267265;0,0199962;-0,0527919;0,11112;0,178336;0,255;0,00868762;-0,0085076;-0,130817;0;0;0;0;0;0;0,111028;0,178225;0,250903;-0,01033;-0,00541732;-0,136834;-0,34539;0,149724;-0,0563131;-0,103021;0,0394807;-0,166817;-0,0736988;0,00400053;0,00337968;0,0872373;-0,164106;-0;0,322359;0,00218119;3,56134;2,51524e-05;0,000282935;-0,000212548;0,000660149;-0,00133979;-0,0116457;0,0256563;0,000349066;0;-2,12802;-0,848725;-1080;1080;-600;1700;-10;10;-10;-0;0;-0;250;1,2;0,2;177;-1,2;-1;2555;0,07;2206;2989;8;56579;
22,6775;1,01377;-2,255;299;51;2555;0;-0,113;0,0471951;0,000617563;-0,0278585;0,0204689;-0,0527857;0,11112;0,178336;0,255;0,0101365;-0,0087164;-0,167766;0;0;0;0;0;0;0,111029;0,178225;0,249837;-0,0102903;-0,00551987;-0,172921;-0,348143;0,145592;0;-0,102864;0,0384787;-0,167148;-0,0736988;0,00400053;0,00337968;0,0872373;-0,164106;-0;0,302872;0,0107937;3,62565;2,60659e-05;0,00028405;-0,000184927;0,000763034;-0,00138612;-0,0123949;0,0282743;0,00174533;0;-2,12802;-0,848725;-1080;1080;-600;1700;-10;10;-10;-0;0;-0;250;1,2;0,2;177;-1,2;-1;2555;0,07;2206;2989;8;56579;
22,6875;1,01377;-2,255;299;51;2555;0;-0,113;0,0471951;0,000617563;-0,0289866;0,0209401;-0,0527796;0,11112;0,178336;0,255;0,0101365;-0,0087164;-0,167766;0;0;0;0;0;0;0,11103;0,178225;0,249856;-0,0102759;-0,00556782;-0,172288;-0,348143;0,145592;0;-0,102864;0,0384787;-0,167148;-0,0736988;0,00400053;0,00337968;0,0872373;-0,164106;-0;0,30029;0,0107017;3,67837;2,69808e-05;0,000285165;-0,000143996;0,000866226;-0,0014319;-0,0127062;0,0282743;0,00174533;0;-2,12802;-0,848725;-1080;1080;-600;1700;-10;10;-10;-0;0;-0;250;1,2;0,2;177;-1,2;-1;2555;0,07;2206;2989;8;56579;
22,6976;1,01377;-2,255;301;50;2524;0;-0,115007;0,0462421;0,0512852;-0,0301402;0,0214039;-0,0522651;0,11112;0,178336;0,255;0,0121552;-0,00894407;-0,218708;0;0;0;0;0;0;0,11103;0,178224;0,248364;-0,0102968;-0,00569534;-0,221443;-0,349551;0,141006;0,0793503;-0,102851;0,037298;-0,167423;-0,0736988;0,00400053;0,00337968;0,0872373;-0,164106;-0;0,286393;0,0160525;3,67837;2,78863e-05;0,00028628;-9,23416e-05;0,000969174;-0,00147672;-0,0131672;0,0305433;0,00261799;0;-2,12802;-0,848725;-1080;1080;-600;1700;-10;10;-10;-0;0;-0;250;1,2;0,2;177;-1,2;-1;2555;0,07;2206;2989;8;56579;
22,7074;1,01377;-2,255;301;50;2524;0;-0,115007;0,0462421;0,0512852;-0,0312712;0,0218587;-0,0517608;0,11112;0,178336;0,255;0,0121552;-0,00894407;-0,218708;0;0;0;0;0;0;0,111029;0,178223;0,248394;-0,0103614;-0,00577416;-0,220364;-0,349551;0,141006;0,0793503;-0,102851;0,037298;-0,167423;-0,0736988;0,00400053;0,00337968;0,0872373;-0,164106;-0;0,282985;0,0158615;3,75134;2,87893e-05;0,000287392;-4,07858e-05;0,00107217;-0,00152114;-0,0136354;0,0305433;0,00261799;0;-2,12802;-0,848725;-1080;1080;-600;1700;-10;10;-10;-0;0;-0;250;1,2;0,2;177;-1,2;-1;2555;0,07;2206;2989;8;56579;
22,7174;1,01377;-2,255;304;49;2485;0;-0,117524;0,0454404;0,116102;-0,032445;0,0223125;-0,0506012;0,11112;0,178336;0,255;0,0145581;-0,00906703;-0,283658;0;0;0;0;0;0;0,11103;0,178224;0,246484;-0,0103517;-0,00583006;-0,284632;-0,352468;0,136051;0,179178;-0,102966;0,0363734;-0,167556;-0,0736988;0,00400053;0,00337968;0,0872373;-0,164106;-0;0,275591;0,0158615;3,75135;2,96878e-05;0,000288514;2,5642e-05;0,00117525;-0,00156424;-0,0142616;0,031765;0,00261799;0;-2,12802;-0,848725;-1080;1080;-600;1700;-10;10;-10;-0;0;-0;250;1,2;0,2;177;-1,2;-1;2555;0,07;2206;2989;8;56579;
22,7274;1,01377;-2,255;307;48;2449;0;-0,12008;0,0443908;0,175937;-0,0336494;0,0227578;-0,0488365;0,11112;0,178336;0,255;0,0169646;-0,0089895;-0,343609;0;0;0;0;0;0;0,111031;0,178225;0,244802;-0,0103056;-0,00595189;-0,343181;-0,355559;0,131344;0,271327;-0,103115;0,0354013;-0,167672;-0,0736988;0,00400053;0,00337968;0,0872373;-0,164106;-0;0,264064;0,0124937;3,8447;3,05886e-05;0,000289639;9,13646e-05;0,00127834;-0,00160628;-0,0154917;0,0329867;0,0020944;0;-2,12802;-0,848725;-1080;1080;-600;1700;-10;10;-10;-0;0;-0;250;1,2;0,2;177;-1,2;-1;2555;0,07;2206;2989;8;56579;
22,7379;1,01377;-2,255;307;48;2449;0;-0,12008;0,0443908;0,175937;-0,0349078;0,023223;-0,0469927;0,11112;0,178336;0,255;0,0169646;-0,0089895;-0,343609;0;0;0;0;0;0;0,111032;0,178225;0,244842;-0,010326;-0,00600464;-0,342246;-0,355559;0,131344;0,271327;-0,103115;0,0354013;-0,167672;-0,0736988;0,00400053;0,00337968;0,0872373;-0,164106;-0;0,260248;0,0123132;3,9309;3,14824e-05;0,000290756;0,000176107;0,00138135;-0,00164778;-0,0160825;0,0329867;0,0020944;0;-2,12802;-0,848725;-1080;1080;-600;1700;-10;10;-10;-0;0;-0;250;1,2;0,2;177;-1,2;-1;2555;0,07;2206;2989;8;56579;
22,7475;1,01377;-2,255;309;47;2427;0;-0,121948;0,043461;0,212755;-0,0360851;0,0236426;-0,0449388;0,11112;0,178336;0,255;0,018664;-0,00921082;-0,380563;0;0;0;0;0;0;0,111031;0,178224;0,243818;-0,0104042;-0,00615425;-0,37638;-0,35778;0,127453;0,32764;-0,103284;0,0342502;-0,167808;-0,0736988;0,00400053;0,00337968;0,0872373;-0,164106;-0;0,254095;0,0153913;3,93094;3,23631e-05;0,000291869;0,000277589;0,00148389;-0,00168806;-0,0164588;0,0340339;0,00261799;0;-2,12802;-0,848725;-1080;1080;-600;1700;-10;10;-10;-0;0;-0;250;1,2;0,2;177;-1,2;-1;2555;0,07;2206;2989;8;56579;
22,7575;1,01377;-2,255;312;46;2388;0;-0,124782;0,0427589;0,277574;-0,0373307;0,0240694;-0,042168;0,11112;0,178336;0,255;0,0212696;-0,00978922;-0,445497;0;0;0;0;0;0;0,111026;0,178219;0,241672;-0,0106849;-0,00616714;-0,439476;-0,360022;0,122737;0,427468;-0,103512;0,0329697;-0,167923;-0,0736988;0,00400053;0,00337968;0,0872373;-0,164106;-0;0,247739;0,0213534;3,984;3,32587e-05;0,000293;0,000380853;0,00158887;-0,00172867;-0,0175136;0,0347321;0,00366519;0;-2,12802;-0,848725;-1080;1080;-600;1700;-10;10;-10;-0;0;-0;250;1,2;0,2;177;-1,2;-1;2555;0,07;2206;2989;8;56579;
22,7675;1,01377;-2,255;312;46;2388;0;-0,124782;0,0427589;0,277574;-0,0385723;0,0244948;-0,0394062;0,11112;0,178336;0,255;0,0212696;-0,00978922;-0,445497;0;0;0;0;0;0;0,111029;0,178222;0,241876;-0,0105781;-0,006254;-0,439071;-0,360022;0,122737;0,427468;-0,103512;0,0329697;-0,167923;-0,0736988;0,00400053;0,00337968;0,0872373;-0,164106;-0;0,243767;0,021011;4,0774;3,41487e-05;0,000294128;0,00049328;0,00169348;-0,00176734;-0,0182136;0,0347321;0,00366519;0;-2,12802;-0,848725;-1080;1080;-600;1700;-10;10;-10;-0;0;-0;250;1,2;0,2;177;-1,2;-1;2555;0,07;2206;2989;8;56579;
22,7775;1,01377;-2,255;314;45;2363;0;-0,127083;0,0421962;0,320324;-0,0398464;0,0249179;-0,0361946;0,11112;0,178336;0,255;0,0234418;-0,0105696;-0,488426;0;0;0;0;0;0;0,111029;0,178221;0,240686;-0,0106173;-0,00638956;-0,480002;-0,361524;0,118812;0,49146;-0,103641;0,0316266;-0,168102;-0,0736988;0,00400053;0,00337968;0,0872373;-0,164106;-0;0,236767;0,0290149;4,07746;3,50885e-05;0,00029531;0,000627071;0,00180074;-0,00180582;-0,0187107;0,0359538;0,00506145;0;-2,12802;-0,848725;-1080;1080;-600;1700;-10;10;-10;-0;0;-0;250;1,2;0,2;177;-1,2;-1;2555;0,07;2206;2989;8;56579;
22,7875;1,01377;-2,255;317;44;2341;0;-0,129399;0,0413998;0,357059;-0,0411427;0,0253326;-0,0326176;0,11112;0,178336;0,255;0,0256829;-0,0110604;-0,525351;0;0;0;0;0;0;0,111033;0,178224;0,239941;-0,0104611;-0,00655298;-0,51531;-0,365992;0,115091;0,547773;-0,103716;0,0303394;-0,168293;-0,0736988;0,00400053;0,00337968;0,0872373;-0,164106;-0;0,225321;0,0326619;4,13909;3,59836e-05;0,000296441;0,000756502;0,00190506;-0,00184276;-0,019568;0,0375246;0,00575959;0;-2,12802;-0,848725;-1080;1080;-600;1700;-10;10;-10;-0;0;-0;250;1,2;0,2;177;-1,2;-1;2555;0,07;2206;2989;8;56579;
22,7976;1,01377;-2,255;317;44;2341;0;-0,129399;0,0413998;0,357059;-0,0424443;0,0257491;-0,0290259;0,11112;0,178336;0,255;0,0256829;-0,0110604;-0,525351;0;0;0;0;0;0;0,111031;0,178222;0,23982;-0,0105994;-0,00655012;-0,514558;-0,365992;0,115091;0,547773;-0,103716;0,0303394;-0,168293;-0,0736988;0,00400053;0,00337968;0,0872373;-0,164106;-0;0,223216;0,0323568;4,19207;3,68885e-05;0,00029759;0,000899443;0,00201109;-0,00187881;-0,0200274;0,0375246;0,00575959;0;-2,12802;-0,848725;-1080;1080;-600;1700;-10;10;-10;-0;0;-0;250;1,2;0,2;177;-1,2;-1;2555;0,07;2206;2989;8;56579;
22,8076;1,01377;-2,255;319;43;2324;0;-0,1312;0,0402654;0,383908;-0,0437527;0,0261506;-0,0251976;0,11112;0,178336;0,255;0,0273539;-0,0109632;-0,552305;0;0;0;0;0;0;0,11103;0,178221;0,239086;-0,0106767;-0,00666489;-0,539737;-0,368518;0,111658;0,591288;-0,103846;0,0293022;-0,168396;-0,0736988;0,00400053;0,00337968;0,0872373;-0,164106;-0;0,217334;0,0303953;4,19216;3,77589e-05;0,000298708;0,00105001;0,00211568;-0,00191328;-0,0204042;0,0385718;0,00541052;0;-2,12802;-0,848725;-1080;1080;-600;1700;-10;10;-10;-0;0;-0;250;1,2;0,2;177;-1,2;-1;2555;0,07;2206;2989;8;56579;
22,8174;1,01377;-2,255;321;41;2304;0;-0,133593;0,038616;0,417711;-0,0450728;0,0265322;-0,0210698;0,11112;0,178336;0,255;0,029676;-0,0103616;-0,586243;0;0;0;0;0;0;0,111029;0,17822;0,238096;-0,0107952;-0,00673022;-0,572624;-0,370485;0,105549;0,642481;-0,103917;0,0282544;-0,168532;-0,0736988;0,00400053;0,00337968;0,0872373;-0,164106;-0;0,207078;0,0233696;4,23091;3,86545e-05;0,000299852;0,00120233;0,00222204;-0,0019479;-0,0211311;0,0401426;0,00418879;0;-2,12802;-0,848725;-1080;1080;-600;1700;-10;10;-10;-0;0;-0;250;1,2;0,2;177;-1,2;-1;2555;0,07;2206;2989;8;56579;
22,8274;1,01377;-2,255;321;41;2304;0;-0,133593;0,038616;0,417711;-0,0464108;0,0269189;-0,0168864;0,11112;0,178336;0,255;0,029676;-0,0103616;-0,586243;0;0;0;0;0;0;0,11103;0,178221;0,238207;-0,0107901;-0,00677415;-0,572265;-0,370485;0,105549;0,642481;-0,103917;0,0282544;-0,168532;-0,0736988;0,00400053;0,00337968;0,0872373;-0,164106;-0;0,205267;0,0231653;4,27968;3,95513e-05;0,000301004;0,00136173;0,00232898;-0,0019813;-0,0216045;0,0401426;0,00418879;0;-2,12802;-0,848725;-1080;1080;-600;1700;-10;10;-10;-0;0;-0;250;1,2;0,2;177;-1,2;-1;2555;0,07;2206;2989;8;56579;
22,8374;1,01377;-2,255;324;40;2292;0;-0,135762;0,0371892;0,437404;-0,0477598;0,0272885;-0,0125399;0,11112;0,178336;0,255;0,0319351;-0,00995831;-0,60616;0;0;0;0;0;0;0,11103;0,178222;0,237784;-0,0107994;-0,00692227;-0,590997;-0,376224;0,102439;0,673198;-0,103827;0,0272309;-0,168756;-0,0736988;0,00400053;0,00337968;0,0872373;-0,164106;-0;0,192724;0,0193041;4,27978;4,04609e-05;0,000302164;0,00153028;0,00243662;-0,0020139;-0,0219473;0,0424115;0,00349066;0;-2,12802;-0,848725;-1080;1080;-600;1700;-10;10;-10;-0;0;-0;250;1,2;0,2;177;-1,2;-1;2555;0,07;2206;2989;8;56579;
22,8474;1,01377;-2,255;324;40;2292;0;-0,135762;0,0371892;0,437404;-0,0491207;0,0276613;-0,00815536;0,11112;0,178336;0,255;0,0319351;-0,00995831;-0,60616;0;0;0;0;0;0;0,111031;0,178221;0,237909;-0,0108116;-0,00705195;-0,590039;-0,376224;0,102439;0,673198;-0,103827;0,0272309;-0,168756;-0,0736988;0,00400053;0,00337968;0,0872373;-0,164106;-0;0,191732;0,0192047;4,30823;4,13608e-05;0,000303312;0,00169748;0,00254405;-0,00204602;-0,0222931;0,0424115;0,00349066;0;-2,12802;-0,848725;-1080;1080;-600;1700;-10;10;-10;-0;0;-0;250;1,2;0,2;177;-1,2;-1;2555;0,07;2206;2989;8;56579;
22,8575;1,21463;-2,241;348;-10;2279;0;-0,158442;-0,0850175;0,459706;-0,0507184;0,026804;-0,00351969;0,133344;0,191776;0,241;0,0456914;0,102441;-0,623974;0;0;0;0;0;0;0,135752;0,194115;0,223409;0,0692346;0,0729899;-0,60779;-0,43506;-0,0254657;0,706474;-0,112751;0,0174231;-0,164267;-0,0861195;0,00421985;0,00427131;0,0850821;-0,159086;-0;0,183092;0,0201646;4,30834;0,000263263;0,000438107;0,00172946;0,00344702;-0,00128106;-0,0226313;0,0439823;0,00366519;0;-2,17837;-0,821037;-1080;1080;-600;1700;-10;10;-10;-0;0;-0;250;1,2;0,2;177;-1,2;-1;2555;0,07;2207;2991;8;56579;
22,8675;1,21463;-2,241;349;-60;2270;0;-0,158968;-0,0864765;0,474463;-0,0523116;0,0259373;0,00123538;0,133344;0,191776;0,241;0,046314;0,10258;-0,638931;0;0;0;0;0;0;0,135873;0,194192;0,222897;0,0691578;0,0730196;-0,622133;-0,435871;-0,152174;0,729511;-0,112654;0,0161033;-0,164468;-0,0861195;0,00421985;0,00427131;0,0850821;-0,159086;-0;0,172478;0,0200465;4,34056;0,000486219;0,000573553;0,00176034;0,00435441;-0,000511152;-0,0231305;0,0457276;0,00366519;0;-2,17837;-0,821037;-1080;1080;-600;1700;-10;10;-10;-0;0;-0;250;1,2;0,2;177;-1,2;-1;2555;0,07;2207;2991;8;56579;
22,8776;1,21463;-2,241;349;-93;2270;0;-0,158968;-0,0864765;0,474463;-0,0539097;0,0250679;0,00600516;0,133344;0,191776;0,241;0,046314;0,10258;-0,638931;0;0;0;0;0;0;0,135865;0,194185;0,222942;0,0685533;0,0717427;-0,621786;-0,435871;-0,235831;0,729511;-0,112654;0,0161033;-0,164468;-0,0861195;0,00421985;0,00427131;0,0850821;-0,159086;-0;0,171805;0,0199682;4,36192;0,000462099;0,00055013;0,00193651;0,00446222;-0,000541096;-0,0234531;0,0457276;0,00366519;0;-2,17837;-0,821037;-1080;1080;-600;1700;-10;10;-10;-0;0;-0;250;1,2;0,2;177;-1,2;-1;2555;0,07;2207;2991;8;56579;
22,8876;1,21463;-2,241;349;-95;2263;0;-0,159589;-0,0883976;0,486073;-0,0555032;0,0241853;0,0108586;0,133344;0,191776;0,241;0,0471082;0,103393;-0,650765;0;0;0;0;0;0;0,135841;0,19414;0,222628;0,0673406;0,067903;-0,632858;-0,434527;-0,240157;0,747429;-0,112481;0,0149959;-0,164691;-0,0861195;0,00421985;0,00427131;0,0850821;-0,159086;-0;0,160396;0,0142627;4,36204;0,000436704;0,000525868;0,00211832;0,00457111;-0,000571423;-0,023753;0,047822;0,00261799;0;-2,17837;-0,821037;-1080;1080;-600;1700;-10;10;-10;-0;0;-0;250;1,2;0,2;177;-1,2;-1;2555;0,07;2207;2991;8;56579;
22,8975;1,21463;-2,241;349;-96;2260;0;-0,159171;-0,0898442;0,491016;-0,0570797;0,0232955;0,0157216;0,133344;0,191776;0,241;0,0466269;0,103651;-0,655768;0;0;0;0;0;0;0,13583;0,194092;0,222557;0,0673232;0,0645107;-0,637409;-0,433951;-0,242362;0,755108;-0,112544;0,0138067;-0,164752;-0,0861195;0,00421985;0,00427131;0,0850821;-0,159086;-0;0,157058;0,0132707;4,37887;0,000411356;0,00050165;0,00229986;0,00468619;-0,000588942;-0,024107;0,0483456;0,00244346;0;-2,17837;-0,821037;-1080;1080;-600;1700;-10;10;-10;-0;0;-0;250;1,2;0,2;177;-1,2;-1;2555;0,07;2207;2991;8;56579;
22,9075;1,21463;-2,241;349;-96;2260;0;-0,159171;-0,0898442;0,491016;-0,0586812;0,0223915;0,0206622;0,133344;0,191776;0,241;0,0466269;0,103651;-0,655768;0;0;0;0;0;0;0,135811;0,194048;0,222712;0,0673925;0,0628108;-0,637326;-0,433951;-0,242362;0,755108;-0,112544;0,0138067;-0,164752;-0,0861195;0,00421985;0,00427131;0,0850821;-0,159086;-0;0,156849;0,0132531;4,3861;0,000386335;0,000477959;0,00248395;0,00481303;-0,000567931;-0,0243489;0,0483456;0,00244346;0;-2,17837;-0,821037;-1080;1080;-600;1700;-10;10;-10;-0;0;-0;250;1,2;0,2;177;-1,2;-1;2555;0,07;2207;2991;8;56579;
22,9174;1,21463;-2,241;348;-98;2258;0;-0,158561;-0,0912015;0,494005;-0,0602524;0,0214877;0,0255573;0,133344;0,191776;0,241;0,0459368;0,103789;-0,6588;0;0;0;0;0;0;0,13579;0,194028;0,222796;0,0674891;0,0627359;-0,640001;-0,431051;-0,247189;0,760227;-0,112624;0,0125873;-0,164795;-0,0861195;0,00421985;0,00427131;0,0850821;-0,159086;-0;0,154953;0,0132528;4,38622;0,000361521;0,000454846;0,00266802;0,00493956;-0,000513144;-0,0245744;0,0486947;0,00244346;0;-2,17837;-0,821037;-1080;1080;-600;1700;-10;10;-10;-0;0;-0;250;1,2;0,2;177;-1,2;-1;2555;0,07;2207;2991;8;56579;
22,9275;1,21463;-2,241;348;-99;2256;0;-0,158113;-0,0926362;0,496925;-0,0618449;0,0205547;0,0305624;0,133344;0,191776;0,241;0,0454784;0,104032;-0,661799;0;0;0;0;0;0;0,135779;0,194016;0,222794;0,0675093;0,0626969;-0,642867;-0,430669;-0,249489;0,765346;-0,112634;0,0113953;-0,164875;-0,0861195;0,00421985;0,00427131;0,0850821;-0,159086;-0;0,151045;0,0122961;4,39064;0,000336894;0,000432161;0,0028506;0,00506543;-0,000441369;-0,0248307;0,0493928;0,00226893;0;-2,17837;-0,821037;-1080;1080;-600;1700;-10;10;-10;-0;0;-0;250;1,2;0,2;177;-1,2;-1;2555;0,07;2207;2991;8;56579;
22,9375;1,21463;-2,241;348;-99;2256;0;-0,158113;-0,0926362;0,496925;-0,0634311;0,0196254;0,0355475;0,133344;0,191776;0,241;0,0454784;0,104032;-0,661799;0;0;0;0;0;0;0,135761;0,194;0,222933;0,0675836;0,0626745;-0,642896;-0,430669;-0,249489;0,765346;-0,112634;0,0113953;-0,164875;-0,0861195;0,00421985;0,00427131;0,0850821;-0,159086;-0;0,150924;0,0122863;4,39497;0,000312534;0,000409739;0,00303189;0,00519001;-0,00036903;-0,0250598;0,0493928;0,00226893;0;-2,17837;-0,821037;-1080;1080;-600;1700;-10;10;-10;-0;0;-0;250;1,2;0,2;177;-1,2;-1;2555;0,07;2207;2991;8;56579;
22,9475;1,21463;-2,241;348;-101;2256;0;-0,158196;-0,0942813;0,497603;-0,065012;0,0186832;0,0405201;0,133344;0,191776;0,241;0,045769;0,104612;-0,66269;0;0;0;0;0;0;0,135762;0,193998;0,222887;0,0675853;0,0625211;-0,643636;-0,430669;-0,254526;0,765346;-0,112427;0,0103305;-0,165086;-0,0861195;0,00421985;0,00427131;0,0850821;-0,159086;-0;0,140529;0,00850572;4,39509;0,000288151;0,000387305;0,00321421;0,0053151;-0,000295894;-0,0252714;0,0513127;0,0015708;0;-2,17837;-0,821037;-1080;1080;-600;1700;-10;10;-10;-0;0;-0;250;1,2;0,2;177;-1,2;-1;2555;0,07;2207;2991;8;56579;
22,9575;1,21463;-2,241;348;-103;2255;0;-0,158306;-0,0962888;0,499215;-0,0665968;0,0177193;0,0455177;0,133344;0,191776;0,241;0,0460971;0,105648;-0,664507;0;0;0;0;0;0;0,135748;0,193985;0,222939;0,0676183;0,0624898;-0,64558;-0,430478;-0,259448;0,767906;-0,112209;0,00935919;-0,165292;-0,0861195;0,00421985;0,00427131;0,0850821;-0,159086;-0;0,13011;0,000944889;4,39618;0,000263969;0,000365056;0,00339496;0,00543932;-0,000222607;-0,0255025;0,0532325;0,000174533;0;-2,17837;-0,821037;-1080;1080;-600;1700;-10;10;-10;-0;0;-0;250;1,2;0,2;177;-1,2;-1;2555;0,07;2207;2991;8;56579;
22,9675;1,21463;-2,241;348;-103;2254;0;-0,158306;-0,0962888;0,499215;-0,0681724;0,0167609;0,0504864;0,133344;0,191776;0,241;0,0460971;0,105648;-0,664507;0;0;0;0;0;0;0,135742;0,193979;0,222975;0,0675945;0,0624258;-0,645538;-0,430288;-0,259333;0,770466;-0,112209;0,00935919;-0,165292;-0,0861195;0,00421985;0,00427131;0,0850821;-0,159086;-0;0,130051;0,000944463;4,39862;0,000239713;0,000342761;0,00357667;0,00556387;-0,000147576;-0,0257269;0,0532325;0,000174533;0;-2,17837;-0,821037;-1080;1080;-600;1700;-10;10;-10;-0;0;-0;250;1,2;0,2;177;-1,2;-1;2555;0,07;2207;2991;8;56579;
22,9774;1,21463;-2,241;348;-105;2254;0;-0,158336;-0,0982864;0,499832;-0,069742;0,0157866;0,0554412;0,133344;0,191776;0,241;0,0463345;0,106787;-0,665311;0;0;0;0;0;0;0,135725;0,193962;0,223075;0,0676351;0,0622985;-0,646581;-0,430288;-0,264365;0,770466;-0,112002;0,00850087;-0,165479;-0,0861195;0,00421985;0,00427131;0,0850821;-0,159086;-0;0,120607;-0,00755554;4,39874;0,000215647;0,000320649;0,0037575;0,00568783;-7,23842e-05;-0,0259414;0,0549779;-0,00139626;0;-2,17837;-0,821037;-1080;1080;-600;1700;-10;10;-10;-0;0;-0;250;1,2;0,2;177;-1,2;-1;2555;0,07;2207;2991;8;56579;
22,9875;1,21463;-2,241;348;-108;2254;0;-0,15836;-0,100566;0,500388;-0,0713419;0,0147706;0,0604966;0,133344;0,191776;0,241;0,0465985;0,10816;-0,666074;0;0;0;0;0;0;0,135708;0,193945;0,223187;0,0676872;0,0622292;-0,647587;-0,430288;-0,271912;0,770466;-0,111761;0,00759476;-0,165686;-0,0861195;0,00421985;0,00427131;0,0850821;-0,159086;-0;0,1102;-0,017941;4,39975;0,000191705;0,000298652;0,00393749;0,00581171;3,24882e-06;-0,0261657;0,0568977;-0,00331613;0;-2,17837;-0,821037;-1080;1080;-600;1700;-10;10;-10;-0;0;-0;250;1,2;0,2;177;-1,2;-1;2555;0,07;2207;2991;8;56579;
22,9975;1,21463;-2,241;348;-108;2254;0;-0,15836;-0,100566;0,500388;-0,072931;0,0137614;0,065518;0,133344;0,191776;0,241;0,0465985;0,10816;-0,666074;0;0;0;0;0;0;0,13569;0,193929;0,223329;0,0677378;0,0622098;-0,647619;-0,430288;-0,271912;0,770466;-0,111761;0,00759476;-0,165686;-0,0861195;0,00421985;0,00427131;0,0850821;-0,159086;-0;0,110181;-0,017938;4,40067;0,000167991;0,000276879;0,00411601;0,00593485;7,99476e-05;-0,026379;0,0568977;-0,00331613;0;-2,17837;-0,821037;-1080;1080;-600;1700;-10;10;-10;-0;0;-0;250;1,2;0,2;177;-1,2;-1;2555;0,07;2207;2991;8;56579;
23,0075;1,21463;-2,241;348;-110;2254;0;-0,158221;-0,10256;0,499009;-0,0745083;0,012739;0,0704926;0,133344;0,191776;0,241;0,0466635;0,109389;-0,664865;0;0;0;0;0;0;0,135685;0,193922;0,223388;0,0677105;0,0620176;-0,646567;-0,430288;-0,276944;0,770466;-0,111558;0,00682863;-0,165856;-0,0861195;0,00421985;0,00427131;0,0850821;-0,159086;-0;0,101683;-0,0273783;4,40079;0,000144379;0,000255214;0,00429395;0,00605785;0,000157575;-0,0265729;0,0584685;-0,00506145;0;-2,17837;-0,821037;-1080;1080;-600;1700;-10;10;-10;-0;0;-0;250;1,2;0,2;177;-1,2;-1;2555;0,07;2207;2991;8;56579;
23,0175;1,21463;-2,241;348;-110;2254;0;-0,158221;-0,10256;0,499009;-0,0760838;0,0117178;0,0754613;0,133344;0,191776;0,241;0,0466635;0,109389;-0,664865;0;0;0;0;0;0;0,135679;0,193915;0,223423;0,0676875;0,0618523;-0,646523;-0,430288;-0,276944;0,770466;-0,111558;0,00682863;-0,165856;-0,0861195;0,00421985;0,00427131;0,0850821;-0,159086;-0;0,101718;-0,0273878;4,39893;0,000120878;0,000233651;0,00447096;0,00618068;0,00023561;-0,026767;0,0584685;-0,00506145;0;-2,17837;-0,821037;-1080;1080;-600;1700;-10;10;-10;-0;0;-0;250;1,2;0,2;177;-1,2;-1;2555;0,07;2207;2991;8;56579;
23,0274;1,41387;-2,115;398;-123;2252;0;-0,225206;-0,114078;0,50238;-0,078325;0,0105825;0,080461;0,155568;0,205216;0,115;0,10254;0,111015;-0,660316;0;0;0;0;0;0;0,159211;0,20621;0,0968731;0,107716;0,0217545;-0,6455;-0,555263;-0,309369;0,775585;-0,122666;-0,00306253;-0,157936;-0,100386;0,00454801;0,0053586;0,0852006;-0,15038;-0;0,0979391;-0,0387196;4,39905;0,000320418;0,000346988;0,00338321;0,00670544;-8,57085e-05;-0,0269621;0,0591667;-0,00715585;0;-2,21944;-0,796902;-1080;1080;-600;1700;-10;10;-10;-0;0;-0;250;1,2;0,2;177;-1,2;-1;2555;0,07;2212;2995;8;56579;
23,0374;1,41387;-2,115;420;-126;2254;0;-0,224536;-0,116755;0,500011;-0,0805719;0,00941414;0,0854646;0,155568;0,205216;0,115;0,10205;0,112823;-0,658067;0;0;0;0;0;0;0,159294;0,206262;0,0964866;0,107831;0,0216621;-0,64363;-0,610882;-0,317189;0,770466;-0,122486;-0,0039312;-0,158056;-0,100386;0,00454801;0,0053586;0,0852006;-0,15038;-0;0,0931322;-0,0490624;4,40402;0,00051905;0,000459854;0,00230039;0,00722789;-0,000403818;-0,0271366;0,0600393;-0,00907571;0;-2,21944;-0,796902;-1080;1080;-600;1700;-10;10;-10;-0;0;-0;250;1,2;0,2;177;-1,2;-1;2555;0,07;2212;2995;8;56579;
23,0474;1,41387;-2,115;420;-126;2254;0;-0,224536;-0,116755;0,500011;-0,08282;0,00824519;0,0904707;0,155568;0,205216;0,115;0,10205;0,112823;-0,658067;0;0;0;0;0;0;0,159267;0,206255;0,0966307;0,106634;0,0213704;-0,643661;-0,610882;-0,317189;0,770466;-0,122486;-0,0039312;-0,158056;-0,100386;0,00454801;0,0053586;0,0852006;-0,15038;-0;0,0931889;-0,0490923;4,40073;0,000482767;0,000449949;0,00248092;0,00735023;-0,000321698;-0,0273208;0,0600393;-0,00907571;0;-2,21944;-0,796902;-1080;1080;-600;1700;-10;10;-10;-0;0;-0;250;1,2;0,2;177;-1,2;-1;2555;0,07;2212;2995;8;56579;
23,0575;1,41387;-2,115;419;-129;2255;0;-0,223752;-0,11954;0,497648;-0,0850698;0,00704321;0,0954745;0,155568;0,205216;0,115;0,101397;0,114916;-0,655787;0;0;0;0;0;0;0,159215;0,206241;0,0967597;0,103581;0,0206431;-0,641599;-0,608648;-0,324877;0,767906;-0,122355;-0,00462474;-0,158139;-0,100386;0,00454801;0,0053586;0,0852006;-0,15038;-0;0,090355;-0,0623076;4,40085;0,000445611;0,000439519;0,00266553;0,00747158;-0,000238552;-0,027504;0,0605629;-0,0115192;0;-2,21944;-0,796902;-1080;1080;-600;1700;-10;10;-10;-0;0;-0;250;1,2;0,2;177;-1,2;-1;2555;0,07;2212;2995;8;56579;
23,0675;1,41387;-2,115;418;-132;2257;0;-0,222705;-0,122635;0,494278;-0,087308;0,00581074;0,100442;0,155568;0,205216;0,115;0,100469;0,117257;-0,652486;0;0;0;0;0;0;0,159186;0,206235;0,0969043;0,102452;0,0204783;-0,638674;-0,606679;-0,332719;0,762787;-0,122236;-0,00537741;-0,158207;-0,100386;0,00454801;0,0053586;0,0852006;-0,15038;-0;0,0885208;-0,0774585;4,39757;0,000408659;0,00042914;0,00284905;0,00760511;-0,000152339;-0,0276573;0,060912;-0,0143117;0;-2,21944;-0,796902;-1080;1080;-600;1700;-10;10;-10;-0;0;-0;250;1,2;0,2;177;-1,2;-1;2555;0,07;2212;2995;8;56579;
23,0774;1,41387;-2,115;418;-132;2257;0;-0,222705;-0,122635;0,494278;-0,0895003;0,00460352;0,105308;0,155568;0,205216;0,115;0,100469;0,117257;-0,652486;0;0;0;0;0;0;0,159179;0,206232;0,0969295;0,102428;0,0203779;-0,638638;-0,606679;-0,332719;0,762787;-0,122236;-0,00537741;-0,158207;-0,100386;0,00454801;0,0053586;0,0852006;-0,15038;-0;0,0885982;-0,0775262;4,39283;0,000372099;0,000418865;0,0030319;0,0077697;-5,85392e-05;-0,0278317;0,060912;-0,0143117;0;-2,21944;-0,796902;-1080;1080;-600;1700;-10;10;-10;-0;0;-0;250;1,2;0,2;177;-1,2;-1;2555;0,07;2212;2995;8;56579;
23,0874;1,41387;-2,115;417;-135;2259;0;-0,221856;-0,125221;0,489892;-0,0917195;0,00335093;0,110208;0,155568;0,205216;0,115;0,0998318;0,118978;-0,648231;0;0;0;0;0;0;0,159166;0,206225;0,0971123;0,102484;0,0201407;-0,634724;-0,604707;-0,340573;0,757667;-0,122024;-0,00624323;-0,158338;-0,100386;0,00454801;0,0053586;0,0852006;-0,15038;-0;0,0838696;-0,0879233;4,39295;0,000335778;0,000408638;0,00321356;0,00794587;3,70491e-05;-0,0279956;0,0617847;-0,0162316;0;-2,21944;-0,796902;-1080;1080;-600;1700;-10;10;-10;-0;0;-0;250;1,2;0,2;177;-1,2;-1;2555;0,07;2212;2995;8;56579;
23,0975;1,41387;-2,115;416;-137;2263;0;-0,221027;-0,127345;0,484566;-0,0939649;0,00205724;0,115131;0,155568;0,205216;0,115;0,0992152;0,120269;-0,643033;0;0;0;0;0;0;0,15913;0,206214;0,0974582;0,102643;0,0200487;-0,629966;-0,603263;-0,346225;0,747429;-0,121811;-0,00707613;-0,158467;-0,100386;0,00454801;0,0053586;0,0852006;-0,15038;-0;0,0792335;-0,0955951;4,38675;0,000299732;0,000398495;0,00339396;0,00812129;0,000133106;-0,028109;0,0626573;-0,0176278;0;-2,21944;-0,796902;-1080;1080;-600;1700;-10;10;-10;-0;0;-0;250;1,2;0,2;177;-1,2;-1;2555;0,07;2212;2995;8;56579;
23,1074;1,41387;-2,115;416;-137;2263;0;-0,221027;-0,127345;0,484566;-0,0961509;0,000797794;0,119923;0,155568;0,205216;0,115;0,0992152;0,120269;-0,643033;0;0;0;0;0;0;0,159107;0,206208;0,0975803;0,102711;0,0199976;-0,630072;-0,603263;-0,346225;0,747429;-0,121811;-0,00707613;-0,158467;-0,100386;0,00454801;0,0053586;0,0852006;-0,15038;-0;0,0793438;-0,0957282;4,3792;0,000263876;0,000388434;0,00357222;0,00829585;0,000231361;-0,0282613;0,0626573;-0,0176278;0;-2,21944;-0,796902;-1080;1080;-600;1700;-10;10;-10;-0;0;-0;250;1,2;0,2;177;-1,2;-1;2555;0,07;2212;2995;8;56579;
23,1174;1,41387;-2,115;416;-139;2265;0;-0,220704;-0,129393;0,481074;-0,0983548;-0,000494325;0,124727;0,155568;0,205216;0,115;0,09929;0,12129;-0,639796;0;0;0;0;0;0;0,159101;0,206203;0,0976873;0,102717;0,0197573;-0,627211;-0,603796;-0,351584;0,742309;-0,121414;-0,0081034;-0,158723;-0,100386;0,00454801;0,0053586;0,0852006;-0,15038;-0;0,0689169;-0,100465;4,37932;0,000228246;0,00037845;0,00374768;0,00846946;0,000330894;-0,0284316;0,0645772;-0,0185005;0;-2,21944;-0,796902;-1080;1080;-600;1700;-10;10;-10;-0;0;-0;250;1,2;0,2;177;-1,2;-1;2555;0,07;2212;2995;8;56579;
23,1274;1,41387;-2,115;416;-141;2267;0;-0,221215;-0,131338;0,477209;-0,100567;-0,00180784;0,1295;0,155568;0,205216;0,115;0,100448;0,122355;-0,636377;0;0;0;0;0;0;0,159089;0,206197;0,0978326;0,102735;0,0196384;-0,624395;-0,604329;-0,356951;0,73719;-0,120768;-0,00898335;-0,159168;-0,100386;0,00454801;0,0053586;0,0852006;-0,15038;-0;0,0500066;-0,106247;4,3744;0,000192796;0,000368512;0,00392218;0,00864265;0,000431091;-0,0285712;0,0680678;-0,0195477;0;-2,21944;-0,796902;-1080;1080;-600;1700;-10;10;-10;-0;0;-0;250;1,2;0,2;177;-1,2;-1;2555;0,07;2212;2995;8;56579;
23,1374;1,41387;-2,115;416;-141;2267;0;-0,221215;-0,131338;0,477209;-0,102769;-0,00311478;0,134248;0,155568;0,205216;0,115;0,100448;0,122355;-0,636377;0;0;0;0;0;0;0,15907;0,206192;0,09793;0,102757;0,0196008;-0,624476;-0,604329;-0,356951;0,73719;-0,120768;-0,00898335;-0,159168;-0,100386;0,00454801;0,0053586;0,0852006;-0,15038;-0;0,0500567;-0,106353;4,36895;0,000157421;0,000358629;0,0040955;0,00881568;0,000533638;-0,0287393;0,0680678;-0,0195477;0;-2,21944;-0,796902;-1080;1080;-600;1700;-10;10;-10;-0;0;-0;250;1,2;0,2;177;-1,2;-1;2555;0,07;2212;2995;8;56579;
23,1474;1,41387;-2,115;417;-144;2270;0;-0,221328;-0,133562;0,472394;-0,10499;-0,00445534;0,13899;0,155568;0,205216;0,115;0,101138;0,123737;-0,63195;0;0;0;0;0;0;0,159035;0,206182;0,0982328;0,102854;0,019506;-0,620762;-0,607651;-0,365018;0,729511;-0,12019;-0,00982522;-0,159555;-0,100386;0,00454801;0,0053586;0,0852006;-0,15038;-0;0,0339126;-0,114896;4,36907;0,000122355;0,000348853;0,00426647;0,00898763;0,000636829;-0,0288947;0,0710349;-0,0211185;0;-2,21944;-0,796902;-1080;1080;-600;1700;-10;10;-10;-0;0;-0;250;1,2;0,2;177;-1,2;-1;2555;0,07;2212;2995;8;56579;
23,1575;1,41387;-2,115;416;-146;2272;0;-0,220706;-0,13595;0,467853;-0,107217;-0,00582694;0,14371;0,155568;0,205216;0,115;0,100849;0,12541;-0,627613;0;0;0;0;0;0;0,159024;0,206177;0,0983981;0,102824;0,0193877;-0,616831;-0,605662;-0,370407;0,724391;-0,119857;-0,0105399;-0,15976;-0,100386;0,00454801;0,0053586;0,0852006;-0,15038;-0;0,0263487;-0,126447;4,36225;8,74126e-05;0,000339111;0,00443682;0,0091597;0,000740606;-0,0290097;0,0724312;-0,0232129;0;-2,21944;-0,796902;-1080;1080;-600;1700;-10;10;-10;-0;0;-0;250;1,2;0,2;177;-1,2;-1;2555;0,07;2212;2995;8;56579;
23,1675;1,41387;-2,115;416;-146;2272;0;-0,220706;-0,13595;0,467853;-0,109431;-0,00719106;0,148404;0,155568;0,205216;0,115;0,100849;0,12541;-0,627613;0;0;0;0;0;0;0,159012;0,206173;0,0984502;0,102777;0,0192993;-0,616885;-0,605662;-0,370407;0,724391;-0,119857;-0,0105399;-0,15976;-0,100386;0,00454801;0,0053586;0,0852006;-0,15038;-0;0,0263798;-0,126596;4,35582;5,27577e-05;0,000329453;0,00460443;0,0093311;0,000845508;-0,029162;0,0724312;-0,0232129;0;-2,21944;-0,796902;-1080;1080;-600;1700;-10;10;-10;-0;0;-0;250;1,2;0,2;177;-1,2;-1;2555;0,07;2212;2995;8;56579;
23,1775;1,41387;-2,115;415;-149;2274;0;-0,219934;-0,138113;0,464467;-0,111631;-0,00857247;0,15305;0,155568;0,205216;0,115;0,100329;0,126849;-0,624366;0;0;0;0;0;0;0,159003;0,206168;0,0985667;0,102694;0,0190625;-0,614042;-0,603668;-0,37834;0,719272;-0,119605;-0,0112646;-0,159899;-0,100386;0,00454801;0,0053586;0,0852006;-0,15038;-0;0,0216197;-0,136109;4,35594;1,81119e-05;0,000319818;0,00477088;0,0095033;0,000951904;-0,0293241;0,0733038;-0,0249582;0;-2,21944;-0,796902;-1080;1080;-600;1700;-10;10;-10;-0;0;-0;250;1,2;0,2;177;-1,2;-1;2555;0,07;2212;2995;8;56579;
23,1875;1,41387;-2,115;415;-149;2274;0;-0,219934;-0,138113;0,464467;-0,113822;-0,00994836;0,157677;0,155568;0,205216;0,115;0,100329;0,126849;-0,624366;0;0;0;0;0;0;0,158995;0,206163;0,098597;0,102701;0,0189345;-0,614101;-0,603668;-0,37834;0,719272;-0,119605;-0,0112646;-0,159899;-0,100386;0,00454801;0,0053586;0,0852006;-0,15038;-0;0,0216386;-0,136228;4,35117;-1,65108e-05;0,000310193;0,00493726;0,00967645;0,00105948;-0,0294861;0,0733038;-0,0249582;0;-2,21944;-0,796902;-1080;1080;-600;1700;-10;10;-10;-0;0;-0;250;1,2;0,2;177;-1,2;-1;2555;0,07;2212;2995;8;56579;
23,1975;1,41387;-2,115;414;-151;2276;0;-0,218953;-0,1405;0,461094;-0,116006;-0,0113497;0,162276;0,155568;0,205216;0,115;0,0995944;0,128425;-0,621118;0;0;0;0;0;0;0,158974;0,206158;0,0987915;0,102759;0,0188788;-0,611194;-0,601669;-0,383749;0,714153;-0,119359;-0,0120747;-0,160024;-0,100386;0,00454801;0,0053586;0,0852006;-0,15038;-0;0,0178273;-0,146702;4,35128;-5,10045e-05;0,000300632;0,00510228;0,00985023;0,00116931;-0,0296463;0,074002;-0,0268781;0;-2,21944;-0,796902;-1080;1080;-600;1700;-10;10;-10;-0;0;-0;250;1,2;0,2;177;-1,2;-1;2555;0,07;2212;2995;8;56579;
23,2075;1,41387;-2,115;413;-153;2278;0;-0,217942;-0,142211;0,457927;-0,11819;-0,0127751;0,166866;0,155568;0,205216;0,115;0,098802;0,1292;-0,618041;0;0;0;0;0;0;0,158944;0,206148;0,0990402;0,102893;0,0187785;-0,608401;-0,599666;-0,389166;0,709033;-0,11914;-0,013011;-0,160114;-0,100386;0,00454801;0,0053586;0,0852006;-0,15038;-0;0,0149821;-0,150642;4,34654;-8,52753e-05;0,000291157;0,00526629;0,0100232;0,00127996;-0,0297753;0,0745256;-0,0275762;0;-2,21944;-0,796902;-1080;1080;-600;1700;-10;10;-10;-0;0;-0;250;1,2;0,2;177;-1,2;-1;2555;0,07;2212;2995;8;56579;
23,2174;1,41387;-2,115;413;-153;2278;0;-0,217942;-0,142211;0,457927;-0,120359;-0,0141904;0,171423;0,155568;0,205216;0,115;0,098802;0,1292;-0,618041;0;0;0;0;0;0;0,158921;0,206142;0,0991578;0,102967;0,0187584;-0,608511;-0,599666;-0,389166;0,709033;-0,11914;-0,013011;-0,160114;-0,100386;0,00454801;0,0053586;0,0852006;-0,15038;-0;0,0149943;-0,150765;4,34209;-0,000119268;0,000281756;0,00542804;0,0101953;0,00139094;-0,0299331;0,0745256;-0,0275762;0;-2,21944;-0,796902;-1080;1080;-600;1700;-10;10;-10;-0;0;-0;250;1,2;0,2;177;-1,2;-1;2555;0,07;2212;2995;8;56579;
23,2275;1,41387;-2,115;412;-155;2279;0;-0,216944;-0,14386;0,455804;-0,122532;-0,0156314;0,175989;0,155568;0,205216;0,115;0,0979598;0,130055;-0,615966;0;0;0;0;0;0;0,158907;0,206136;0,099283;0,103031;0,0185995;-0,606666;-0,597396;-0,394418;0,706474;-0,118985;-0,0138054;-0,160163;-0,100386;0,00454801;0,0053586;0,0852006;-0,15038;-0;0,0140397;-0,155532;4,3422;-0,000152982;0,000272448;0,00558742;0,0103661;0,001503;-0,0300988;0,0747001;-0,0284489;0;-2,21944;-0,796902;-1080;1080;-600;1700;-10;10;-10;-0;0;-0;250;1,2;0,2;177;-1,2;-1;2555;0,07;2212;2995;8;56579;
23,2376;1,61559;-1,985;450;-187;2275;0;-0,252026;-0,173138;0,462245;-0,125082;-0,017383;0,180665;0,177792;0,210717;-0,015;0,123649;0,147825;-0,613501;0;0;0;0;0;0;0,182123;0,211359;-0,0312822;0,133124;0,00849642;-0,606792;-0,692353;-0,474846;0,716712;-0,128377;-0,0253126;-0,151257;-0,114135;0,00467364;0,00629223;0,0847753;-0,140445;-0;0,0130925;-0,15657;4,33925;3,54114e-05;0,000318124;0,00444779;0,0108356;0,0015154;-0,0302634;0,0748746;-0,0286234;0;-2,27165;-0,764293;-1080;1080;-600;1700;-10;10;-10;-0;0;-0;250;1,2;0,2;177;-1,2;-1;2555;0,07;2217;2998;8;56579;
23,2474;1,61559;-1,985;450;-187;2275;0;-0,252026;-0,173138;0,462245;-0,127556;-0,0190822;0,185202;0,177792;0,210717;-0,015;0,123649;0,147825;-0,613501;0;0;0;0;0;0;0,182223;0,211382;-0,0318798;0,133168;0,00842858;-0,606805;-0,692353;-0,474846;0,716712;-0,128377;-0,0253126;-0,151257;-0,114135;0,00467364;0,00629223;0,0847753;-0,140445;-0;0,01307;-0,156301;4,34864;0,000224215;0,000363924;0,00330526;0,0113052;0,0015294;-0,0304467;0,0748746;-0,0286234;0;-2,27165;-0,764293;-1080;1080;-600;1700;-10;10;-10;-0;0;-0;250;1,2;0,2;177;-1,2;-1;2555;0,07;2217;2998;8;56579;
23,2575;1,61559;-1,985;449;-189;2275;0;-0,251125;-0,174841;0,462094;-0,130094;-0,0208495;0,189873;0,177792;0,210717;-0,015;0,123041;0,148588;-0,613439;0;0;0;0;0;0;0,182215;0,211379;-0,0318563;0,132222;0,00749143;-0,606705;-0,689829;-0,479913;0,716712;-0,128083;-0,0262538;-0,151345;-0,114135;0,00467364;0,00629223;0,0847753;-0,140445;-0;0,0102103;-0,158204;4,34875;0,000180783;0,000357489;0,00346855;0,0114744;0,00164477;-0,0306293;0,0753982;-0,0289725;0;-2,27165;-0,764293;-1080;1080;-600;1700;-10;10;-10;-0;0;-0;250;1,2;0,2;177;-1,2;-1;2555;0,07;2217;2998;8;56579;
23,2675;1,61559;-1,985;448;-190;2275;0;-0,250455;-0,176372;0,462925;-0,132593;-0,0226094;0,194492;0,177792;0,210717;-0,015;0,122682;0,149225;-0,614375;0;0;0;0;0;0;0,182145;0,21135;-0,0317147;0,13043;0,00595534;-0,607618;-0,687305;-0,482446;0,716712;-0,127773;-0,0271464;-0,15145;-0,114135;0,00467364;0,00629223;0,0847753;-0,140445;-0;0,00639771;-0,15916;4,34864;0,000136549;0,000350849;0,00363706;0,0116425;0,00176028;-0,0308209;0,0760964;-0,029147;0;-2,27165;-0,764293;-1080;1080;-600;1700;-10;10;-10;-0;0;-0;250;1,2;0,2;177;-1,2;-1;2555;0,07;2217;2998;8;56579;
23,2775;1,61559;-1,985;448;-190;2275;0;-0,250455;-0,176372;0,462925;-0,135111;-0,0243824;0,199146;0,177792;0,210717;-0,015;0,122682;0,149225;-0,614375;0;0;0;0;0;0;0,182136;0,211347;-0,0316859;0,13041;0,00587392;-0,607572;-0,687305;-0,482446;0,716712;-0,127773;-0,0271464;-0,15145;-0,114135;0,00467364;0,00629223;0,0847753;-0,140445;-0;0,00639618;-0,159122;4,34995;9,22613e-05;0,000344226;0,00380584;0,0118205;0,00188553;-0,0310141;0,0760964;-0,029147;0;-2,27165;-0,764293;-1080;1080;-600;1700;-10;10;-10;-0;0;-0;250;1,2;0,2;177;-1,2;-1;2555;0,07;2217;2998;8;56579;
23,2875;1,61559;-1,985;448;-192;2276;0;-0,249954;-0,177963;0,461537;-0,137606;-0,026159;0,203753;0,177792;0,210717;-0,015;0,12256;0,150079;-0,613172;0;0;0;0;0;0;0,182096;0,211341;-0,0314877;0,130601;0,0058279;-0,606689;-0,687607;-0,487727;0,714153;-0,127394;-0,0278837;-0,151635;-0,114135;0,00467364;0,00629223;0,0847753;-0,140445;-0;-0,000274522;-0,162928;4,35006;4,88715e-05;0,000337923;0,00397243;0,0120155;0,00202551;-0,0311874;0,0773181;-0,0298451;0;-2,27165;-0,764293;-1080;1080;-600;1700;-10;10;-10;-0;0;-0;250;1,2;0,2;177;-1,2;-1;2555;0,07;2217;2998;8;56579;
23,2976;1,61559;-1,985;447;-194;2277;0;-0,249178;-0,179686;0,459188;-0,140115;-0,0279679;0,208376;0,177792;0,210717;-0,015;0,122077;0,151192;-0,610956;0;0;0;0;0;0;0,182107;0,21134;-0,0314896;0,130507;0,00567629;-0,604533;-0,685382;-0,493012;0,711593;-0,1271;-0,0284938;-0,151768;-0,114135;0,00467364;0,00629223;0,0847753;-0,140445;-0;-0,00408769;-0,169655;4,34817;5,23291e-06;0,000331593;0,00414006;0,0122123;0,00216742;-0,0313424;0,0780162;-0,0310669;0;-2,27165;-0,764293;-1080;1080;-600;1700;-10;10;-10;-0;0;-0;250;1,2;0,2;177;-1,2;-1;2555;0,07;2217;2998;8;56579;
23,3074;1,61559;-1,985;447;-194;2277;0;-0,249178;-0,179686;0,459188;-0,142556;-0,0297285;0,212875;0,177792;0,210717;-0,015;0,122077;0,151192;-0,610956;0;0;0;0;0;0;0,182069;0,211335;-0,031331;0,130609;0,00569794;-0,604665;-0,685382;-0,493012;0,711593;-0,1271;-0,0284938;-0,151768;-0,114135;0,00467364;0,00629223;0,0847753;-0,140445;-0;-0,00409014;-0,169756;4,3449;-3,78258e-05;0,000325351;0,00430501;0,0124064;0,00230921;-0,0315056;0,0780162;-0,0310669;0;-2,27165;-0,764293;-1080;1080;-600;1700;-10;10;-10;-0;0;-0;250;1,2;0,2;177;-1,2;-1;2555;0,07;2217;2998;8;56579;
23,3174;1,61559;-1,985;446;-195;2279;0;-0,248395;-0,181093;0,454852;-0,14505;-0,0315465;0,217441;0,177792;0,210717;-0,015;0,121646;0,151912;-0,606783;0;0;0;0;0;0;0,182059;0,211331;-0,0311828;0,130583;0,00551021;-0,600693;-0,683455;-0,495983;0,706474;-0,126749;-0,0291807;-0,151931;-0,114135;0,00467364;0,00629223;0,0847753;-0,140445;-0;-0,00981298;-0,173566;4,34501;-8,11276e-05;0,000319104;0,00447048;0,012602;0,00245294;-0,0316507;0,0790634;-0,031765;0;-2,27165;-0,764293;-1080;1080;-600;1700;-10;10;-10;-0;0;-0;250;1,2;0,2;177;-1,2;-1;2555;0,07;2217;2998;8;56579;
23,3275;1,61559;-1,985;445;-197;2283;0;-0,247496;-0,182541;0,449499;-0,147547;-0,0333885;0,221977;0,177792;0,210717;-0,015;0,121064;0,152775;-0,601581;0;0;0;0;0;0;0,182004;0,211324;-0,0307989;0,130822;0,0055441;-0,595935;-0,682121;-0,501937;0,696235;-0,126432;-0,0297656;-0,152082;-0,114135;0,00467364;0,00629223;0,0847753;-0,140445;-0;-0,0145984;-0,179487;4,33888;-0,000123679;0,000312955;0,00463296;0,0127949;0,00259523;-0,0317436;0,0799361;-0,0328122;0;-2,27165;-0,764293;-1080;1080;-600;1700;-10;10;-10;-0;0;-0;250;1,2;0,2;177;-1,2;-1;2555;0,07;2217;2998;8;56579;
23,3375;1,61559;-1,985;445;-197;2283;0;-0,247496;-0,182541;0,449499;-0,150019;-0,0352113;0,226466;0,177792;0,210717;-0,015;0,121064;0,152775;-0,601581;0;0;0;0;0;0;0,18199;0,211322;-0,0307518;0,130822;0,00550132;-0,595959;-0,682121;-0,501937;0,696235;-0,126432;-0,0297656;-0,152082;-0,114135;0,00467364;0,00629223;0,0847753;-0,140445;-0;-0,0146187;-0,179737;4,33128;-0,000166214;0,000306831;0,00479427;0,0129885;0,00273967;-0,0318763;0,0799361;-0,0328122;0;-2,27165;-0,764293;-1080;1080;-600;1700;-10;10;-10;-0;0;-0;250;1,2;0,2;177;-1,2;-1;2555;0,07;2217;2998;8;56579;
23,3475;1,61559;-1,985;445;-198;2285;0;-0,247095;-0,183854;0,444965;-0,152498;-0,0370563;0,230931;0,177792;0,210717;-0,015;0,121065;0,153604;-0,597285;0;0;0;0;0;0;0,181973;0,211318;-0,0305692;0,130877;0,00538522;-0,59216;-0,682719;-0,50492;0,691115;-0,12603;-0,0302501;-0,15232;-0,114135;0,00467364;0,00629223;0,0847753;-0,140445;-0;-0,0232242;-0,185467;4,33138;-0,000208231;0,000300776;0,00495188;0,0131798;0,00288388;-0,0320166;0,0815069;-0,0338594;0;-2,27165;-0,764293;-1080;1080;-600;1700;-10;10;-10;-0;0;-0;250;1,2;0,2;177;-1,2;-1;2555;0,07;2217;2998;8;56579;
23,3575;1,61559;-1,985;445;-198;2285;0;-0,247095;-0,183854;0,444965;-0,154962;-0,0388897;0,235368;0,177792;0,210717;-0,015;0,121065;0,153604;-0,597285;0;0;0;0;0;0;0,181978;0,211315;-0,0306053;0,130794;0,00518662;-0,592248;-0,682719;-0,50492;0,691115;-0,12603;-0,0302501;-0,15232;-0,114135;0,00467364;0,00629223;0,0847753;-0,140445;-0;-0,0232514;-0,185685;4,32496;-0,000250376;0,000294707;0,00511001;0,0133723;0,00302943;-0,0321575;0,0815069;-0,0338594;0;-2,27165;-0,764293;-1080;1080;-600;1700;-10;10;-10;-0;0;-0;250;1,2;0,2;177;-1,2;-1;2555;0,07;2217;2998;8;56579;
23,3674;1,61559;-1,985;444;-200;2290;0;-0,246428;-0,184821;0,437541;-0,157401;-0,0407191;0,239699;0,177792;0,210717;-0,015;0,120803;0,154008;-0,590082;0;0;0;0;0;0;0,181956;0,211312;-0,030314;0,13081;0,00517335;-0,585313;-0,681671;-0,511123;0,678317;-0,125625;-0,0308131;-0,152542;-0,114135;0,00467364;0,00629223;0,0847753;-0,140445;-0;-0,0318665;-0,188551;4,32507;-0,000292342;0,000288676;0,00526628;0,0135643;0,00317612;-0,0322663;0,0830777;-0,034383;0;-2,27165;-0,764293;-1080;1080;-600;1700;-10;10;-10;-0;0;-0;250;1,2;0,2;177;-1,2;-1;2555;0,07;2217;2998;8;56579;
23,3774;1,61559;-1,985;443;-200;2293;0;-0,245555;-0,185674;0,431324;-0,159845;-0,0425665;0,243991;0,177792;0,210717;-0,015;0,120181;0,154391;-0,583977;0;0;0;0;0;0;0,181919;0,211307;-0,0299874;0,130899;0,00518835;-0,579503;-0,68002;-0,511793;0,670638;-0,125374;-0,031283;-0,152652;-0,114135;0,00467364;0,00629223;0,0847753;-0,140445;-0;-0,0357646;-0,191791;4,31448;-0,000334192;0,000282698;0,0054223;0,0137563;0,00332422;-0,0323138;0,0837758;-0,0349066;0;-2,27165;-0,764293;-1080;1080;-600;1700;-10;10;-10;-0;0;-0;250;1,2;0,2;177;-1,2;-1;2555;0,07;2217;2998;8;56579;
23,3875;1,61559;-1,985;443;-200;2293;0;-0,245555;-0,185674;0,431324;-0,162339;-0,0444522;0,248371;0,177792;0,210717;-0,015;0,120181;0,154391;-0,583977;0;0;0;0;0;0;0,181886;0,211303;-0,0298598;0,130988;0,00518573;-0,579703;-0,68002;-0,511793;0,670638;-0,125374;-0,031283;-0,152652;-0,114135;0,00467364;0,00629223;0,0847753;-0,140445;-0;-0,0358221;-0,1921;4,30564;-0,000375705;0,000276768;0,00557495;0,0139476;0,00347202;-0,0324303;0,0837758;-0,0349066;0;-2,27165;-0,764293;-1080;1080;-600;1700;-10;10;-10;-0;0;-0;250;1,2;0,2;177;-1,2;-1;2555;0,07;2217;2998;8;56579;
23,3976;1,61559;-1,985;442;-201;2296;0;-0,244769;-0,18652;0,426111;-0,164796;-0,0463249;0,252649;0,177792;0,210717;-0,015;0,119602;0,154865;-0,578857;0;0;0;0;0;0;0,181855;0,211298;-0,0295904;0,131103;0,00511357;-0,575104;-0,678361;-0,515018;0,662959;-0,125166;-0,0316543;-0,152746;-0,114135;0,00467364;0,00629223;0,0847753;-0,140445;-0;-0,0387034;-0,195936;4,30574;-0,000416729;0,000270906;0,00572393;0,0141374;0,00361924;-0,0325546;0,0842994;-0,0356047;0;-2,27165;-0,764293;-1080;1080;-600;1700;-10;10;-10;-0;0;-0;250;1,2;0,2;177;-1,2;-1;2555;0,07;2217;2998;8;56579;
23,4075;2,00189;-1,914;392;-251;2289;0;-0,166713;-0,325616;0,438232;-0,166455;-0,0495657;0,257011;0,22224;0,245535;-0,086;0,0329332;0,27677;-0,578649;0;0;0;0;0;0;0,22803;0,250489;-0,10089;0,181079;0,145161;-0,572143;-0,549109;-0,640711;0,680877;-0,13378;-0,0488459;-0,140417;-0,132365;0,00515695;0,00860304;0,0793439;-0,126821;-0;-0,0377935;-0,200045;4,29834;-1,31386e-05;0,000613271;0,00516245;0,0148276;0,00516759;-0,0326475;0,0841249;-0,0363028;0;-2,30644;-0,741402;-1080;1080;-600;1700;-10;10;-10;-0;0;-0;250;1,2;0,2;177;-1,2;-1;2555;0,07;2222;3002;8;56579;
23,4174;2,00189;-1,914;358;-301;2289;0;-0,166713;-0,325616;0,438232;-0,168109;-0,0527962;0,261359;0,22224;0,245535;-0,086;0,0329332;0,27677;-0,578649;0;0;0;0;0;0;0,22826;0,250682;-0,101255;0,181069;0,145211;-0,572139;-0,462471;-0,767669;0,680877;-0,13378;-0,0488459;-0,140417;-0,132365;0,00515695;0,00860304;0,0793439;-0,126821;-0;-0,0376731;-0,199408;4,31589;0,000392681;0,000957313;0,00459561;0,01552;0,006724;-0,0327872;0,0841249;-0,0363028;0;-2,30644;-0,741402;-1080;1080;-600;1700;-10;10;-10;-0;0;-0;250;1,2;0,2;177;-1,2;-1;2555;0,07;2222;3002;8;56579;
