time ;e1;e2;ctrlpitch;ctrlroll;ctrlthrust;ctrlyaw;edx;edy;edz;cumulx;cumuly;cumulz;x_pred;y_pred;z_pred;dxr_pred;dyr_pred;dzr_pred;dxrT;dyrT;dzrT;dxrUn;dyrUn;dzrUn;x;y;z;dx;dy;dz;ux;uy;uz;dxd;dyd;dzd;Perpx;Tangx;Perpy;Tangy;Perpz;Tanz;ax;ay;az;pitch;roll;yaw;yawd;eyaw;kpvx;kpvy;kpvz;kpyaw;kivx;kivy;kivz;kdvx;kdvy;kdvz;kdyaw;ktg;veld;pitchoff;ke1;ke2;gravity;thr_vel;gps_accuracy;height_accuracy;gps_sat_num;gps_status
14,1647;1,18925;-1,92812;50;50;1450;0;-0,079475;0,0992835;-0,154358;-0,00028762;0,000359307;-0,000558623;0,0557936;0,0764777;-0,0718845;0;0;0;0;0;0;0;0;0;0,05556;0,0732915;-0,067;0;0;0;0,205665;0,0810057;2,82845;-0,079475;0,0992835;-0,154358;0,0546817;-0,0756315;0,0749537;0,0551762;-0,150424;-0;0;-0;9,81;0,0483456;-0,000872665;0;-2,20107;-0,807864;-1080;1080;-600;1700;-10;10;-10;-0;0;-0;250;-1,2;0,2;177;-1,2;-1;2555;0,07;1856;2054;10;56579;
14,1712;1,18771;-1,92712;100;100;1500;0;-0,0840159;0,0951237;-0,154573;-0,00082675;0,000969716;-0,00155052;0,0557936;0,0844161;-0,0728845;0;0;0;0;0;0;0;0;0;0,05556;0,0812299;-0,068;0;0;0;0,129036;0,167558;2,70047;-0,0840159;0,0951237;-0,154573;0,0511208;-0,0781464;0,0773463;0,0516497;-0,150432;-0;0,183732;-0,00665338;3,45649;0,0483456;-0,0010472;0;-2,15482;-0,834251;-1080;1080;-600;1700;-10;10;-10;-0;0;-0;250;-1,2;0,2;177;-1,2;-1;2555;0,07;1858;2053;10;56579;
14,1812;1,18771;-1,92712;150;102;1550;0;-0,0840133;0,0950709;-0,155853;-0,00166798;0,00192166;-0,00311107;0,0557936;0,0844161;-0,0728845;-2,55185e-06;7,98504e-05;0,00129664;0;0;0;0;0;0;0,05556;0,0812299;-0,068;0;0;0;0,0467625;0,176604;2,57249;-0,0840159;0,0951507;-0,154556;0,0511208;-0,0781464;0,0773463;0,0516497;-0,150432;-0;0,183741;-0,00776268;3,45615;0,0483456;-0,00122173;0;-2,15482;-0,834251;-1080;1080;-600;1700;-10;10;-10;-0;0;-0;250;-1,2;0,2;177;-1,2;-1;2555;0,07;1858;2053;10;56579;
14,1912;1,18771;-1,92712;200;102;1600;0;-0,0839104;0,0948944;-0,158286;-0,00251195;0,00287611;-0,00470312;0,0557937;0,0844162;-0,0728832;-7,83905e-05;0,000256351;0,00371522;0;0;0;0;0;0;0,05556;0,0812299;-0,068;0;0;0;-0,04112;0,182301;2,4445;-0,0839888;0,0951507;-0,154571;0,0511209;-0,0781464;0,0773462;0,0516497;-0,150432;-0;0,182687;-0,00776498;3,45427;0,0485202;-0,00122173;0;-2,15482;-0,83425;-1080;1080;-600;1700;-10;10;-10;-0;0;-0;250;-1,2;0,2;177;-1,2;-1;2555;0,07;1858;2053;10;56579;
14,2011;1,18771;-1,92712;250;102;1650;0;-0,0836912;0,0945947;-0,162714;-0,00333865;0,00381051;-0,0063104;0,0557941;0,0844165;-0,0728761;-0,000297179;0,000556013;0,00814236;0;0;0;0;0;0;0,05556;0,0812299;-0,068;0;0;0;-0,134569;0,187998;2,31652;-0,0839884;0,0951507;-0,154571;0,0511209;-0,0781461;0,0773459;0,0516498;-0,150432;-0;0,182789;-0,00776931;3,45073;0,0485202;-0,00122173;0;-2,15482;-0,834249;-1080;1080;-600;1700;-10;10;-10;-0;0;-0;250;-1,2;0,2;177;-1,2;-1;2555;0,07;1858;2053;10;56579;
14,211;1,18771;-1,92615;266;101;1700;0;-0,0832844;0,0942925;-0,168646;-0,00416591;0,00474712;-0,00798556;0,0557952;0,0844175;-0,0738549;-0,00073153;0,0009128;0,0141227;0;0;0;0;0;0;0,05556;0,0812299;-0,069;0;0;0;-0,169021;0,191797;2,18853;-0,0840159;0,0952053;-0,154523;0,0511359;-0,0781684;0,077368;0,0516649;-0,150399;-0;0,182973;-0,00888816;3,44432;0,0485202;-0,00139626;0;-2,15483;-0,834247;-1080;1080;-600;1700;-10;10;-10;-0;0;-0;250;-1,2;0,2;177;-1,2;-1;2555;0,07;1858;2053;10;56579;
14,2211;1,18771;-1,92619;266;101;1750;0;-0,0825281;0,0939258;-0,175977;-0,00499779;0,00569389;-0,0097594;0,0557971;0,0844199;-0,0738092;-0,00145929;0,00127832;0,0214377;0;0;0;0;0;0;0,05556;0,0812299;-0,069;0;0;0;-0,173993;0,197438;2,06055;-0,0839874;0,0952042;-0,154539;0,0511353;-0,0781672;0,0773668;0,0516644;-0,1504;-0;0,182108;-0,00890015;3,43574;0,0486947;-0,00139626;0;-2,15483;-0,834246;-1080;1080;-600;1700;-10;10;-10;-0;0;-0;250;-1,2;0,2;177;-1,2;-1;2555;0,07;1858;2053;10;56579;
14,231;1,18771;-1,92528;265;101;1800;0;-0,0815625;0,0935254;-0,184564;-0,005806;0,00662064;-0,0115882;0,0557994;0,0844248;-0,0747248;-0,00245162;0,00167657;0,0300383;0;0;0;0;0;0;0,05556;0,0812299;-0,07;0;0;0;-0,176954;0,203079;1,93256;-0,0840142;0,095202;-0,154526;0,0511485;-0,0781886;0,0773879;0,0516777;-0,150369;-0;0,182411;-0,00780058;3,42514;0,0486947;-0,00122173;0;-2,15482;-0,83425;-1080;1080;-600;1700;-10;10;-10;-0;0;-0;250;-1,2;0,2;177;-1,2;-1;2555;0,07;1858;2053;10;56579;
14,2411;1,18771;-1,92542;263;100;1850;0;-0,0803262;0,0930681;-0,194394;-0,00661802;0,00756146;-0,0135534;0,0558018;0,0844333;-0,0745845;-0,00368657;0,00212735;0,0398634;0;0;0;0;0;0;0,05556;0,0812299;-0,07;0;0;0;-0,177738;0,206655;1,80458;-0,0840128;0,0951954;-0,154531;0,0511442;-0,0781868;0,077386;0,0516735;-0,150374;-0;0,182765;-0,00781574;3,41273;0,0486947;-0,00122173;0;-2,15479;-0,834265;-1080;1080;-600;1700;-10;10;-10;-0;0;-0;250;-1,2;0,2;177;-1,2;-1;2555;0,07;1858;2053;10;56579;
14,2512;1,18771;-1,92563;262;100;1900;0;-0,0788315;0,0925536;-0,205164;-0,00740885;0,00848996;-0,0156116;0,0558033;0,084447;-0,074372;-0,00515414;0,00263016;0,050612;0;0;0;0;0;0;0,05556;0,0812299;-0,07;0;0;0;-0,18042;0,21224;1,67659;-0,0839856;0,0951837;-0,154552;0,0511361;-0,0781852;0,0773842;0,0516655;-0,150381;-0;0,182052;-0,00783308;3,39853;0,0488692;-0,00122173;0;-2,15473;-0,834299;-1080;1080;-600;1700;-10;10;-10;-0;0;-0;250;-1,2;0,2;177;-1,2;-1;2555;0,07;1858;2053;10;56579;
14,261;1,1877;-1,92494;260;99;1950;0;-0,077165;0,0919559;-0,216929;-0,00816808;0,00939471;-0,017746;0,0558031;0,0844678;-0,0750624;-0,00685132;0,00320934;0,0623823;0;0;0;0;0;0;0,05556;0,0812299;-0,071;0;0;0;-0,180813;0,215649;1,54861;-0,0840163;0,0951652;-0,154547;0,0511374;-0,0782071;0,0774055;0,051667;-0,150358;-0;0,182494;-0,00673036;3,38297;0,0488692;-0,0010472;0;-2,15462;-0,834363;-1080;1080;-600;1700;-10;10;-10;-0;0;-0;250;-1,2;0,2;177;-1,2;-1;2555;0,07;1858;2053;10;56579;
14,2711;1,1877;-1,92536;258;98;2000;0;-0,0752493;0,0912943;-0,229436;-0,00892862;0,0103174;-0,0200649;0,0557998;0,0844977;-0,0746368;-0,00877301;0,00384139;0,0748737;0;0;0;0;0;0;0,05556;0,0812299;-0,071;0;0;0;-0,180983;0,218945;1,42063;-0,0840223;0,0951357;-0,154562;0,0511162;-0,0782071;0,0774053;0,0516457;-0,150373;-0;0,182976;-0,00674816;3,36598;0,0488692;-0,0010472;0;-2,15443;-0,834467;-1080;1080;-600;1700;-10;10;-10;-0;0;-0;250;-1,2;0,2;177;-1,2;-1;2555;0,07;1858;2053;10;56579;
14,2811;1,18769;-1,92592;256;97;2050;0;-0,073141;0,0905625;-0,242434;-0,00965638;0,0112185;-0,0224771;0,0557921;0,0845388;-0,0740768;-0,0108927;0,00453088;0,0878524;0;0;0;0;0;0;0,05556;0,0812299;-0,071;0;0;0;-0,180929;0,22213;1,29264;-0,0840337;0,0950933;-0,154582;0,0510853;-0,0782092;0,0774068;0,0516148;-0,150392;-0;0,183489;-0,00676707;3,34792;0,0488692;-0,0010472;0;-2,15414;-0,834625;-1080;1080;-600;1700;-10;10;-10;-0;0;-0;250;-1,2;0,2;177;-1,2;-1;2555;0,07;1858;2053;10;56579;
14,2912;1,18768;-1,92666;253;97;2100;0;-0,070848;0,0897793;-0,256133;-0,0103722;0,0121256;-0,0250648;0,0557781;0,0845947;-0,0733434;-0,0132318;0,00528164;0,101556;0;0;0;0;0;0;0,05556;0,0812299;-0,071;0;0;0;-0,178306;0,227548;1,16466;-0,0840797;0,0950609;-0,154577;0,0510415;-0,0782142;0,0774111;0,051571;-0,150417;-0;0,185153;-0,00791785;3,32915;0,0486947;-0,00122173;0;-2,15372;-0,834856;-1080;1080;-600;1700;-10;10;-10;-0;0;-0;250;-1,2;0,2;177;-1,2;-1;2555;0,07;1858;2053;10;56579;
14,3011;1,18767;-1,92757;250;96;2150;0;-0,0683332;0,0888698;-0,270119;-0,011052;0,0130097;-0,0277522;0,055756;0,0846677;-0,0724258;-0,0157753;0,00611198;0,115509;0;0;0;0;0;0;0,05556;0,0812299;-0,071;0;0;0;-0,175348;0,230566;1,03667;-0,0841085;0,0949818;-0,15461;0,0509826;-0,0782231;0,0774191;0,051512;-0,150448;-0;0,185718;-0,00794203;3,30936;0,0486947;-0,00122173;0;-2,15314;-0,835174;-1080;1080;-600;1700;-10;10;-10;-0;0;-0;250;-1,2;0,2;177;-1,2;-1;2555;0,07;1858;2053;10;56579;
14,3111;1,18765;-1,92772;248;95;2200;0;-0,0656785;0,0879302;-0,284447;-0,011706;0,0138852;-0,0305845;0,0557234;0,084762;-0,0722829;-0,0185105;0,00701823;0,12986;0;0;0;0;0;0;0,05556;0,0812299;-0,072;0;0;0;-0,174511;0,233472;0,908689;-0,084189;0,0949485;-0,154587;0,0509196;-0,0782601;0,0774549;0,051449;-0,150454;-0;0,187433;-0,00910481;3,28916;0,0485202;-0,00139626;0;-2,15236;-0,835603;-1080;1080;-600;1700;-10;10;-10;-0;0;-0;250;-1,2;0,2;177;-1,2;-1;2555;0,07;1858;2053;10;56579;
14,3211;1,18763;-1,92909;244;93;2250;0;-0,0628153;0,0867952;-0,298831;-0,0123364;0,0147564;-0,0335838;0,0556782;0,0848803;-0,0709066;-0,0214304;0,00802127;0,144194;0;0;0;0;0;0;0,05556;0,0812299;-0,072;0;0;0;-0,168425;0,233754;0,780705;-0,0842458;0,0948165;-0,154637;0,0508201;-0,0782808;0,0774741;0,0513492;-0,150501;-0;0,188028;-0,00913371;3,26846;0,0485202;-0,00139626;0;-2,15135;-0,836158;-1080;1080;-600;1700;-10;10;-10;-0;0;-0;250;-1,2;0,2;177;-1,2;-1;2555;0,07;1858;2053;10;56579;
14,3311;1,1887;-1,92874;251;81;2300;0;-0,0690382;0,0757419;-0,313594;-0,0130273;0,0155144;-0,036722;0,0445057;0,0862456;-0,0712619;-0,0245357;0,00910815;0,158532;0;0;0;0;0;0;0,044448;0,0824484;-0,074;0;0;0;-0,19015;0,20813;0,65272;-0,0935739;0,0848501;-0,155063;0,0425237;-0,0831881;0,0824046;0,042928;-0,15046;-0;0,188625;-0,00916272;3,24768;0,0485202;-0,00139626;0;-2,04719;-0,888655;-1080;1080;-600;1700;-10;10;-10;-0;0;-0;250;-1,2;0,2;177;-1,2;-1;2555;0,07;1858;2053;10;56579;
14,3411;1,18867;-1,92969;248;80;2350;0;-0,0659346;0,0744336;-0,327897;-0,0136878;0,01626;-0,0400068;0,044427;0,086426;-0,0703148;-0,0277699;0,0102594;0,172828;0;0;0;0;0;0;0,044448;0,0824484;-0,075;0;0;0;-0,18641;0,21003;0,524736;-0,0937045;0,084693;-0,15507;0,0423815;-0,0832328;0,0824468;0,0427855;-0,150493;-0;0,190387;-0,0103416;3,22635;0,0483456;-0,0015708;0;-2,04562;-0,889374;-1080;1080;-600;1700;-10;10;-10;-0;0;-0;250;-1,2;0,2;177;-1,2;-1;2555;0,07;1858;2053;10;56579;
14,3511;1,18863;-1,93195;244;79;2400;0;-0,0625752;0,0731293;-0,341983;-0,0143125;0,01699;-0,0434205;0,0443272;0,086644;-0,0680499;-0,0312218;0,0113099;0,186831;0;0;0;0;0;0;0,044448;0,0824484;-0,075;0;0;0;-0,179654;0,211819;0,396751;-0,093797;0,0844392;-0,155152;0,0421928;-0,0832607;0,082472;0,0425963;-0,15057;-0;0,190985;-0,010374;3,20568;0,0483456;-0,0015708;0;-2,04368;-0,890258;-1080;1080;-600;1700;-10;10;-10;-0;0;-0;250;-1,2;0,2;177;-1,2;-1;2555;0,07;1858;2053;10;56579;
14,361;1,18859;-1,93456;240;77;2450;0;-0,0590885;0,0716991;-0,35571;-0,0148974;0,0176998;-0,0469417;0,0442023;0,0869039;-0,0654384;-0,0348249;0,0124349;0,200462;0;0;0;0;0;0;0,044448;0,0824484;-0,075;0;0;0;-0,17245;0,21076;0,268767;-0,0939134;0,084134;-0,155247;0,0419652;-0,0832975;0,0825057;0,0423679;-0,150659;-0;0,191574;-0,010406;3,18531;0,0483456;-0,0015708;0;-2,04133;-0,891328;-1080;1080;-600;1700;-10;10;-10;-0;0;-0;250;-1,2;0,2;177;-1,2;-1;2555;0,07;1858;2053;10;56579;
14,3711;1,18854;-1,93754;237;75;2500;0;-0,0555763;0,0700627;-0,368905;-0,0154575;0,0184059;-0,0506599;0,0440488;0,08721;-0,0624643;-0,0385074;0,0136823;0,21355;0;0;0;0;0;0;0,044448;0,0824484;-0,075;0;0;0;-0,167592;0,209477;0,140783;-0,0940836;0,083745;-0,155355;0,0416946;-0,0833447;0,0825491;0,0420965;-0,150761;-0;0,193307;-0,00927752;3,16546;0,0481711;-0,00139626;0;-2,03851;-0,892603;-1080;1080;-600;1700;-10;10;-10;-0;0;-0;250;-1,2;0,2;177;-1,2;-1;2555;0,07;1858;2053;10;56579;
14,3811;1,18849;-1,93988;233;74;2550;0;-0,0519806;0,06838;-0,381352;-0,0159782;0,0190909;-0,0544799;0,0438637;0,0875667;-0,0601177;-0,042307;0,0149662;0,225907;0;0;0;0;0;0;0,044448;0,0824484;-0,076;0;0;0;-0,15955;0,210818;0,0127984;-0,0942876;0,0833463;-0,155445;0,0413896;-0,0834277;0,0826275;0,0417904;-0,150841;-0;0,193862;-0,00930417;3,14638;0,0481711;-0,00139626;0;-2,03518;-0,894099;-1080;1080;-600;1700;-10;10;-10;-0;0;-0;250;-1,2;0,2;177;-1,2;-1;2555;0,07;1858;2053;10;56579;
14,3911;1,18843;-1,94367;229;72;2600;0;-0,0483203;0,0665174;-0,393268;-0,0164585;0,019752;-0,0583886;0,0436412;0,0879842;-0,0563262;-0,0462013;0,016333;0,2377;0;0;0;0;0;0;0,044448;0,0824484;-0,076;0;0;0;-0,151061;0,209145;-0,115186;-0,0945216;0,0828503;-0,155568;0,0410172;-0,0834994;0,082694;0,0414167;-0,15097;-0;0,195552;-0,00932932;3,12836;0,0479966;-0,00139626;0;-2,03125;-0,895852;-1080;1080;-600;1700;-10;10;-10;-0;0;-0;250;-1,2;0,2;177;-1,2;-1;2555;0,07;1858;2053;10;56579;
14,4011;1,18835;-1,94788;225;69;2650;0;-0,0445619;0,0644834;-0,404249;-0,0169043;0,0203972;-0,0624331;0,0433792;0,0884641;-0,0521183;-0,050202;0,0177971;0,248526;0;0;0;0;0;0;0,044448;0,0824484;-0,076;0;0;0;-0,142124;0,204287;-0,24317;-0,0947639;0,0822805;-0,155723;0,0405887;-0,0835848;0,0827734;0,0409866;-0,151112;-0;0,196057;-0,00935341;3,11111;0,0479966;-0,00139626;0;-2,0267;-0,897863;-1080;1080;-600;1700;-10;10;-10;-0;0;-0;250;-1,2;0,2;177;-1,2;-1;2555;0,07;1858;2053;10;56579;
14,4111;1,18827;-1,95251;221;67;2700;0;-0,040807;0,0622882;-0,414143;-0,0173143;0,0210229;-0,0665936;0,0430742;0,0890116;-0,0474876;-0,0542367;0,0193439;0,258249;0;0;0;0;0;0;0,044448;0,0824484;-0,076;0;0;0;-0,13274;0,20211;-0,371155;-0,0950437;0,0816321;-0,155894;0,0401005;-0,0836847;0,0828664;0,0404965;-0,151268;-0;0,196522;-0,00937562;3,0952;0,0479966;-0,00139626;0;-2,0215;-0,900143;-1080;1080;-600;1700;-10;10;-10;-0;0;-0;250;-1,2;0,2;177;-1,2;-1;2555;0,07;1858;2053;10;56579;
14,4211;1,18817;-1,95762;217;64;2750;0;-0,0369851;0,059854;-0,422997;-0,0176821;0,0216182;-0,0708007;0,0427208;0,0896365;-0,0423837;-0,0583521;0,021014;0,266884;0;0;0;0;0;0;0,044448;0,0824484;-0,076;0;0;0;-0,122909;0,196638;-0,499139;-0,0953372;0,0808679;-0,156113;0,0395454;-0,0838001;0,0829738;0,0399392;-0,15144;-0;0,195768;-0,0082212;3,08086;0,0481711;-0,00122173;0;-2,01555;-0,902717;-1080;1080;-600;1700;-10;10;-10;-0;0;-0;250;-1,2;0,2;177;-1,2;-1;2555;0,07;1858;2053;10;56579;
14,4312;1,18806;-1,9632;213;62;2800;0;-0,0332557;0,0573761;-0,43061;-0,0180189;0,0221993;-0,0751619;0,042315;0,0903451;-0,0367988;-0,0624447;0,0226886;0,274305;0;0;0;0;0;0;0,044448;0,0824484;-0,076;0;0;0;-0,11263;0,193959;-0,627123;-0,0957005;0,0800647;-0,156304;0,0389197;-0,0839312;0,0830958;0,0393109;-0,151626;-0;0,196142;-0,00941359;3,06801;0,0481711;-0,00139626;0;-2,00882;-0,905591;-1080;1080;-600;1700;-10;10;-10;-0;0;-0;250;-1,2;0,2;177;-1,2;-1;2555;0,07;1858;2053;10;56579;
14,4411;1,18793;-1,96923;209;59;2817;0;-0,0296138;0,0546662;-0,436744;-0,0183139;0,0227437;-0,0795114;0,0418556;0,0911389;-0,0307744;-0,0664912;0,0244754;0,280218;0;0;0;0;0;0;0,044448;0,0824484;-0,076;0;0;0;-0,100724;0,185696;-0,670638;-0,096105;0,0791416;-0,156526;0,0382242;-0,0840773;0,0832317;0,0386126;-0,151827;-0;0,196464;-0,00942904;3,05694;0,0481711;-0,00139626;0;-2,00132;-0,908749;-1080;1080;-600;1700;-10;10;-10;-0;0;-0;250;-1,2;0,2;177;-1,2;-1;2555;0,07;1858;2053;10;56579;
14,4511;1,18778;-1,97578;205;56;2820;0;-0,0259715;0,0516689;-0,441563;-0,0185734;0,0232601;-0,0839244;0,04128;0,0920637;-0,0242217;-0,0706035;0,0263784;0,284777;0;0;0;0;0;0;0,044448;0,0824484;-0,076;0;0;0;-0,0882284;0,176444;-0,678317;-0,096575;0,0780474;-0,156786;0,0373973;-0,0842623;0,0834045;0,0377819;-0,152044;-0;0,195544;-0,00944152;3,04801;0,0483456;-0,00139626;0;-1,99231;-0,912472;-1080;1080;-600;1700;-10;10;-10;-0;0;-0;250;-1,2;0,2;177;-1,2;-1;2555;0,07;1858;2053;10;56579;
14,4611;1,18752;-1,98297;202;51;2823;0;-0,0234366;0,0472362;-0,44622;-0,0188076;0,023732;-0,0883822;0,0412012;0,0932661;-0,0170333;-0,0733512;0,0300384;0,289183;0;0;0;0;0;0;0,044448;0,0824484;-0,076;0;0;0;-0,0788596;0,160863;-0,685996;-0,0967878;0,0772746;-0,157037;0,0368516;-0,0842964;0,08342;0,0372388;-0,152284;-0;0,195748;-0,00945136;3,04096;0,0483456;-0,00139626;0;-1,98678;-0,91472;-1080;1080;-600;1700;-10;10;-10;-0;0;-0;250;-1,2;0,2;177;-1,2;-1;2555;0,07;1858;2053;10;56579;
14,471;1,18752;-1,97828;201;50;2803;0;-0,0222148;0,0463956;-0,412784;-0,0190276;0,0241916;-0,0924708;0,0400357;0,093811;-0,0217163;-0,0756868;0,029661;0,255842;0;0;0;0;0;0;0,044448;0,0824484;-0,076;0;0;0;-0,075169;0,156592;-0,634802;-0,0979016;0,0760566;-0,156942;0,0358455;-0,0848756;0,0839926;0,0362223;-0,152133;-0;0,195945;-0,00946087;3,03415;0,0483456;-0,00139626;0;-1,97417;-0,919744;-1080;1080;-600;1700;-10;10;-10;-0;0;-0;250;-1,2;0,2;177;-1,2;-1;2555;0,07;1858;2053;10;56579;
14,4811;1,18752;-1,97588;199;49;2786;0;-0,0207956;0,0458585;-0,384932;-0,0192374;0,0246543;-0,0963547;0,0387897;0,0942949;-0,024119;-0,0781808;0,0288451;0,228015;0;0;0;0;0;0;0,044448;0,0824484;-0,076;0;0;0;-0,0684872;0,15253;-0,591288;-0,0989764;0,0747037;-0,156917;0,0347666;-0,0854028;0,0845149;0,0351318;-0,152055;-0;0,194556;-0,00939379;3,08219;0,0483456;-0,00139626;0;-1,96106;-0,924808;-1080;1080;-600;1700;-10;10;-10;-0;0;-0;250;-1,2;0,2;177;-1,2;-1;2555;0,07;1858;2053;10;56579;
14,4912;1,18755;-1,97109;199;49;2769;0;-0,0207045;0,0456546;-0,355461;-0,019446;0,0251142;-0,0999353;0,0377858;0,0945874;-0,0289078;-0,0792236;0,0280168;0,198659;0;0;0;0;0;0;0,044448;0,0824484;-0,077;0;0;0;-0,0680693;0,1516;-0,547773;-0,0999281;0,0736714;-0,156802;0,0339502;-0,0858768;0,0849858;0,0343061;-0,151898;-0;0,194565;-0,00817068;3,1222;0,0481711;-0,00122173;0;-1,95085;-0,928643;-1080;1080;-600;1700;-10;10;-10;-0;0;-0;250;-1,2;0,2;177;-1,2;-1;2555;0,07;1858;2053;10;56579;
14,5011;1,18759;-1,96604;200;49;2751;0;-0,0218829;0,0458318;-0,32508;-0,0196637;0,0255702;-0,10317;0,0371388;0,094661;-0,0339622;-0,0786892;0,0272202;0,1684;0;0;0;0;0;0;0,044448;0,0824484;-0,077;0;0;0;-0,0707006;0,150614;-0,501699;-0,100572;0,073052;-0,15668;0,033475;-0,0862139;0,0853224;0,0338247;-0,151732;-0;0,193333;-0,0069591;3,16455;0,0481711;-0,0010472;0;-1,94468;-0,930917;-1080;1080;-600;1700;-10;10;-10;-0;0;-0;250;-1,2;0,2;177;-1,2;-1;2555;0,07;1858;2053;10;56579;
14,511;1,1876;-1,96102;203;49;2733;0;-0,0240153;0,045793;-0,296392;-0,0199005;0,0260217;-0,106092;0,0369337;0,094706;-0,0389778;-0,0768717;0,0271457;0,139862;0;0;0;0;0;0;0,044448;0,0824484;-0,077;0;0;0;-0,0793991;0,149629;-0,455624;-0,100887;0,0729387;-0,15653;0,0333499;-0,0864094;0,0855165;0,0336981;-0,151567;-0;0,192063;-0,00691337;3,20822;0,0481711;-0,0010472;0;-1,94264;-0,93166;-1080;1080;-600;1700;-10;10;-10;-0;0;-0;250;-1,2;0,2;177;-1,2;-1;2555;0,07;1858;2053;10;56579;
14,5211;1,18759;-1,95611;205;49;2717;0;-0,0265075;0,0456765;-0,26949;-0,0201689;0,0264843;-0,108821;0,0369177;0,094745;-0,0438852;-0,0746038;0,0273436;0,113143;0;0;0;0;0;0;0,044448;0,0824484;-0,077;0;0;0;-0,0850059;0,148753;-0,414669;-0,101111;0,07302;-0,156348;0,0333733;-0,0865435;0,0856486;0,0337219;-0,151405;-0;0,192008;-0,00801522;3,24945;0,0479966;-0,00122173;0;-1,94235;-0,931764;-1080;1080;-600;1700;-10;10;-10;-0;0;-0;250;-1,2;0,2;177;-1,2;-1;2555;0,07;1858;2053;10;56579;
14,5312;1,18759;-1,95027;208;49;2702;0;-0,028971;0,0456501;-0,244249;-0,0204592;0,0269416;-0,111269;0,0369389;0,0947547;-0,049733;-0,0723766;0,0274738;0,0881026;0;0;0;0;0;0;0,044448;0,0824484;-0,078;0;0;0;-0,0935936;0,147931;-0,376274;-0,101348;0,0731238;-0,156146;0,0334441;-0,0866866;0,08579;0,0337936;-0,151212;-0;0,192014;-0,00796798;3,28812;0,047822;-0,00122173;0;-1,94251;-0,931706;-1080;1080;-600;1700;-10;10;-10;-0;0;-0;250;-1,2;0,2;177;-1,2;-1;2555;0,07;1858;2053;10;56579;
14,5412;1,18759;-1,94556;210;49;2688;0;-0,031257;0,0456987;-0,220752;-0,0207718;0,0273986;-0,113476;0,0369786;0,0947446;-0,0544409;-0,0702316;0,0275501;0,0647558;0;0;0;0;0;0;0,044448;0,0824484;-0,078;0;0;0;-0,0991152;0,147165;-0,340438;-0,101489;0,0732489;-0,155996;0,0335246;-0,0867928;0,085895;0,033875;-0,151055;-0;0,190946;-0,00792365;3,3244;0,047822;-0,00122173;0;-1,94291;-0,931561;-1080;1080;-600;1700;-10;10;-10;-0;0;-0;250;-1,2;0,2;177;-1,2;-1;2555;0,07;1858;2053;10;56579;
14,5511;1,18759;-1,941;213;49;2675;0;-0,0333629;0,0458251;-0,198939;-0,0211054;0,0278568;-0,115465;0,0370213;0,0947282;-0,0589958;-0,0682454;0,0275703;0,0430898;0;0;0;0;0;0;0,044448;0,0824484;-0,078;0;0;0;-0,107602;0,146453;-0,307162;-0,101608;0,0733954;-0,155849;0,0336082;-0,0868935;0,0859947;0,0339594;-0,150903;-0;0,189951;-0,00788238;3,35818;0,047822;-0,00122173;0;-1,94336;-0,931397;-1080;1080;-600;1700;-10;10;-10;-0;0;-0;250;-1,2;0,2;177;-1,2;-1;2555;0,07;1858;2053;10;56579;
14,5612;1,18759;-1,93555;215;50;2663;0;-0,0354557;0,0460792;-0,178694;-0,02146;0,0283177;-0,117253;0,0370973;0,0946699;-0,0644463;-0,0662547;0,027486;0,0229922;0;0;0;0;0;0;0,044448;0,0824484;-0,079;0;0;0;-0,11307;0,148771;-0,276446;-0,10171;0,0735652;-0,155702;0,0337399;-0,0870016;0,0861022;0,0340924;-0,15072;-0;0,187908;-0,00672349;3,38954;0,0479966;-0,0010472;0;-1,94427;-0,931067;-1080;1080;-600;1700;-10;10;-10;-0;0;-0;250;-1,2;0,2;177;-1,2;-1;2555;0,07;1858;2053;10;56579;
14,5712;1,18673;-1,93028;208;62;2651;0;-0,0292782;0,0572578;-0,159684;-0,0217531;0,0288909;-0,118851;0,0483471;0,0933747;-0,0697213;-0,0643956;0,027322;0,00453396;0;0;0;0;0;0;0,05556;0,0812299;-0,08;0;0;0;-0,091827;0,183637;-0,24573;-0,0936737;0,0845798;-0,15515;0,0425622;-0,083121;0,082202;0,043038;-0,150565;-0;0,187056;-0,00669301;3,41865;0,0479966;-0,0010472;0;-2,04856;-0,888024;-1080;1080;-600;1700;-10;10;-10;-0;0;-0;250;-1,2;0,2;177;-1,2;-1;2555;0,07;1859;2053;10;56579;
14,5811;1,18673;-1,9262;210;62;2641;0;-0,0310066;0,0576473;-0,142676;-0,0220628;0,0294667;-0,120276;0,0484847;0,0932927;-0,0737981;-0,0626956;0,027125;-0,0123514;0;0;0;0;0;0;0,05556;0,0812299;-0,08;0;0;0;-0,0973822;0,182944;-0,220133;-0,0937022;0,0847723;-0,155028;0,0427383;-0,0831549;0,0822357;0,043216;-0,150427;-0;0,186256;-0,00555365;3,44598;0,0479966;-0,000872665;0;-2,05008;-0,887324;-1080;1080;-600;1700;-10;10;-10;-0;0;-0;250;-1,2;0,2;177;-1,2;-1;2555;0,07;1859;2053;10;56579;
14,5912;1,18674;-1,92231;212;62;2632;0;-0,0326789;0,0577182;-0,127278;-0,0223901;0,0300448;-0,121551;0,0486481;0,093185;-0,077693;-0,0609883;0,0273384;-0,0276154;0;0;0;0;0;0;0,05556;0,0812299;-0,08;0;0;0;-0,102932;0,182321;-0,197096;-0,0936671;0,0850565;-0,154893;0,0429398;-0,0831698;0,0822508;0,0434195;-0,150295;-0;0,185541;-0,00553231;3,47044;0,0479966;-0,000872665;0;-2,05193;-0,886469;-1080;1080;-600;1700;-10;10;-10;-0;0;-0;250;-1,2;0,2;177;-1,2;-1;2555;0,07;1859;2053;10;56579;
14,6011;1,18675;-1,91863;214;62;2624;0;-0,0342474;0,0579054;-0,11337;-0,0227308;0,0306208;-0,122679;0,0488079;0,0930584;-0,0813699;-0,0594145;0,0274454;-0,0413647;0;0;0;0;0;0;0,05556;0,0812299;-0,08;0;0;0;-0,108482;0,181767;-0,176618;-0,0936619;0,0853508;-0,154734;0,0431433;-0,0831765;0,0822581;0,043625;-0,150169;-0;0,185995;-0,00661559;3,49258;0,047822;-0,0010472;0;-2,05384;-0,885585;-1080;1080;-600;1700;-10;10;-10;-0;0;-0;250;-1,2;0,2;177;-1,2;-1;2555;0,07;1859;2053;10;56579;
14,611;1,18676;-1,91518;215;63;2616;0;-0,0356615;0,058193;-0,100997;-0,0230848;0,0311985;-0,123681;0,0489666;0,0929103;-0,0848233;-0,0579532;0,0274557;-0,0536012;0;0;0;0;0;0;0,05556;0,0812299;-0,08;0;0;0;-0,111074;0,184135;-0,156141;-0,0936147;0,0856487;-0,154598;0,0433516;-0,0831736;0,0822562;0,0438351;-0,150051;-0;0,185406;-0,00769376;3,51257;0,047822;-0,00122173;0;-2,05583;-0,884657;-1080;1080;-600;1700;-10;10;-10;-0;0;-0;250;-1,2;0,2;177;-1,2;-1;2555;0,07;1859;2053;10;56579;
14,6211;1,18677;-1,91096;217;63;2610;0;-0,0369684;0,0585956;-0,0900589;-0,0234569;0,0317882;-0,124588;0,0491976;0,0927395;-0,0890376;-0,0565494;0,0273974;-0,0644067;0;0;0;0;0;0;0,05556;0,0812299;-0,081;0;0;0;-0,116652;0,183712;-0,140783;-0,0935178;0,0859929;-0,154466;0,0436283;-0,0831575;0,082241;0,0441144;-0,149906;-0;0,183787;-0,00767202;3,53036;0,0479966;-0,00122173;0;-2,05854;-0,883393;-1080;1080;-600;1700;-10;10;-10;-0;0;-0;250;-1,2;0,2;177;-1,2;-1;2555;0,07;1859;2053;10;56579;
14,6311;1,18681;-1,90793;218;64;2604;0;-0,0380323;0,0593463;-0,0803755;-0,023838;0,032383;-0,125393;0,0493385;0,0924851;-0,0920679;-0,0553801;0,0269598;-0,0739792;0;0;0;0;0;0;0,05556;0,0812299;-0,081;0;0;0;-0,119293;0,186199;-0,125425;-0,0934124;0,0863061;-0,154355;0,0438595;-0,0831281;0,0822147;0,0443468;-0,1498;-0;0,183326;-0,00765281;3,54609;0,0479966;-0,00122173;0;-2,06086;-0,882301;-1080;1080;-600;1700;-10;10;-10;-0;0;-0;250;-1,2;0,2;177;-1,2;-1;2555;0,07;1859;2053;10;56579;
14,6411;1,1868;-1,90424;219;64;2599;0;-0,0390611;0,0594959;-0,0723555;-0,0242257;0,0329734;-0,126111;0,0496201;0,092382;-0,0957595;-0,0542377;0,0271975;-0,0818508;0;0;0;0;0;0;0,05556;0,0812299;-0,082;0;0;0;-0,121967;0,185841;-0,112626;-0,0932987;0,0866934;-0,154206;0,0441398;-0,0830925;0,0821788;0,0446306;-0,149673;-0;0,182919;-0,00872662;3,56001;0,0479966;-0,00139626;0;-2,0637;-0,880964;-1080;1080;-600;1700;-10;10;-10;-0;0;-0;250;-1,2;0,2;177;-1,2;-1;2555;0,07;1859;2053;10;56579;
14,6511;1,18679;-1,90082;220;64;2595;0;-0,0399629;0,0596513;-0,0657927;-0,0246276;0,0335734;-0,126773;0,0499082;0,0922686;-0,0991777;-0,0531771;0,0274055;-0,0883048;0;0;0;0;0;0;0,05556;0,0812299;-0,083;0;0;0;-0,124679;0,185555;-0,102387;-0,09314;0,0870569;-0,154098;0,0444248;-0,083045;0,0821311;0,0449191;-0,149555;-0;0,181493;-0,00871052;3,57154;0,0481711;-0,00139626;0;-2,06663;-0,879574;-1080;1080;-600;1700;-10;10;-10;-0;0;-0;250;-1,2;0,2;177;-1,2;-1;2555;0,07;1859;2053;10;56579;
14,6611;1,18679;-1,8987;221;65;2592;0;-0,0407565;0,0598834;-0,0606569;-0,0250366;0,0341744;-0,127382;0,0501893;0,092132;-0,101304;-0,0522485;0,0275181;-0,0933271;0;0;0;0;0;0;0,05556;0,0812299;-0,083;0;0;0;-0,12743;0,188236;-0,0947084;-0,093005;0,0874014;-0,153984;0,0446968;-0,0829629;0,0820497;0,0451943;-0,149481;-0;0,182305;-0,00978452;3,58098;0,0479966;-0,0015708;0;-2,0696;-0,878154;-1080;1080;-600;1700;-10;10;-10;-0;0;-0;250;-1,2;0,2;177;-1,2;-1;2555;0,07;1859;2053;10;56579;
14,6711;1,18679;-1,89686;221;65;2590;0;-0,0413277;0,0601327;-0,0568686;-0,0254495;0,0347751;-0,12795;0,0504434;0,0920026;-0,103137;-0,0514973;0,0275879;-0,0970424;0;0;0;0;0;0;0,05556;0,0812299;-0,083;0;0;0;-0,127332;0,188091;-0,089589;-0,092825;0,0877206;-0,153911;0,0449438;-0,0828845;0,081972;0,0454441;-0,149418;-0;0,182089;-0,00977293;3,58836;0,0479966;-0,0015708;0;-2,07232;-0,876851;-1080;1080;-600;1700;-10;10;-10;-0;0;-0;250;-1,2;0,2;177;-1,2;-1;2555;0,07;1859;2053;10;56579;
14,6811;1,18678;-1,89334;222;65;2588;0;-0,0418168;0,0603863;-0,0543698;-0,0258683;0,0353799;-0,128494;0,0506968;0,0918829;-0,106665;-0,0508998;0,0277009;-0,0993971;0;0;0;0;0;0;0,05556;0,0812299;-0,085;0;0;0;-0,130125;0,187945;-0,0844697;-0,0927166;0,0880872;-0,153767;0,0452089;-0,0828491;0,0819367;0,0457124;-0,149295;-0;0,18193;-0,0108493;3,5938;0,0479966;-0,00174533;0;-2,07499;-0,875566;-1080;1080;-600;1700;-10;10;-10;-0;0;-0;250;-1,2;0,2;177;-1,2;-1;2555;0,07;1859;2053;10;56579;
14,6911;1,18679;-1,89114;222;65;2588;0;-0,0422153;0,0606948;-0,053291;-0,0262897;0,0359858;-0,129026;0,0509409;0,0917343;-0,108857;-0,0503878;0,0276862;-0,100376;0;0;0;0;0;0;0,05556;0,0812299;-0,086;0;0;0;-0,130125;0,187945;-0,0844697;-0,0926031;0,088381;-0,153667;0,0454612;-0,0827777;0,0818663;0,0459673;-0,149218;-0;0,182909;-0,0108431;3,59738;0,047822;-0,00174533;0;-2,07771;-0,874248;-1080;1080;-600;1700;-10;10;-10;-0;0;-0;250;-1,2;0,2;177;-1,2;-1;2555;0,07;1859;2053;10;56579;
14,701;1,18679;-1,88927;223;66;2588;0;-0,0424464;0,0610438;-0,0534975;-0,0267094;0,0365893;-0,129555;0,0511636;0,0915808;-0,110734;-0,0500309;0,027598;-0,100095;0;0;0;0;0;0;0,05556;0,0812299;-0,087;0;0;0;-0,133016;0,190836;-0,0844697;-0,0924773;0,0886418;-0,153592;0,0456965;-0,0827051;0,0817949;0,0462049;-0,149152;-0;0,183947;-0,00975633;3,59892;0,0476475;-0,0015708;0;-2,08027;-0,873;-1080;1080;-600;1700;-10;10;-10;-0;0;-0;250;-1,2;0,2;177;-1,2;-1;2555;0,07;1859;2053;10;56579;
14,711;1,1868;-1,88874;223;66;2589;0;-0,0424572;0,061327;-0,0550321;-0,027135;0,0372041;-0,130107;0,0513641;0,0914463;-0,11126;-0,0498333;0,0275573;-0,0985324;0;0;0;0;0;0;0,05556;0,0812299;-0,087;0;0;0;-0,133068;0,19091;-0,0870294;-0,0922905;0,0888843;-0,153564;0,0458913;-0,0826115;0,0817028;0,0464018;-0,149134;-0;0,183956;-0,00975682;3,59861;0,0476475;-0,0015708;0;-2,08257;-0,871878;-1080;1080;-600;1700;-10;10;-10;-0;0;-0;250;-1,2;0,2;177;-1,2;-1;2555;0,07;1859;2053;10;56579;
14,7211;1,18681;-1,88758;223;66;2591;0;-0,0423623;0,0616769;-0,0578386;-0,0275594;0,037822;-0,130686;0,0515466;0,0912952;-0,112423;-0,0497824;0,0274421;-0,0956774;0;0;0;0;0;0;0,05556;0,0812299;-0,088;0;0;0;-0,133171;0,191057;-0,0921487;-0,0921447;0,089119;-0,153516;0,046089;-0,0825363;0,081629;0,0466012;-0,149093;-0;0,184022;-0,00976031;3,59639;0,0476475;-0,0015708;0;-2,08479;-0,870788;-1080;1080;-600;1700;-10;10;-10;-0;0;-0;250;-1,2;0,2;177;-1,2;-1;2555;0,07;1859;2053;10;56579;
14,7311;1,18778;-1,88678;232;55;2593;0;-0,0506773;0,0513828;-0,0623007;-0,0280705;0,0383402;-0,131315;0,0405338;0,0923925;-0,113224;-0,0499533;0,0273284;-0,091576;0;0;0;0;0;0;0,044448;0,0824484;-0,089;0;0;0;-0,159344;0,159344;-0,0972681;-0,100631;0,0787112;-0,153877;0,0376938;-0,0868026;0,085919;0,0380815;-0,149038;-0;0,185227;-0,00868149;3,59234;0,047473;-0,00139626;0;-1,98422;-0,915749;-1080;1080;-600;1700;-10;10;-10;-0;0;-0;250;-1,2;0,2;177;-1,2;-1;2555;0,07;1862;2054;10;56579;
14,7411;1,18781;-1,88733;231;56;2596;0;-0,0502995;0,0516313;-0,0675529;-0,0285722;0,0388552;-0,131989;0,0406072;0,0922622;-0,112672;-0,0502331;0,0271776;-0,0863378;0;0;0;0;0;0;0,044448;0,0824484;-0,089;0;0;0;-0,156628;0,162428;-0,104947;-0,100533;0,0788089;-0,153891;0,0377901;-0,086743;0,0858616;0,0381781;-0,149056;-0;0,185419;-0,00869048;3,5859;0,047473;-0,00139626;0;-1,98541;-0,915272;-1080;1080;-600;1700;-10;10;-10;-0;0;-0;250;-1,2;0,2;177;-1,2;-1;2555;0,07;1862;2054;10;56579;
14,7511;1,18783;-1,88803;231;56;2600;0;-0,0497484;0,052269;-0,0732089;-0,0290702;0,0393784;-0,132721;0,0406493;0,0921411;-0,111967;-0,0506925;0,0266183;-0,0807015;0;0;0;0;0;0;0,044448;0,0824484;-0,089;0;0;0;-0,15687;0,162679;-0,115186;-0,100441;0,0788873;-0,15391;0,0378572;-0,0866915;0,0858122;0,0382451;-0,14908;-0;0,185645;-0,00870107;3,57832;0,047473;-0,00139626;0;-1,98628;-0,914922;-1080;1080;-600;1700;-10;10;-10;-0;0;-0;250;-1,2;0,2;177;-1,2;-1;2555;0,07;1862;2054;10;56579;
14,7611;1,18786;-1,88882;230;57;2603;0;-0,0491049;0,0528742;-0,0787655;-0,0295605;0,0399064;-0,133508;0,0406445;0,092026;-0,111184;-0,0513175;0,0260497;-0,0751382;0;0;0;0;0;0;0,044448;0,0824484;-0,089;0;0;0;-0,154143;0,165774;-0,122865;-0,100422;0,0789239;-0,153904;0,037885;-0,0866551;0,0857781;0,0382723;-0,149107;-0;0,186976;-0,00980152;3,57016;0,0472984;-0,0015708;0;-1,9867;-0,914753;-1080;1080;-600;1700;-10;10;-10;-0;0;-0;250;-1,2;0,2;177;-1,2;-1;2555;0,07;1862;2054;10;56579;
14,7711;1,18787;-1,88972;229;57;2606;0;-0,048227;0,0532498;-0,0844135;-0,0300434;0,0404395;-0,134353;0,0405954;0,091985;-0,110275;-0,0522141;0,0256237;-0,0695039;0;0;0;0;0;0;0,044448;0,0824484;-0,089;0;0;0;-0,151409;0,165965;-0,130544;-0,100441;0,0788734;-0,153917;0,037851;-0,0866425;0,0857666;0,0382376;-0,149139;-0;0,188307;-0,00981412;3,56214;0,0471239;-0,0015708;0;-1,98641;-0,914867;-1080;1080;-600;1700;-10;10;-10;-0;0;-0;250;-1,2;0,2;177;-1,2;-1;2555;0,07;1862;2054;10;56579;
14,7811;1,18788;-1,89057;228;58;2610;0;-0,047336;0,0535594;-0,0894851;-0,030517;0,0409754;-0,135248;0,040542;0,0919548;-0,109432;-0,0530787;0,025283;-0,0644654;0;0;0;0;0;0;0,044448;0,0824484;-0,089;0;0;0;-0,148726;0,169135;-0,140783;-0,100415;0,0788424;-0,153951;0,0378107;-0,0866348;0,0857598;0,0381964;-0,149168;-0;0,187461;-0,0109188;3,55399;0,0472984;-0,00174533;0;-1,98605;-0,915014;-1080;1080;-600;1700;-10;10;-10;-0;0;-0;250;-1,2;0,2;177;-1,2;-1;2555;0,07;1862;2054;10;56579;
14,7912;1,18789;-1,89136;227;58;2612;0;-0,0463793;0,0537815;-0,0940497;-0,0309827;0,0415154;-0,136193;0,0404432;0,0919513;-0,108638;-0,0540784;0,024948;-0,0599306;0;0;0;0;0;0;0,044448;0,0824484;-0,089;0;0;0;-0,145922;0,169265;-0,145902;-0,100458;0,0787294;-0,15398;0,0377261;-0,0866481;0,0857738;0,0381107;-0,149195;-0;0,18768;-0,0109316;3,54666;0,0472984;-0,00174533;0;-1,98516;-0,915371;-1080;1080;-600;1700;-10;10;-10;-0;0;-0;250;-1,2;0,2;177;-1,2;-1;2555;0,07;1862;2054;10;56579;
14,801;1,1879;-1,89212;226;58;2615;0;-0,0454451;0,0539805;-0,0981209;-0,0314281;0,0420445;-0,137155;0,0403327;0,0919423;-0,107884;-0,0550365;0,0246279;-0,0559055;0;0;0;0;0;0;0,044448;0,0824484;-0,089;0;0;0;-0,143168;0,169459;-0,153581;-0,100482;0,0786084;-0,154026;0,0376347;-0,0866657;0,0857921;0,038018;-0,149221;-0;0,186784;-0,0109431;3,54007;0,047473;-0,00174533;0;-1,98419;-0,915762;-1080;1080;-600;1700;-10;10;-10;-0;0;-0;250;-1,2;0,2;177;-1,2;-1;2555;0,07;1862;2054;10;56579;
14,811;1,18792;-1,89179;225;58;2617;0;-0,044583;0,0541883;-0,101616;-0,0318766;0,0425896;-0,138177;0,0402027;0,0919402;-0,108209;-0,0560015;0,0243284;-0,0523901;0;0;0;0;0;0;0,044448;0,0824484;-0,09;0;0;0;-0,140354;0,169589;-0,158701;-0,100584;0,0785166;-0,154006;0,0375376;-0,0867185;0,0858453;0,0379194;-0,14921;-0;0,186959;-0,0120487;3,53418;0,047473;-0,00191986;0;-1,98301;-0,916235;-1080;1080;-600;1700;-10;10;-10;-0;0;-0;250;-1,2;0,2;177;-1,2;-1;2555;0,07;1862;2054;10;56579;
14,8211;1,18793;-1,8924;224;59;2619;0;-0,0438128;0,0543251;-0,104637;-0,0323184;0,0431374;-0,139232;0,0401031;0,0919373;-0,107596;-0,0567944;0,0241082;-0,0493964;0;0;0;0;0;0;0,044448;0,0824484;-0,09;0;0;0;-0,137536;0,172644;-0,16382;-0,100607;0,0784333;-0,154034;0,0374539;-0,0867367;0,0858641;0,0378346;-0,149231;-0;0,186014;-0,0131546;3,52912;0,0476475;-0,0020944;0;-1,98212;-0,916594;-1080;1080;-600;1700;-10;10;-10;-0;0;-0;250;-1,2;0,2;177;-1,2;-1;2555;0,07;1862;2054;10;56579;
14,8311;1,18793;-1,89293;223;59;2620;0;-0,0430735;0,0543593;-0,107144;-0,0327488;0,0436805;-0,140302;0,0399933;0,0919563;-0,107066;-0,0576002;0,0239458;-0,0469115;0;0;0;0;0;0;0,044448;0,0824484;-0,09;0;0;0;-0,134661;0,17271;-0,16638;-0,100674;0,0783051;-0,154056;0,0373555;-0,0867639;0,0858914;0,037735;-0,149249;-0;0,186144;-0,0131638;3,52475;0,0476475;-0,0020944;0;-1,98104;-0,917025;-1080;1080;-600;1700;-10;10;-10;-0;0;-0;250;-1,2;0,2;177;-1,2;-1;2555;0,07;1862;2054;10;56579;
14,8411;1,18794;-1,89241;223;59;2621;0;-0,0425093;0,0543639;-0,109224;-0,0331752;0,0442259;-0,141398;0,0399194;0,0919681;-0,107591;-0,0582381;0,0238755;-0,0448165;0;0;0;0;0;0;0,044448;0,0824484;-0,091;0;0;0;-0,134712;0,172776;-0,168939;-0,100747;0,0782394;-0,154041;0,0372994;-0,0868045;0,0859319;0,0376781;-0,149231;-0;0,186252;-0,0131714;3,52111;0,0476475;-0,0020944;0;-1,98031;-0,917313;-1080;1080;-600;1700;-10;10;-10;-0;0;-0;250;-1,2;0,2;177;-1,2;-1;2555;0,07;1862;2054;10;56579;
14,8511;1,18794;-1,89182;222;59;2622;0;-0,042004;0,0543502;-0,110909;-0,0335942;0,0447681;-0,142504;0,0398477;0,0919857;-0,108178;-0,0588194;0,0238513;-0,043101;0;0;0;0;0;0;0,044448;0,0824484;-0,092;0;0;0;-0,131835;0,172842;-0,171499;-0,100823;0,0782015;-0,15401;0,0372435;-0,0868467;0,085974;0,0376215;-0,14921;-0;0,186341;-0,0142759;3,51809;0,0476475;-0,00226893;0;-1,97959;-0,917602;-1080;1080;-600;1700;-10;10;-10;-0;0;-0;250;-1,2;0,2;177;-1,2;-1;2555;0,07;1862;2054;10;56579;
14,8612;1,18794;-1,89219;222;58;2623;0;-0,041594;0,054178;-0,112288;-0,0340123;0,0453127;-0,143633;0,0397475;0,0920262;-0,107811;-0,0593279;0,0239255;-0,0417075;0;0;0;0;0;0;0,044448;0,0824484;-0,092;0;0;0;-0,131885;0,169978;-0,174059;-0,100922;0,0781035;-0,153996;0,0371468;-0,0868779;0,0860049;0,0375238;-0,149223;-0;0,187512;-0,01538;3,51564;0,047473;-0,00244346;0;-1,97851;-0,91803;-1080;1080;-600;1700;-10;10;-10;-0;0;-0;250;-1,2;0,2;177;-1,2;-1;2555;0,07;1862;2054;10;56579;
14,8711;1,18791;-1,8926;221;58;2624;0;-0,04127;0,0535981;-0,113692;-0,0344229;0,0458458;-0,144764;0,0397391;0,0921546;-0,107402;-0,0596837;0,0244313;-0,0403205;0;0;0;0;0;0;0,044448;0,0824484;-0,092;0;0;0;-0,129004;0,170043;-0,176618;-0,100954;0,0780293;-0,154012;0,0370914;-0,0868897;0,0860146;0,0374688;-0,149238;-0;0,187572;-0,0153849;3,51363;0,047473;-0,00244346;0;-1,97793;-0,918261;-1080;1080;-600;1700;-10;10;-10;-0;0;-0;250;-1,2;0,2;177;-1,2;-1;2555;0,07;1862;2054;10;56579;
14,8811;1,18794;-1,89083;221;58;2625;0;-0,0410844;0,0538609;-0,114325;-0,0348348;0,0463859;-0,14591;0,0395861;0,0920856;-0,109168;-0,0600426;0,0240614;-0,0396276;0;0;0;0;0;0;0,044448;0,0824484;-0,094;0;0;0;-0,129053;0,170107;-0,179178;-0,101127;0,0779223;-0,153953;0,0370142;-0,0869767;0,0861029;0,0373899;-0,149175;-0;0,188732;-0,0142906;3,51158;0,0472984;-0,00226893;0;-1,9768;-0,918708;-1080;1080;-600;1700;-10;10;-10;-0;0;-0;250;-1,2;0,2;177;-1,2;-1;2555;0,07;1862;2054;10;56579;
14,8911;1,18797;-1,89102;221;58;2625;0;-0,0409137;0,0540441;-0,114769;-0,0352441;0,0469265;-0,147058;0,0394485;0,0920121;-0,108979;-0,0602957;0,0237246;-0,0392074;0;0;0;0;0;0;0,044448;0,0824484;-0,094;0;0;0;-0,129053;0,170107;-0,179178;-0,101209;0,0777687;-0,153976;0,0369291;-0,0870077;0,0861357;0,037303;-0,149181;-0;0,18876;-0,0131933;3,51064;0,0472984;-0,0020944;0;-1,97582;-0,919092;-1080;1080;-600;1700;-10;10;-10;-0;0;-0;250;-1,2;0,2;177;-1,2;-1;2555;0,07;1862;2054;10;56579;
14,901;1,188;-1,89016;221;59;2625;0;-0,0407885;0,054232;-0,114909;-0,0356462;0,0474612;-0,148191;0,0393194;0,0919454;-0,109843;-0,0605077;0,023439;-0,0390597;0;0;0;0;0;0;0,044448;0,0824484;-0,095;0;0;0;-0,129053;0,17304;-0,179178;-0,101296;0,077671;-0,153969;0,0368596;-0,0870638;0,0861932;0,0372319;-0,14915;-0;0,187681;-0,0131947;3,50997;0,047473;-0,0020944;0;-1,9749;-0,919455;-1080;1080;-600;1700;-10;10;-10;-0;0;-0;250;-1,2;0,2;177;-1,2;-1;2555;0,07;1862;2054;10;56579;
14,911;1,18802;-1,89027;221;59;2625;0;-0,0406991;0,0543538;-0,114907;-0,0360534;0,0480049;-0,149341;0,0392131;0,0918857;-0,109733;-0,0606507;0,0232355;-0,0390672;0;0;0;0;0;0;0,044448;0,0824484;-0,095;0;0;0;-0,129053;0,17304;-0,179178;-0,10135;0,0775892;-0,153974;0,0367948;-0,0870883;0,0862191;0,0371658;-0,149153;-0;0,187687;-0,0131952;3,50975;0,047473;-0,0020944;0;-1,97416;-0,919747;-1080;1080;-600;1700;-10;10;-10;-0;0;-0;250;-1,2;0,2;177;-1,2;-1;2555;0,07;1862;2054;10;56579;
14,9211;1,18805;-1,88932;221;59;2625;0;-0,0406552;0,0545328;-0,114655;-0,0364642;0,0485561;-0,1505;0,0391058;0,0918072;-0,110679;-0,0607517;0,0230058;-0,0393075;0;0;0;0;0;0;0,044448;0,0824484;-0,096;0;0;0;-0,129053;0,17304;-0,179178;-0,101407;0,0775386;-0,153962;0,0367471;-0,0871374;0,0862697;0,0371167;-0,14912;-0;0,186589;-0,0131953;3,50972;0,0476475;-0,0020944;0;-1,97348;-0,920014;-1080;1080;-600;1700;-10;10;-10;-0;0;-0;250;-1,2;0,2;177;-1,2;-1;2555;0,07;1862;2054;10;56579;
14,9311;1,18807;-1,88835;221;59;2625;0;-0,0406628;0,0546247;-0,114251;-0,0368689;0,0490997;-0,151637;0,0390135;0,0917465;-0,111655;-0,0608375;0,0228519;-0,0396808;0;0;0;0;0;0;0,044448;0,0824484;-0,097;0;0;0;-0,129053;0,17304;-0,179178;-0,1015;0,0774766;-0,153932;0,0367053;-0,0871848;0,0863182;0,0370738;-0,149085;-0;0,186579;-0,0131946;3,51006;0,0476475;-0,0020944;0;-1,97286;-0,920254;-1080;1080;-600;1700;-10;10;-10;-0;0;-0;250;-1,2;0,2;177;-1,2;-1;2555;0,07;1862;2054;10;56579;
14,9411;1,1881;-1,88733;221;59;2624;0;-0,0407391;0,054773;-0,113663;-0,0372781;0,0496499;-0,152778;0,0389276;0,0916678;-0,112674;-0,0608596;0,0226754;-0,0402181;0;0;0;0;0;0;0,044448;0,0824484;-0,098;0;0;0;-0,129004;0,172974;-0,176618;-0,101599;0,0774484;-0,153881;0,036675;-0,0872285;0,0863633;0,0370424;-0,149048;-0;0,187662;-0,0131934;3,51061;0,047473;-0,0020944;0;-1,97238;-0,920444;-1080;1080;-600;1700;-10;10;-10;-0;0;-0;250;-1,2;0,2;177;-1,2;-1;2555;0,07;1862;2054;10;56579;
14,9511;1,18812;-1,88728;221;59;2624;0;-0,0408029;0,0549015;-0,113003;-0,037686;0,0501987;-0,153908;0,0388513;0,0915841;-0,112721;-0,0608263;0,0225085;-0,0408771;0;0;0;0;0;0;0,044448;0,0824484;-0,098;0;0;0;-0,129004;0,172974;-0,176618;-0,101629;0,0774101;-0,15388;0,0366435;-0,0872433;0,0863798;0,0370098;-0,149046;-0;0,187637;-0,0131917;3,51143;0,047473;-0,0020944;0;-1,972;-0,920591;-1080;1080;-600;1700;-10;10;-10;-0;0;-0;250;-1,2;0,2;177;-1,2;-1;2555;0,07;1862;2054;10;56579;
14,9611;1,18815;-1,88721;221;59;2623;0;-0,0408731;0,0549565;-0,112264;-0,0380955;0,0507493;-0,155033;0,0387731;0,0915189;-0,112793;-0,0608347;0,0223866;-0,0415986;0;0;0;0;0;0;0,044448;0,0824484;-0,098;0;0;0;-0,128954;0,172908;-0,174059;-0,101708;0,0773431;-0,153862;0,0366044;-0,0872621;0,0864;0,0369696;-0,149043;-0;0,188708;-0,0131898;3,51235;0,0472984;-0,0020944;0;-1,97153;-0,920774;-1080;1080;-600;1700;-10;10;-10;-0;0;-0;250;-1,2;0,2;177;-1,2;-1;2555;0,07;1862;2054;10;56579;
14,9711;1,18817;-1,88612;221;60;2623;0;-0,0410437;0,0550864;-0,111428;-0,0385067;0,0513012;-0,156149;0,0387168;0,0914278;-0,113885;-0,0607133;0,0222383;-0,0424105;0;0;0;0;0;0;0,044448;0,0824484;-0,099;0;0;0;-0,128954;0,175838;-0,174059;-0,101757;0,0773246;-0,153839;0,0366026;-0,0872958;0,0864352;0,036967;-0,149004;-0;0,188677;-0,0120886;3,51339;0,0472984;-0,00191986;0;-1,97137;-0,920838;-1080;1080;-600;1700;-10;10;-10;-0;0;-0;250;-1,2;0,2;177;-1,2;-1;2555;0,07;1865;2055;10;56579;
14,9811;1,1882;-1,88501;221;60;2622;0;-0,0412198;0,055227;-0,110544;-0,0389179;0,0518521;-0,157252;0,0386486;0,0913386;-0,114995;-0,0606365;0,0220746;-0,0432411;0;0;0;0;0;0;0,044448;0,0824484;-0,1;0;0;0;-0,128905;0,175771;-0,171499;-0,101856;0,0773016;-0,153785;0,0365908;-0,0873343;0,0864752;0,0369543;-0,148964;-0;0,18974;-0,0120864;3,51457;0,0471239;-0,00191986;0;-1,97109;-0,920948;-1080;1080;-600;1700;-10;10;-10;-0;0;-0;250;-1,2;0,2;177;-1,2;-1;2555;0,07;1865;2055;10;56579;
14,9912;1,18822;-1,88488;222;60;2622;0;-0,0413477;0,0553045;-0,109643;-0,0393337;0,0524083;-0,158354;0,0385935;0,0912519;-0,11512;-0,0605259;0,0219827;-0,0441371;0;0;0;0;0;0;0,044448;0,0824484;-0,1;0;0;0;-0,131835;0,175771;-0,171499;-0,101874;0,0772872;-0,153781;0,0365778;-0,0873435;0,0864861;0,0369404;-0,148959;-0;0,189703;-0,012084;3,51581;0,0471239;-0,00191986;0;-1,97092;-0,921015;-1080;1080;-600;1700;-10;10;-10;-0;0;-0;250;-1,2;0,2;177;-1,2;-1;2555;0,07;1865;2055;10;56579;
15,001;1,18824;-1,88275;222;60;2621;0;-0,041522;0,0554159;-0,108739;-0,039741;0,0529518;-0,159421;0,0385319;0,0911694;-0,11725;-0,0604423;0,021894;-0,04497;0;0;0;0;0;0;0,044448;0,0824484;-0,102;0;0;0;-0,131784;0,175704;-0,168939;-0,101964;0,0773099;-0,153709;0,0365799;-0,087407;0,0865507;0,0369418;-0,148883;-0;0,189664;-0,0120815;3,51708;0,0471239;-0,00191986;0;-1,97067;-0,921111;-1080;1080;-600;1700;-10;10;-10;-0;0;-0;250;-1,2;0,2;177;-1,2;-1;2555;0,07;1865;2055;10;56579;
15,011;1,18827;-1,8816;222;60;2621;0;-0,0416941;0,055538;-0,107825;-0,0401581;0,0535074;-0,1605;0,0384816;0,0910757;-0,118401;-0,0603301;0,0217695;-0,0458459;0;0;0;0;0;0;0,044448;0,0824484;-0,103;0;0;0;-0,131784;0,175704;-0,168939;-0,102024;0,0773075;-0,153671;0,0365842;-0,0874399;0,0865851;0,0369454;-0,148842;-0;0,189626;-0,0120791;3,51836;0,0471239;-0,00191986;0;-1,97057;-0,92115;-1080;1080;-600;1700;-10;10;-10;-0;0;-0;250;-1,2;0,2;177;-1,2;-1;2555;0,07;1865;2055;10;56579;
15,021;1,18829;-1,88045;222;60;2620;0;-0,0418367;0,0557294;-0,106992;-0,0405781;0,0540669;-0,161574;0,0384926;0,0909674;-0,119548;-0,0601853;0,0216365;-0,0466503;0;0;0;0;0;0;0,044448;0,0824484;-0,104;0;0;0;-0,131734;0,175637;-0,16638;-0,102022;0,0773659;-0,153643;0,036643;-0,0874495;0,0865963;0,037004;-0,148801;-0;0,189587;-0,0109787;3,51965;0,0471239;-0,00174533;0;-1,9711;-0,920944;-1080;1080;-600;1700;-10;10;-10;-0;0;-0;250;-1,2;0,2;177;-1,2;-1;2555;0,07;1865;2055;10;56579;
15,0311;1,18834;-1,88021;222;61;2620;0;-0,0419302;0,0562854;-0,105903;-0,0410013;0,054635;-0,162643;0,0384258;0,0907683;-0,119786;-0,0600869;0,0211068;-0,0477296;0;0;0;0;0;0;0,044448;0,0824484;-0,104;0;0;0;-0,131734;0,178563;-0,16638;-0,102017;0,0773922;-0,153633;0,0366608;-0,0874488;0,0865992;0,0370205;-0,148791;-0;0,189552;-0,0109767;3,52082;0,0471239;-0,00174533;0;-1,97126;-0,92088;-1080;1080;-600;1700;-10;10;-10;-0;0;-0;250;-1,2;0,2;177;-1,2;-1;2555;0,07;1865;2055;10;56579;
15,0411;1,18833;-1,87907;222;61;2619;0;-0,0420619;0,0560769;-0,105213;-0,0414201;0,0551933;-0,16369;0,0385168;0,0907632;-0,120925;-0,0598999;0,0214356;-0,0483953;0;0;0;0;0;0;0,044448;0,0824484;-0,105;0;0;0;-0,131684;0,178495;-0,16382;-0,101962;0,0775125;-0,153609;0,0367483;-0,087446;0,0865959;0,0371091;-0,148751;-0;0,188408;-0,010974;3,52237;0,0472984;-0,00174533;0;-1,97213;-0,920541;-1080;1080;-600;1700;-10;10;-10;-0;0;-0;250;-1,2;0,2;177;-1,2;-1;2555;0,07;1865;2055;10;56579;
15,0511;1,18833;-1,87894;222;60;2619;0;-0,0421515;0,0558777;-0,104609;-0,0418406;0,0557507;-0,164734;0,0385946;0,0907425;-0,121061;-0,0597524;0,0216991;-0,0490053;0;0;0;0;0;0;0,044448;0,0824484;-0,105;0;0;0;-0,131684;0,17557;-0,16382;-0,101904;0,0775769;-0,153615;0,0368198;-0,0874195;0,0865694;0,0371813;-0,148746;-0;0,188379;-0,00987507;3,52333;0,0472984;-0,0015708;0;-1,97294;-0,920225;-1080;1080;-600;1700;-10;10;-10;-0;0;-0;250;-1,2;0,2;177;-1,2;-1;2555;0,07;1865;2055;10;56579;
15,061;1,18833;-1,87783;223;60;2619;0;-0,0422971;0,0556922;-0,104116;-0,0422608;0,056304;-0,165768;0,0386857;0,0907298;-0,122174;-0,0596017;0,0220077;-0,0494398;0;0;0;0;0;0;0,044448;0,0824484;-0,106;0;0;0;-0,13461;0,17557;-0,16382;-0,101899;0,0776999;-0,153556;0,0369096;-0,0874147;0,0865643;0,0372722;-0,148707;-0;0,189451;-0,00987374;3,52418;0,0471239;-0,0015708;0;-1,97384;-0,919872;-1080;1080;-600;1700;-10;10;-10;-0;0;-0;250;-1,2;0,2;177;-1,2;-1;2555;0,07;1865;2055;10;56579;
15,071;1,18832;-1,87772;223;60;2618;0;-0,0424142;0,0555776;-0,103715;-0,0426871;0,0568626;-0,166811;0,0387722;0,0907007;-0,122281;-0,0594168;0,0222251;-0,0498334;0;0;0;0;0;0;0,044448;0,0824484;-0,106;0;0;0;-0,134558;0,175503;-0,16126;-0,101831;0,0778027;-0,153549;0,0369905;-0,0873831;0,0865329;0,037354;-0,148703;-0;0,18943;-0,00987267;3,52486;0,0471239;-0,0015708;0;-1,97476;-0,91951;-1080;1080;-600;1700;-10;10;-10;-0;0;-0;250;-1,2;0,2;177;-1,2;-1;2555;0,07;1865;2055;10;56579;
15,0811;1,18832;-1,87763;223;60;2618;0;-0,0424716;0,0554625;-0,103422;-0,0431131;0,057419;-0,167848;0,038854;0,0906798;-0,122365;-0,0592967;0,022434;-0,0501207;0;0;0;0;0;0;0,044448;0,0824484;-0,106;0;0;0;-0,134558;0,175503;-0,16126;-0,101768;0,0778965;-0,153543;0,0370645;-0,0873537;0,0865035;0,0374288;-0,1487;-0;0,189413;-0,0098718;3,52542;0,0471239;-0,0015708;0;-1,97561;-0,919177;-1080;1080;-600;1700;-10;10;-10;-0;0;-0;250;-1,2;0,2;177;-1,2;-1;2555;0,07;1865;2055;10;56579;
15,092;1,18832;-1,87857;223;60;2618;0;-0,0424693;0,0553991;-0,103244;-0,0435781;0,0580256;-0,168979;0,0389271;0,0906463;-0,121434;-0,0591776;0,0225918;-0,0503313;0;0;0;0;0;0;0,044448;0,0824484;-0,105;0;0;0;-0,134558;0,175503;-0,16126;-0,101647;0,0779908;-0,153575;0,0371248;-0,0872992;0,0864496;0,0374897;-0,148733;-0;0,188305;-0,010968;3,52581;0,0472984;-0,00174533;0;-1,97642;-0,918856;-1080;1080;-600;1700;-10;10;-10;-0;0;-0;250;-1,2;0,2;177;-1,2;-1;2555;0,07;1865;2055;10;56579;
15,101;1,18832;-1,87851;223;60;2618;0;-0,0424984;0,0553509;-0,103087;-0,0439611;0,0585244;-0,169908;0,0389944;0,0906128;-0,121487;-0,0590911;0,022724;-0,050483;0;0;0;0;0;0;0,044448;0,0824484;-0,105;0;0;0;-0,134558;0,175503;-0,16126;-0,10159;0,0780749;-0,15357;0,0371913;-0,087272;0,0864227;0,0375567;-0,148731;-0;0,188298;-0,0109676;3,52604;0,0472984;-0,00174533;0;-1,97718;-0,918555;-1080;1080;-600;1700;-10;10;-10;-0;0;-0;250;-1,2;0,2;177;-1,2;-1;2555;0,07;1865;2055;10;56579;
15,1111;1,18832;-1,87844;223;60;2618;0;-0,0423724;0,0551929;-0,102859;-0,0443855;0,0590771;-0,170938;0,0390218;0,0906231;-0,121562;-0,059203;0,0229066;-0,0507083;0;0;0;0;0;0;0,044448;0,0824484;-0,105;0;0;0;-0,134558;0,175503;-0,16126;-0,101575;0,0780996;-0,153567;0,0372104;-0,087266;0,0864164;0,0375762;-0,148729;-0;0,188292;-0,0109672;3,52625;0,0472984;-0,00174533;0;-1,9774;-0,918471;-1080;1080;-600;1700;-10;10;-10;-0;0;-0;250;-1,2;0,2;177;-1,2;-1;2555;0,07;1865;2055;10;56579;
15,1211;1,18832;-1,87946;223;60;2618;0;-0,042453;0,0552238;-0,103021;-0,0448141;0,0596347;-0,171978;0,0391077;0,0905571;-0,120538;-0,059032;0,0229683;-0,0505585;0;0;0;0;0;0;0,044448;0,0824484;-0,104;0;0;0;-0,134558;0,175503;-0,16126;-0,101485;0,0781922;-0,15358;0,0372913;-0,0871995;0,0863511;0,0376577;-0,148765;-0;0,189379;-0,0109667;3,52655;0,0471239;-0,00174533;0;-1,97846;-0,918049;-1080;1080;-600;1700;-10;10;-10;-0;0;-0;250;-1,2;0,2;177;-1,2;-1;2555;0,07;1865;2055;10;56579;
15,1311;1,18739;-1,87946;213;72;2618;0;-0,0336985;0,0661254;-0,102649;-0,0451511;0,0602961;-0,173004;0,0503254;0,0892869;-0,120537;-0,0589909;0,023021;-0,0505232;0;0;0;0;0;0;0,05556;0,0812299;-0,104;0;0;0;-0,105309;0,210592;-0,16126;-0,0926894;0,0891464;-0,153172;0,0461562;-0,0827594;0,08189;0,0466462;-0,148791;-0;0,189387;-0,0109671;3,52629;0,0471239;-0,00174533;0;-2,08405;-0,871152;-1080;1080;-600;1700;-10;10;-10;-0;0;-0;250;-1,2;0,2;177;-1,2;-1;2555;0,07;1866;2056;10;56579;
15,141;1,18739;-1,87947;213;72;2618;0;-0,0335918;0,0661974;-0,102694;-0,0454835;0,060951;-0,174021;0,0504128;0,089238;-0,120529;-0,0590106;0,0230462;-0,050474;0;0;0;0;0;0;0,05556;0,0812299;-0,104;0;0;0;-0,105309;0,210592;-0,16126;-0,0926024;0,0892436;-0,153168;0,0462361;-0,0827135;0,0818446;0,0467269;-0,148791;-0;0,189372;-0,0109662;3,5268;0,0471239;-0,00174533;0;-2,08503;-0,870672;-1080;1080;-600;1700;-10;10;-10;-0;0;-0;250;-1,2;0,2;177;-1,2;-1;2555;0,07;1866;2056;10;56579;
15,1512;1,18739;-1,88049;213;71;2618;0;-0,0335478;0,0657643;-0,102809;-0,0458238;0,0616181;-0,175063;0,0505094;0,089189;-0,119509;-0,0589558;0,023531;-0,0503882;0;0;0;0;0;0;0,05556;0,0812299;-0,103;0;0;0;-0,105309;0,207668;-0,16126;-0,0925037;0,0892953;-0,153197;0,0463085;-0,0826394;0,0817712;0,0468002;-0,148827;-0;0,19047;-0,00986976;3,52671;0,0469494;-0,0015708;0;-2,08608;-0,870152;-1080;1080;-600;1700;-10;10;-10;-0;0;-0;250;-1,2;0,2;177;-1,2;-1;2555;0,07;1866;2056;10;56579;
15,1612;1,1874;-1,88152;213;71;2618;0;-0,0334828;0,0653986;-0,10295;-0,0461588;0,0622725;-0,176093;0,0505977;0,0891269;-0,11848;-0,0588958;0,0239476;-0,0502932;0;0;0;0;0;0;0,05556;0,0812299;-0,102;0;0;0;-0,105309;0,207668;-0,16126;-0,0923785;0,0893462;-0,153243;0,0463802;-0,0825652;0,0816979;0,0468726;-0,148863;-0;0,190476;-0,00877339;3,52652;0,0469494;-0,00139626;0;-2,08713;-0,869635;-1080;1080;-600;1700;-10;10;-10;-0;0;-0;250;-1,2;0,2;177;-1,2;-1;2555;0,07;1866;2056;10;56579;
15,171;1,18739;-1,88357;213;70;2618;0;-0,0333484;0,0649598;-0,103108;-0,0464866;0,0629109;-0,177107;0,0506866;0,0891012;-0,116429;-0,0588886;0,0244463;-0,0501857;0;0;0;0;0;0;0,05556;0,0812299;-0,1;0;0;0;-0,105309;0,204745;-0,16126;-0,092237;0,0894061;-0,153293;0,0464238;-0,0824743;0,0816076;0,0469168;-0,148936;-0;0,190483;-0,00987042;3,52629;0,0469494;-0,0015708;0;-2,08801;-0,869201;-1080;1080;-600;1700;-10;10;-10;-0;0;-0;250;-1,2;0,2;177;-1,2;-1;2555;0,07;1866;2056;10;56579;
15,1811;1,18739;-1,88364;213;70;2618;0;-0,0332688;0,0646028;-0,103269;-0,0468204;0,0635592;-0,178143;0,0507701;0,0890685;-0,116361;-0,0588891;0,0248872;-0,0500232;0;0;0;0;0;0;0,05556;0,0812299;-0,1;0;0;0;-0,105309;0,204745;-0,16126;-0,0921579;0,08949;-0,153292;0,0464933;-0,082432;0,0815656;0,0469872;-0,148938;-0;0,190491;-0,00987081;3,52604;0,0469494;-0,0015708;0;-2,08887;-0,868773;-1080;1080;-600;1700;-10;10;-10;-0;0;-0;250;-1,2;0,2;177;-1,2;-1;2555;0,07;1866;2056;10;56579;
15,1912;1,18738;-1,88473;213;70;2618;0;-0,0332012;0,0642733;-0,103485;-0,0471562;0,0642092;-0,17919;0,0508595;0,089036;-0,115271;-0,0588683;0,0253054;-0,0498086;0;0;0;0;0;0;0,05556;0,0812299;-0,099;0;0;0;-0,105309;0,204745;-0,16126;-0,0920696;0,0895787;-0,153293;0,0465528;-0,0823627;0,0814967;0,0470475;-0,148977;-0;0,191595;-0,010968;3,52579;0,0467748;-0,00174533;0;-2,08979;-0,86832;-1080;1080;-600;1700;-10;10;-10;-0;0;-0;250;-1,2;0,2;177;-1,2;-1;2555;0,07;1866;2056;10;56579;
15,2012;1,18738;-1,88583;213;69;2619;0;-0,0330832;0,0638796;-0,103726;-0,0474866;0,0648471;-0,180226;0,0509471;0,0890221;-0,114172;-0,0588804;0,0257499;-0,0496008;0;0;0;0;0;0;0,05556;0,0812299;-0,098;0;0;0;-0,105349;0,201898;-0,16382;-0,0919636;0,0896295;-0,153327;0,0466035;-0,0822981;0,0814322;0,047099;-0,149016;-0;0,191605;-0,0109686;3,52545;0,0467748;-0,00174533;0;-2,0906;-0,867918;-1080;1080;-600;1700;-10;10;-10;-0;0;-0;250;-1,2;0,2;177;-1,2;-1;2555;0,07;1866;2056;10;56579;
15,211;1,18737;-1,88592;213;69;2619;0;-0,0330241;0,0635377;-0,103894;-0,0478123;0,0654739;-0,18125;0,0510338;0,0890002;-0,11408;-0,0588886;0,0261453;-0,0494322;0;0;0;0;0;0;0,05556;0,0812299;-0,098;0;0;0;-0,105349;0,201898;-0,16382;-0,0919127;0,089683;-0,153326;0,0466703;-0,0822564;0,0813906;0,0471668;-0,149019;-0;0,192713;-0,00987233;3,52508;0,0466003;-0,0015708;0;-2,09144;-0,867501;-1080;1080;-600;1700;-10;10;-10;-0;0;-0;250;-1,2;0,2;177;-1,2;-1;2555;0,07;1866;2056;10;56579;
15,2212;1,18736;-1,88602;213;68;2619;0;-0,0329595;0,0632355;-0,104029;-0,0481466;0,0661153;-0,182306;0,0511227;0,0889828;-0,113981;-0,0588756;0,0265271;-0,0492971;0;0;0;0;0;0;0,05556;0,0812299;-0,098;0;0;0;-0,105349;0,198972;-0,16382;-0,0918351;0,0897626;-0,153326;0,0467367;-0,0822146;0,0813488;0,0472342;-0,149023;-0;0,192721;-0,00987275;3,52481;0,0466003;-0,0015708;0;-2,09227;-0,867085;-1080;1080;-600;1700;-10;10;-10;-0;0;-0;250;-1,2;0,2;177;-1,2;-1;2555;0,07;1866;2056;10;56579;
15,2311;1,18736;-1,88613;213;68;2619;0;-0,0329327;0,0629723;-0,104208;-0,0484753;0,0667437;-0,183345;0,0512244;0,088955;-0,113865;-0,0588099;0,0268852;-0,049118;0;0;0;0;0;0;0,05556;0,0812299;-0,098;0;0;0;-0,105349;0,198972;-0,16382;-0,0917426;0,0898574;-0,153326;0,0468158;-0,0821649;0,0812991;0,0473144;-0,149027;-0;0,192728;-0,00987309;3,52459;0,0466003;-0,0015708;0;-2,09327;-0,866589;-1080;1080;-600;1700;-10;10;-10;-0;0;-0;250;-1,2;0,2;177;-1,2;-1;2555;0,07;1866;2056;10;56579;
15,241;1,18735;-1,88625;213;68;2619;0;-0,0329142;0,0626909;-0,104364;-0,0487991;0,0673604;-0,184372;0,0513224;0,0889393;-0,113754;-0,0587711;0,0272254;-0,0489623;0;0;0;0;0;0;0,05556;0,0812299;-0,098;0;0;0;-0,105349;0,198972;-0,16382;-0,0916853;0,0899164;-0,153326;0,0468874;-0,0821196;0,0812537;0,0473871;-0,149031;-0;0,193833;-0,00877648;3,52431;0,0464258;-0,00139626;0;-2,09417;-0,866138;-1080;1080;-600;1700;-10;10;-10;-0;0;-0;250;-1,2;0,2;177;-1,2;-1;2555;0,07;1866;2056;10;56579;
15,251;1,18734;-1,88635;212;68;2619;0;-0,0328783;0,0624472;-0,104479;-0,0491292;0,0679874;-0,185421;0,0514232;0,0889264;-0,113649;-0,0587221;0,0275826;-0,0488308;0;0;0;0;0;0;0,05556;0,0812299;-0,098;0;0;0;-0,102423;0,198972;-0,16382;-0,0916003;0,0900298;-0,15331;0,0469598;-0,0820739;0,0812078;0,0474606;-0,149035;-0;0,193841;-0,00987393;3,52406;0,0464258;-0,0015708;0;-2,09508;-0,865682;-1080;1080;-600;1700;-10;10;-10;-0;0;-0;250;-1,2;0,2;177;-1,2;-1;2555;0,07;1866;2056;10;56579;
15,2633;1,18733;-1,88647;213;67;2619;0;-0,0328757;0,0622024;-0,104654;-0,0495317;0,0687491;-0,186703;0,0515355;0,0889043;-0,113527;-0,0586265;0,0279007;-0,0486714;0;0;0;0;0;0;0,05556;0,0812299;-0,098;0;0;0;-0,105349;0,196047;-0,16382;-0,0915022;0,0901031;-0,153326;0,0470434;-0,0820211;0,0811549;0,0475454;-0,14904;-0;0,193846;-0,00877709;3,52387;0,0464258;-0,00139626;0;-2,09614;-0,865154;-1080;1080;-600;1700;-10;10;-10;-0;0;-0;250;-1,2;0,2;177;-1,2;-1;2555;0,07;1866;2056;10;56579;
15,2711;1,18731;-1,88659;212;67;2619;0;-0,0328475;0,0618936;-0,104783;-0,049789;0,0692337;-0,187523;0,0516408;0,0889071;-0,113408;-0,0585728;0,0282915;-0,0485434;0;0;0;0;0;0;0,05556;0,0812299;-0,098;0;0;0;-0,102423;0,196047;-0,16382;-0,0914203;0,0901851;-0,153326;0,0471121;-0,0819768;0,0811102;0,0476155;-0,149044;-0;0,193855;-0,00877749;3,52359;0,0464258;-0,00139626;0;-2,09701;-0,864716;-1080;1080;-600;1700;-10;10;-10;-0;0;-0;250;-1,2;0,2;177;-1,2;-1;2555;0,07;1866;2056;10;56579;
15,2811;1,18729;-1,88662;212;66;2619;0;-0,0325239;0,0613381;-0,104543;-0,0501148;0,0698482;-0,18857;0,0516695;0,0890111;-0,113385;-0,0589201;0,0287917;-0,0488016;0;0;0;0;0;0;0,05556;0,0812299;-0,098;0;0;0;-0,102423;0,193122;-0,16382;-0,0914439;0,0901298;-0,153345;0,0470893;-0,0819894;0,0811209;0,0475935;-0,149046;-0;0,193861;-0,00768055;3,52338;0,0464258;-0,00122173;0;-2,09674;-0,86485;-1080;1080;-600;1700;-10;10;-10;-0;0;-0;250;-1,2;0,2;177;-1,2;-1;2555;0,07;1866;2056;10;56579;
15,2911;1,18729;-1,88682;212;67;2619;0;-0,0328355;0,0614577;-0,104976;-0,0504424;0,0704613;-0,189618;0,0518541;0,0888842;-0,113175;-0,0584067;0,0288804;-0,0483668;0;0;0;0;0;0;0,05556;0,0812299;-0,098;0;0;0;-0,102423;0,196047;-0,16382;-0,0912422;0,0903381;-0,153342;0,0472626;-0,0818808;0,0810137;0,0477684;-0,149053;-0;0,193852;-0,00768016;3,5237;0,0464258;-0,00122173;0;-2,09891;-0,863758;-1080;1080;-600;1700;-10;10;-10;-0;0;-0;250;-1,2;0,2;177;-1,2;-1;2555;0,07;1866;2056;10;56579;
15,301;1,18728;-1,88695;213;66;2619;0;-0,0328807;0,0612497;-0,105052;-0,0507678;0,0710675;-0,190657;0,0519766;0,0888779;-0,113052;-0,0582626;0,0291882;-0,04829;0;0;0;0;0;0;0,05556;0,0812299;-0,098;0;0;0;-0,105349;0,193122;-0,16382;-0,0911433;0,0904379;-0,153342;0,0473461;-0,0818274;0,08096;0,0478534;-0,149058;-0;0,193872;-0,00768095;3,52305;0,0464258;-0,00122173;0;-2,09997;-0,863224;-1080;1080;-600;1700;-10;10;-10;-0;0;-0;250;-1,2;0,2;177;-1,2;-1;2555;0,07;1866;2056;10;56579;
15,3111;1,18726;-1,88708;213;66;2619;0;-0,0329263;0,061017;-0,105134;-0,0510993;0,0716819;-0,191716;0,052106;0,0888679;-0,112924;-0,058111;0,0295011;-0,0482244;0;0;0;0;0;0;0,05556;0,0812299;-0,098;0;0;0;-0,105349;0,193122;-0,16382;-0,0910373;0,0905181;-0,153358;0,0474357;-0,0817702;0,0809024;0,0479445;-0,149062;-0;0,193876;-0,00658382;3,52292;0,0464258;-0,0010472;0;-2,1011;-0,862651;-1080;1080;-600;1700;-10;10;-10;-0;0;-0;250;-1,2;0,2;177;-1,2;-1;2555;0,07;1866;2056;10;56579;
15,3211;1,18725;-1,8882;213;66;2620;0;-0,0329081;0,0607739;-0,105221;-0,0514287;0,0722901;-0,192769;0,0522329;0,0888696;-0,111797;-0,058;0,0297897;-0,0481869;0;0;0;0;0;0;0,05556;0,0812299;-0,097;0;0;0;-0,10539;0,193196;-0,16638;-0,0909081;0,0905636;-0,153408;0,0475046;-0,0816928;0,0808248;0,0480148;-0,149102;-0;0,19388;-0,00548664;3,52278;0,0464258;-0,000872665;0;-2,10216;-0,862118;-1080;1080;-600;1700;-10;10;-10;-0;0;-0;250;-1,2;0,2;177;-1,2;-1;2555;0,07;1866;2056;10;56579;
15,3311;1,18723;-1,88733;213;66;2620;0;-0,0329581;0,0605945;-0,105221;-0,0517603;0,0728998;-0,193828;0,0523625;0,0888808;-0,112666;-0,0579106;0,0301184;-0,0481218;0;0;0;0;0;0;0,05556;0,0812299;-0,098;0;0;0;-0,10539;0,193196;-0,16638;-0,0908687;0,0907129;-0,153343;0,0475992;-0,0816646;0,0807956;0,0481112;-0,149072;-0;0,194982;-0,00658412;3,52262;0,0462512;-0,0010472;0;-2,10319;-0,861596;-1080;1080;-600;1700;-10;10;-10;-0;0;-0;250;-1,2;0,2;177;-1,2;-1;2555;0,07;1866;2056;10;56579;
15,3411;1,18722;-1,88746;213;66;2620;0;-0,0329987;0,0604441;-0,105232;-0,05209;0,0735038;-0,194879;0,052498;0,0888714;-0,11254;-0,0577598;0,0303797;-0,0481104;0;0;0;0;0;0;0,05556;0,0812299;-0,098;0;0;0;-0,10539;0,193196;-0,16638;-0,0907585;0,0908238;-0,153343;0,0476921;-0,0816051;0,0807357;0,0482057;-0,149077;-0;0,194982;-0,00658415;3,5226;0,0462512;-0,0010472;0;-2,10436;-0,860998;-1080;1080;-600;1700;-10;10;-10;-0;0;-0;250;-1,2;0,2;177;-1,2;-1;2555;0,07;1866;2056;10;56579;
15,3511;1,1872;-1,88758;213;65;2620;0;-0,0330517;0,0603223;-0,105189;-0,0524206;0,0741071;-0,195931;0,0526353;0,0888555;-0,112423;-0,0575926;0,030617;-0,0481526;0;0;0;0;0;0;0,05556;0,0812299;-0,098;0;0;0;-0,10539;0,190269;-0,16638;-0,0906443;0,0909393;-0,153342;0,0477887;-0,0815435;0,0806737;0,0483039;-0,149082;-0;0,194984;-0,00658419;3,52256;0,0462512;-0,0010472;0;-2,10559;-0,860376;-1080;1080;-600;1700;-10;10;-10;-0;0;-0;250;-1,2;0,2;177;-1,2;-1;2555;0,07;1866;2056;10;56579;
15,3611;1,18819;-1,8877;222;54;2620;0;-0,0418807;0,0496857;-0,105546;-0,0528384;0,0746028;-0,196984;0,0415964;0,0900864;-0,1123;-0,0574957;0,0309032;-0,0481736;0;0;0;0;0;0;0,044448;0,0824484;-0,098;0;0;0;-0,131734;0,158076;-0,16638;-0,0993764;0,0805889;-0,15372;0,0393314;-0,0860279;0,0851809;0,0397225;-0,149059;-0;0,194983;-0,00768151;3,52259;0,0462512;-0,00122173;0;-2,00337;-0,90789;-1080;1080;-600;1700;-10;10;-10;-0;0;-0;250;-1,2;0,2;177;-1,2;-1;2555;0,07;1866;2056;10;56579;
15,3711;1,18817;-1,88782;222;54;2620;0;-0,0419596;0,0494832;-0,105533;-0,0532589;0,0750987;-0,198042;0,0416893;0,0900999;-0,112177;-0,0573223;0,0311863;-0,0482057;0;0;0;0;0;0;0,044448;0,0824484;-0,098;0;0;0;-0,131734;0,158076;-0,16638;-0,0992819;0,0806695;-0,153739;0,0393971;-0,0859935;0,085146;0,0397893;-0,149064;-0;0,193902;-0,00768217;3,52206;0,0464258;-0,00122173;0;-2,00416;-0,907557;-1080;1080;-600;1700;-10;10;-10;-0;0;-0;250;-1,2;0,2;177;-1,2;-1;2555;0,07;1866;2056;10;56579;
15,3811;1,18816;-1,88793;222;54;2620;0;-0,0420036;0,0496917;-0,105481;-0,0536798;0,0755966;-0,199099;0,0417839;0,0901164;-0,112066;-0,057211;0,0310588;-0,0482585;0;0;0;0;0;0;0,044448;0,0824484;-0,098;0;0;0;-0,131734;0,158076;-0,16638;-0,0992145;0,0807505;-0,15374;0,0394631;-0,0859593;0,0851112;0,0398564;-0,149068;-0;0,193903;-0,00768218;3,52205;0,0464258;-0,00122173;0;-2,00496;-0,907224;-1080;1080;-600;1700;-10;10;-10;-0;0;-0;250;-1,2;0,2;177;-1,2;-1;2555;0,07;1866;2056;10;56579;
