time ;e1;e2;ctrlpitch;ctrlroll;ctrlthrust;ctrlyaw;edx;edy;edz;cumulx;cumuly;cumulz;x_pred;y_pred;z_pred;dxr_pred;dyr_pred;dzr_pred;dxrT;dyrT;dzrT;dxrUn;dyrUn;dzrUn;x;y;z;dx;dy;dz;ux;uy;uz;dxd;dyd;dzd;Perpx;Tangx;Perpy;Tangy;Perpz;Tanz;ax;ay;az;pitch;roll;yaw;yawd;eyaw;kpvx;kpvy;kpvz;kpyaw;kivx;kivy;kivz;kdvx;kdvy;kdvz;kdyaw;ktg;veld;pitchoff;ke1;ke2;gravity;thr_vel;gps_accuracy;height_accuracy;gps_sat_num;gps_status
13,7666;1,19112;-2,07301;50;50;1450;0;-0,093019;0,088292;0,14446;-0,000815219;0,000773791;0,00126605;0,0558573;0,0654346;0,0730133;0,0159171;0,0117779;-0,299513;0;0;0;0;0;0;0,05556;0,065353;0,072;0,01;0;-0,3;0,205665;0,0810057;2,82845;-0,0771019;0,10007;-0,155053;0,0578174;-0,0682359;0,0677308;0,0582485;-0,154986;-0;0;-0;9,81;0,0258309;-0,0200713;0;-2,2774;-0,760573;-1080;1080;-500;1700;-10;10;-0;-0;0;-0;250;-1,2;0,2;177;-1,2;-1;2555;0,07;1588;2793;9;56579;
13,7779;1,1911;-2,07001;100;93;1500;0;-0,0941368;0,0866452;0,14269;-0,00187962;0,00175349;0,00287945;0,055956;0,0654342;0,0700102;0,0170362;0,0135914;-0,297636;0;0;0;0;0;0;0,05556;0,065353;0,072;0,01;0;-0,299;0,129036;0,155836;2,70047;-0,0771006;0,100237;-0,154946;0,0579266;-0,0682443;0,0677385;0,0583592;-0,154897;-0;0,30736;-0,119575;3,85208;0,0256563;-0,0200713;0;-2,27827;-0,760004;-1080;1080;-500;1700;-10;10;-0;-0;0;-0;250;-1,2;0,2;177;-1,2;-1;2555;0,07;1588;2793;9;56579;
13,7878;1,19111;-2,0704;150;93;1550;0;-0,0930454;0,0867195;0,142155;-0,00279231;0,00260412;0,00427384;0,0559417;0,0654338;0,0703965;0,0159422;0,0134965;-0,297112;0;0;0;0;0;0;0,05556;0,065353;0,072;0,01;0;-0,299;0,0467625;0,16103;2,57249;-0,0771032;0,100216;-0,154958;0,0579117;-0,0682439;0,0677382;0,0583441;-0,154908;-0;0,30747;-0,119618;3,84996;0,0256563;-0,0200713;0;-2,27815;-0,760085;-1080;1080;-500;1700;-10;10;-0;-0;0;-0;250;-1,2;0,2;177;-1,2;-1;2555;0,07;1588;2793;9;56579;
13,7983;1,1911;-2,06966;200;93;1600;0;-0,0922674;0,0867451;0,140741;-0,00376194;0,00351572;0,00575289;0,0559649;0,0654333;0,0696565;0,0151495;0,0134939;-0,295677;0;0;0;0;0;0;0,05556;0,065353;0,072;0,01;0;-0,298;-0,04112;0,166225;2,4445;-0,0771179;0,100239;-0,154935;0,0579382;-0,0682464;0,0677404;0,0583709;-0,154886;-0;0,307503;-0,119631;3,84931;0,0256563;-0,0200713;0;-2,27836;-0,759949;-1080;1080;-500;1700;-10;10;-0;-0;0;-0;250;-1,2;0,2;177;-1,2;-1;2555;0,07;1588;2793;9;56579;
13,8079;1,19111;-2,07012;250;94;1650;0;-0,091646;0,0873564;0,139962;-0,00464312;0,00435566;0,00709863;0,055948;0,065433;0,0701242;0,01458;0,0129396;-0,294886;0;0;0;0;0;0;0,05556;0,065353;0,072;0,01;0;-0,297;-0,134569;0,173262;2,31652;-0,077066;0,100296;-0,154924;0,0579205;-0,0682457;0,0677399;0,058353;-0,1549;-0;0,305512;-0,122786;3,84762;0,0260054;-0,0205949;0;-2,27821;-0,760045;-1080;1080;-500;1700;-10;10;-0;-0;0;-0;250;-1,2;0,2;177;-1,2;-1;2555;0,07;1588;2793;9;56579;
13,8178;1,19111;-2,06993;275;94;1700;0;-0,0907059;0,0877961;0,139811;-0,00553984;0,00522361;0,0084808;0,0559529;0,0654325;0,0699262;0,0136397;0,0125091;-0,294729;0;0;0;0;0;0;0,05556;0,065353;0,072;0,01;0;-0,297;-0,186104;0,178512;2,18853;-0,0770662;0,100305;-0,154918;0,057927;-0,0682469;0,067741;0,0583595;-0,154894;-0;0,30556;-0,122805;3,84668;0,0260054;-0,0205949;0;-2,27826;-0,760014;-1080;1080;-500;1700;-10;10;-0;-0;0;-0;250;-1,2;0,2;177;-1,2;-1;2555;0,07;1588;2793;9;56579;
13,8278;1,19111;-2,07021;274;95;1750;0;-0,0904622;0,088101;0,138904;-0,00644826;0,00610832;0,00987567;0,0559421;0,0654322;0,0702113;0,0134214;0,0121893;-0,293844;0;0;0;0;0;0;0,05556;0,065353;0,072;0,01;0;-0,296;-0,189623;0,185716;2,06055;-0,0770409;0,10029;-0,154941;0,057916;-0,0682466;0,0677409;0,0583484;-0,154903;-0;0,30453;-0,122809;3,8465;0,0261799;-0,0205949;0;-2,27816;-0,760074;-1080;1080;-500;1700;-10;10;-0;-0;0;-0;250;-1,2;0,2;177;-1,2;-1;2555;0,07;1588;2793;9;56579;
13,8378;1,19111;-2,07014;274;95;1800;0;-0,090385;0,0881158;0,138711;-0,00735509;0,00699239;0,0112674;0,0559429;0,0654318;0,0701399;0,0133812;0,0120825;-0,293729;0;0;0;0;0;0;0,05556;0,065353;0,072;0,01;0;-0,296;-0,195041;0,191022;1,93256;-0,0770038;0,100198;-0,155018;0,0579178;-0,0682474;0,0677417;0,0583503;-0,1549;-0;0,302506;-0,119709;3,84541;0,026529;-0,0200713;0;-2,27818;-0,760068;-1080;1080;-500;1700;-10;10;-0;-0;0;-0;250;-1,2;0,2;177;-1,2;-1;2555;0,07;1588;2793;9;56579;
13,8479;1,19111;-2,0701;274;95;1850;0;-0,0902677;0,0880996;0,138632;-0,00825912;0,0078747;0,0126558;0,0559426;0,0654314;0,0701031;0,013263;0,0120997;-0,29365;0;0;0;0;0;0;0,05556;0,065353;0,072;0,01;0;-0,296;-0,200459;0,196328;1,80458;-0,0770047;0,100199;-0,155017;0,0579185;-0,0682482;0,0677424;0,0583509;-0,154899;-0;0,302518;-0,119714;3,84518;0,026529;-0,0200713;0;-2,27817;-0,760068;-1080;1080;-500;1700;-10;10;-0;-0;0;-0;250;-1,2;0,2;177;-1,2;-1;2555;0,07;1588;2793;9;56579;
13,8578;1,18985;-2,06308;251;123;1900;0;-0,0691789;0,114511;0,139756;-0,00895036;0,0090189;0,0140522;0,0555392;0,0733089;0,0630802;-0,0136487;-0,0193232;-0,294929;0;0;0;0;0;0;0,05556;0,0732914;0,065;-0,03;-0,01;-0,296;-0,15708;0,261013;1,67659;-0,0828275;0,0951881;-0,155174;0,0538853;-0,0717326;0,0711258;0,054345;-0,154721;-0;0,301483;-0,115552;3,84509;0,0267035;-0,0193732;0;-2,21915;-0,797081;-1080;1080;-500;1700;-10;10;-0;-0;0;-0;250;-1,2;0,2;177;-1,2;-1;2555;0,07;1588;2793;9;56579;
13,8678;1,18985;-2,06309;251;123;1950;0;-0,0693474;0,113816;0,139937;-0,00964002;0,0101508;0,0154439;0,0555399;0,073309;0,0630851;-0,0134777;-0,0188653;-0,295257;0;0;0;0;0;0;0,05556;0,0732914;0,065;-0,03;-0,01;-0,297;-0,161214;0,267882;1,54861;-0,0828251;0,0949507;-0,15532;0,0538856;-0,0717322;0,0711254;0,0543453;-0,154721;-0;0,298296;-0,109282;3,84644;0,0272271;-0,018326;0;-2,21915;-0,797078;-1080;1080;-500;1700;-10;10;-0;-0;0;-0;250;-1,2;0,2;177;-1,2;-1;2555;0,07;1588;2793;9;56579;
13,8778;1,18985;-2,0631;251;123;2000;0;-0,0692778;0,113788;0,139875;-0,0103357;0,0112935;0,0168485;0,0555407;0,0733091;0,0631015;-0,0135464;-0,0188371;-0,295196;0;0;0;0;0;0;0,05556;0,0732914;0,065;-0,03;-0,01;-0,297;-0,165348;0,274751;1,42063;-0,0828241;0,0949508;-0,155321;0,0538858;-0,0717315;0,0711247;0,0543455;-0,154722;-0;0,298285;-0,109278;3,84665;0,0272271;-0,018326;0;-2,21916;-0,797074;-1080;1080;-500;1700;-10;10;-0;-0;0;-0;250;-1,2;0,2;177;-1,2;-1;2555;0,07;1588;2793;9;56579;
13,8878;1,18985;-2,0631;252;122;2050;0;-0,0694727;0,113677;0,14276;-0,0110302;0,0124299;0,0182757;0,0555422;0,0733095;0,063095;-0,0133487;-0,0188278;-0,298143;0;0;0;0;0;0;0,05556;0,0732914;0,065;-0,03;-0,01;-0,3;-0,171771;0,279332;1,29264;-0,0828214;0,0948496;-0,155384;0,0538866;-0,0717311;0,0711243;0,0543463;-0,154721;-0;0,29517;-0,108239;3,84658;0,0277507;-0,0181514;0;-2,21917;-0,797068;-1080;1080;-500;1700;-10;10;-0;-0;0;-0;250;-1,2;0,2;177;-1,2;-1;2555;0,07;1588;2793;9;56579;
13,8979;1,18985;-2,06308;252;122;2100;0;-0,0693651;0,113665;0,14269;-0,0117316;0,0135792;0,0197184;0,0555394;0,0733084;0,0630755;-0,0134584;-0,0188165;-0,298074;0;0;0;0;0;0;0,05556;0,0732914;0,065;-0,03;-0,01;-0,3;-0,17596;0,286145;1,16466;-0,0828235;0,0948486;-0,155383;0,0538857;-0,0717324;0,0711257;0,0543454;-0,154721;-0;0,294999;-0,108176;3,85004;0,0277507;-0,0181514;0;-2,21915;-0,797078;-1080;1080;-500;1700;-10;10;-0;-0;0;-0;250;-1,2;0,2;177;-1,2;-1;2555;0,07;1588;2793;9;56579;
13,9079;1,18985;-2,06308;252;122;2150;0;-0,0697192;0,113566;0,144492;-0,0124228;0,0147052;0,021151;0,0555408;0,0733088;0,0630786;-0,0130123;-0,0188904;-0,30003;0;0;0;0;0;0;0,05556;0,0732914;0,065;-0,03;-0,01;-0,302;-0,18015;0,292958;1,03667;-0,0827314;0,0946755;-0,155538;0,0538863;-0,0717318;0,071125;0,0543461;-0,154721;-0;0,286691;-0,106097;3,84996;0,029147;-0,0178024;0;-2,21916;-0,797072;-1080;1080;-500;1700;-10;10;-0;-0;0;-0;250;-1,2;0,2;177;-1,2;-1;2555;0,07;1588;2793;9;56579;
13,9178;1,18985;-2,06301;252;122;2200;0;-0,0701025;0,113351;0,14829;-0,0131197;0,0158319;0,0226251;0,0555375;0,0733076;0,0630135;-0,012644;-0,0188692;-0,303938;0;0;0;0;0;0;0,05556;0,0732914;0,065;-0,03;-0,01;-0,306;-0,18434;0,299771;0,908689;-0,0827466;0,0944822;-0,155647;0,0538859;-0,0717343;0,0711275;0,0543456;-0,154719;-0;0,280355;-0,105019;3,85212;0,0301942;-0,0176278;0;-2,21914;-0,797085;-1080;1080;-500;1700;-10;10;-0;-0;0;-0;250;-1,2;0,2;177;-1,2;-1;2555;0,07;1588;2793;9;56579;
13,9281;1,18985;-2,06308;252;122;2250;0;-0,0700858;0,113349;0,148279;-0,013844;0,0170033;0,0241575;0,0555435;0,0733094;0,0630833;-0,0126553;-0,0188647;-0,303928;0;0;0;0;0;0;0,05556;0,0732914;0,065;-0,03;-0,01;-0,306;-0,188529;0,306584;0,780705;-0,0827411;0,0944838;-0,155649;0,0538876;-0,0717307;0,0711239;0,0543473;-0,154721;-0;0,280141;-0,104939;3,85668;0,0301942;-0,0176278;0;-2,21918;-0,797061;-1080;1080;-500;1700;-10;10;-0;-0;0;-0;250;-1,2;0,2;177;-1,2;-1;2555;0,07;1588;2793;9;56579;
13,9379;1,18985;-2,06304;253;122;2300;0;-0,0704904;0,113149;0,153108;-0,0145299;0,0181043;0,0256473;0,0555428;0,0733091;0,0630355;-0,0124211;-0,0189587;-0,308845;0;0;0;0;0;0;0,05556;0,0732914;0,065;-0,03;-0,01;-0,311;-0,195287;0,313397;0,65272;-0,0829115;0,0941899;-0,155737;0,0538881;-0,0717319;0,0711251;0,0543478;-0,15472;-0;0,278066;-0,101822;3,85666;0,0305433;-0,0171042;0;-2,21918;-0,797063;-1080;1080;-500;1700;-10;10;-0;-0;0;-0;250;-1,2;0,2;177;-1,2;-1;2555;0,07;1588;2793;9;56579;
13,9487;1,18985;-2,06286;253;122;2350;0;-0,0708811;0,113024;0,158698;-0,0152991;0,0193308;0,0273695;0,055531;0,0733051;0,0628608;-0,0123332;-0,0194139;-0,314623;0;0;0;0;0;0;0,05556;0,0732914;0,065;-0,03;-0,01;-0,317;-0,199533;0,32021;0,524736;-0,0832143;0,0936098;-0,155925;0,0538855;-0,0717396;0,0711329;0,0543452;-0,154714;-0;0,276758;-0,0913441;3,86246;0,0307178;-0,0153589;0;-2,2191;-0,797108;-1080;1080;-500;1700;-10;10;-0;-0;0;-0;250;-1,2;0,2;177;-1,2;-1;2555;0,07;1588;2793;9;56579;
13,9578;1,18985;-2,06306;253;122;2400;0;-0,0710032;0,113082;0,158813;-0,0159421;0,0203549;0,0288077;0,0555493;0,073311;0,063063;-0,012195;-0,019467;-0,314743;0;0;0;0;0;0;0,05556;0,0732914;0,065;-0,03;-0,01;-0,317;-0,203778;0,327023;0,396751;-0,0831981;0,0936148;-0,155931;0,0538907;-0,071729;0,0711221;0,0543506;-0,15472;-0;0,276446;-0,0912411;3,86916;0,0307178;-0,0153589;0;-2,21922;-0,797036;-1080;1080;-500;1700;-10;10;-0;-0;0;-0;250;-1,2;0,2;177;-1,2;-1;2555;0,07;1588;2793;9;56579;
13,9678;1,18985;-2,06263;254;122;2450;0;-0,0712477;0,112895;0,166117;-0,0166579;0,0214891;0,0304766;0,0555157;0,0732997;0,062631;-0,01239;-0,0200386;-0,322265;0;0;0;0;0;0;0,05556;0,0732914;0,065;-0,03;-0,01;-0,325;-0,21076;0,333836;0,268767;-0,0836378;0,0928566;-0,156149;0,0538823;-0,0717497;0,071143;0,0543418;-0,154707;-0;0,277475;-0,0767246;3,8693;0,0305433;-0,0129154;0;-2,219;-0,797167;-1080;1080;-500;1700;-10;10;-0;-0;0;-0;250;-1,2;0,2;177;-1,2;-1;2555;0,07;1588;2793;9;56579;
13,9778;1,18984;-2,06315;255;122;2467;0;-0,0725189;0,113274;0,174255;-0,0173787;0,022615;0,0322086;0,0555698;0,0733176;0,063153;-0,0114687;-0,0212506;-0,330709;0;0;0;0;0;0;0,05556;0,0732914;0,065;-0,03;-0,01;-0,333;-0,214977;0,336152;0,225252;-0,0839876;0,0920234;-0,156454;0,0538987;-0,0717198;0,0711128;0,0543588;-0,154723;-0;0,277066;-0,0590121;3,87807;0,0305433;-0,00994838;0;-2,21935;-0,796955;-1080;1080;-500;1700;-10;10;-0;-0;0;-0;250;-1,2;0,2;177;-1,2;-1;2555;0,07;1588;2793;9;56579;
13,9878;1,18985;-2,06283;255;122;2468;0;-0,0721218;0,113133;0,173921;-0,0181048;0,023754;0,0339596;0,05554;0,0733076;0,0628322;-0,0118916;-0,0211178;-0,330366;0;0;0;0;0;0;0,05556;0,0732914;0,065;-0,03;-0,01;-0,333;-0,215064;0,336288;0,222693;-0,0840134;0,092015;-0,156445;0,0538903;-0,0717369;0,0711301;0,05435;-0,154713;-0;0,27661;-0,058915;3,88783;0,0305433;-0,00994838;0;-2,21916;-0,797071;-1080;1080;-500;1700;-10;10;-0;-0;0;-0;250;-1,2;0,2;177;-1,2;-1;2555;0,07;1588;2793;9;56579;
13,9979;1,18985;-2,06278;256;122;2463;0;-0,0732023;0,11335;0,183476;-0,0188437;0,0248981;0,0358116;0,0555434;0,0733086;0,0627796;-0,0112317;-0,0224025;-0,340318;0;0;0;0;0;0;0,05556;0,0732914;0,065;-0,03;-0,01;-0,343;-0,217379;0,335607;0,235491;-0,084434;0,0909475;-0,156842;0,0538927;-0,0717368;0,0711299;0,0543525;-0,154712;-0;0,273531;-0,0372124;3,88743;0,0310669;-0,00628319;0;-2,21919;-0,797058;-1080;1080;-500;1700;-10;10;-0;-0;0;-0;250;-1,2;0,2;177;-1,2;-1;2555;0,07;1588;2793;9;56579;
14,0077;1,18985;-2,06254;257;122;2453;0;-0,0744888;0,113642;0,203956;-0,0195743;0,0260127;0,037812;0,0555396;0,0733072;0,0625351;-0,0103842;-0,0237769;-0,361185;0;0;0;0;0;0;0,05556;0,0732914;0,065;-0,03;-0,01;-0,364;-0,219236;0,334244;0,261088;-0,0848729;0,0898646;-0,157229;0,0538948;-0,0717431;0,0711363;0,0543546;-0,154704;-0;0,27094;-0,0144435;3,89889;0,0314159;-0,00244346;0;-2,21916;-0,797072;-1080;1080;-500;1700;-10;10;-0;-0;0;-0;250;-1,2;0,2;177;-1,2;-1;2555;0,07;1588;2793;9;56579;
14,0178;1,18985;-2,06254;257;123;2453;0;-0,0744727;0,11366;0,203961;-0,0203236;0,0271564;0,0398643;0,0555389;0,0733069;0,0625381;-0,0104004;-0,0237956;-0,36119;0;0;0;0;0;0;0,05556;0,0732914;0,065;-0,03;-0,01;-0,364;-0,219236;0,336982;0,261088;-0,0848732;0,0898642;-0,157229;0,0538945;-0,0717433;0,0711364;0,0543543;-0,154705;-0;0,269814;-0,0143835;3,92347;0,0314159;-0,00244346;0;-2,21916;-0,797074;-1080;1080;-500;1700;-10;10;-0;-0;0;-0;250;-1,2;0,2;177;-1,2;-1;2555;0,07;1588;2793;9;56579;
14,0278;1,18682;-2,06345;286;73;2443;0;-0,10103;0,0578521;0,223738;-0,0213323;0,027734;0,0420981;0,0673026;0,0803567;0,0634532;0,0201372;0,0350853;-0,381278;0;0;0;0;0;0;0,066672;0,0800113;0,066;0,03;0,02;-0,385;-0,297439;0,199244;0,286685;-0,080893;0,0929374;-0,15754;0,0571722;-0,0690197;0,0682614;0,0578073;-0,154811;-0;0,267761;0,00513696;3,92347;0,031765;0,000872665;0;-2,26802;-0,76663;-1080;1080;-500;1700;-10;10;-0;-0;0;-0;250;-1,2;0,2;177;-1,2;-1;2555;0,07;1588;2796;9;56579;
14,0378;1,18681;-2,06303;288;64;2425;0;-0,102746;0,0598505;0,258749;-0,0223658;0,028336;0,0447008;0,067307;0,0803601;0,0630261;0,0212068;0,0318218;-0,416697;0;0;0;0;0;0;0,066672;0,0800113;0,066;0,03;0,02;-0,419;-0,300661;0,173399;0,332759;-0,0815391;0,0916723;-0,157948;0,05718;-0,0690276;0,0682691;0,0578153;-0,154798;-0;0,26566;0,0296742;3,9472;0,0319395;0,00506145;0;-2,26803;-0,766622;-1080;1080;-500;1700;-10;10;-0;-0;0;-0;250;-1,2;0,2;177;-1,2;-1;2555;0,07;1588;2796;9;56579;
14,0479;1,18682;-2,06307;288;65;2425;0;-0,102915;0,0600708;0,259015;-0,0233976;0,0289382;0,0472974;0,0673015;0,0803568;0,0630736;0,0213757;0,0315986;-0,416964;0;0;0;0;0;0;0,066672;0,0800113;0,066;0,03;0,02;-0,419;-0,300661;0,176108;0,332759;-0,0815397;0,0916693;-0,157949;0,0571779;-0,0690278;0,0682694;0,0578131;-0,154799;-0;0,263756;0,0294615;3,98921;0,0319395;0,00506145;0;-2,26801;-0,766635;-1080;1080;-500;1700;-10;10;-0;-0;0;-0;250;-1,2;0,2;177;-1,2;-1;2555;0,07;1588;2796;9;56579;
14,0578;1,18682;-2,06266;289;65;2406;0;-0,104307;0,0604124;0,297874;-0,0244383;0,029541;0,0502696;0,0673006;0,0803566;0,0626646;0,0220355;0,0302781;-0,456009;0;0;0;0;0;0;0,066672;0,0800113;0,066;0,03;0,02;-0,458;-0,30099;0,174728;0,381393;-0,0822719;0,0906905;-0,158135;0,0571844;-0,0690363;0,0682778;0,0578196;-0,154787;-0;0,267801;0,0446976;3,98953;0,0312414;0,00767945;0;-2,268;-0,766639;-1080;1080;-500;1700;-10;10;-0;-0;0;-0;250;-1,2;0,2;177;-1,2;-1;2555;0,07;1588;2796;9;56579;
14,0678;1,18682;-2,0627;289;65;2406;0;-0,104326;0,0604217;0,297892;-0,0254771;0,0301426;0,0532357;0,0672964;0,0803541;0,0626969;0,0220538;0,0302666;-0,456028;0;0;0;0;0;0;0,066672;0,0800113;0,066;0,03;0,02;-0,458;-0,30099;0,174728;0,381393;-0,0822725;0,0906883;-0,158136;0,0571828;-0,0690365;0,0682781;0,057818;-0,154788;-0;0,265656;0,0443395;4,03615;0,0312414;0,00767945;0;-2,26799;-0,766649;-1080;1080;-500;1700;-10;10;-0;-0;0;-0;250;-1,2;0,2;177;-1,2;-1;2555;0,07;1588;2796;9;56579;
14,0778;1,18682;-2,06234;291;66;2386;0;-0,105859;0,0609052;0,337779;-0,0265387;0,0307534;0,056623;0,0672919;0,0803515;0,0623358;0,0228066;0,0287207;-0,496112;0;0;0;0;0;0;0,066672;0,0800113;0,066;0,03;0,02;-0,498;-0,303814;0,175941;0,432587;-0,0830529;0,0896259;-0,158333;0,0571877;-0,0690447;0,0682863;0,0578228;-0,154777;-0;0,268674;0,0594546;4,03618;0,0307178;0,0102974;0;-2,26797;-0,76666;-1080;1080;-500;1700;-10;10;-0;-0;0;-0;250;-1,2;0,2;177;-1,2;-1;2555;0,07;1588;2796;9;56579;
14,0879;1,18682;-2,06206;293;66;2370;0;-0,107211;0,061659;0,368573;-0,0276217;0,0313763;0,0603463;0,0672882;0,0803494;0,0620558;0,0233607;0,0267085;-0,527193;0;0;0;0;0;0;0,066672;0,0800113;0,066;0,03;0,02;-0,529;-0,307067;0,174761;0,473542;-0,0838501;0,0883674;-0,15862;0,0571914;-0,0690512;0,0682927;0,0578265;-0,154768;-0;0,267446;0,0779484;4,08403;0,0305433;0,0136136;0;-2,26796;-0,766669;-1080;1080;-500;1700;-10;10;-0;-0;0;-0;250;-1,2;0,2;177;-1,2;-1;2555;0,07;1588;2796;9;56579;
14,0979;1,18682;-2,06204;293;66;2370;0;-0,107169;0,0616926;0,368573;-0,0286868;0,0319894;0,0640092;0,0672872;0,0803491;0,062038;0,0233182;0,0266749;-0,527193;0;0;0;0;0;0;0,066672;0,0800113;0,066;0,03;0,02;-0,529;-0,307067;0,174761;0,473542;-0,083851;0,0883674;-0,15862;0,0571913;-0,0690518;0,0682934;0,0578265;-0,154768;-0;0,26572;0,0774454;4,12098;0,0305433;0,0136136;0;-2,26795;-0,766672;-1080;1080;-500;1700;-10;10;-0;-0;0;-0;250;-1,2;0,2;177;-1,2;-1;2555;0,07;1588;2796;9;56579;
14,1078;1,18682;-2,06145;295;68;2342;0;-0,10936;0,0628946;0,424359;-0,0297782;0,0326171;0,0682443;0,0672863;0,0803489;0,0614532;0,0247067;0,0242398;-0,583234;0;0;0;0;0;0;0,066672;0,0800113;0,066;0,03;0,02;-0,585;-0,308666;0,177928;0,545213;-0,0846534;0,0871344;-0,158875;0,0572007;-0,0690639;0,0683053;0,0578359;-0,15475;-0;0,26572;0,0943231;4,12098;0,0305433;0,0165806;0;-2,26795;-0,766675;-1080;1080;-500;1700;-10;10;-0;-0;0;-0;250;-1,2;0,2;177;-1,2;-1;2555;0,07;1588;2796;9;56579;
14,1178;1,18682;-2,06121;297;69;2324;0;-0,111369;0,0636874;0,460099;-0,0308837;0,0332493;0,0728117;0,0672784;0,0803439;0,061214;0,0260804;0,0223206;-0,619249;0;0;0;0;0;0;0,066672;0,0800113;0,066;0,03;0,02;-0,621;-0,311481;0,179156;0,591288;-0,0852889;0,0860079;-0,159149;0,0572029;-0,0690702;0,0683117;0,057838;-0,154743;-0;0,257693;0,105967;4,18792;0,0314159;0,0188496;0;-2,26792;-0,766693;-1080;1080;-500;1700;-10;10;-0;-0;0;-0;250;-1,2;0,2;177;-1,2;-1;2555;0,07;1588;2796;9;56579;
14,1286;1,18682;-2,06121;297;69;2324;0;-0,111325;0,0636977;0,460081;-0,0320865;0,0339375;0,0777824;0,0672766;0,0803431;0,0612118;0,0260357;0,0223096;-0,61923;0;0;0;0;0;0;0,066672;0,0800113;0,066;0,03;0,02;-0,621;-0,311481;0,179156;0,591288;-0,0852896;0,0860073;-0,159149;0,0572024;-0,0690707;0,0683123;0,0578375;-0,154743;-0;0,255727;0,105159;4,2308;0,0314159;0,0188496;0;-2,26791;-0,766698;-1080;1080;-500;1700;-10;10;-0;-0;0;-0;250;-1,2;0,2;177;-1,2;-1;2555;0,07;1588;2796;9;56579;
14,1379;1,18682;-2,06096;300;69;2309;0;-0,113747;0,0641179;0,490771;-0,0331501;0,034537;0,0823716;0,067272;0,0803404;0,0609607;0,0279791;0,0208781;-0,650206;0;0;0;0;0;0;0,066672;0,0800113;0,066;0,03;0,02;-0,652;-0,3172;0,178;0,629683;-0,0857682;0,084996;-0,159435;0,0572054;-0,0690767;0,0683183;0,0578405;-0,154735;-0;0,245028;0,112948;4,23078;0,0333358;0,0202458;0;-2,26789;-0,766709;-1080;1080;-500;1700;-10;10;-0;-0;0;-0;250;-1,2;0,2;177;-1,2;-1;2555;0,07;1588;2796;9;56579;
14,1478;1,18682;-2,06014;302;69;2296;0;-0,115896;0,0644352;0,516322;-0,0342982;0,0351753;0,0874863;0,0672951;0,0803562;0,0601352;0,0295696;0,0194799;-0,676027;0;0;0;0;0;0;0,066672;0,0800113;0,066;0,03;0,02;-0,678;-0,320537;0,176998;0,662959;-0,0863269;0,0839151;-0,159706;0,0572238;-0,0690892;0,0683302;0,0578595;-0,154711;-0;0,231813;0,118973;4,2676;0,0354302;0,0214675;0;-2,26797;-0,766663;-1080;1080;-500;1700;-10;10;-0;-0;0;-0;250;-1,2;0,2;177;-1,2;-1;2555;0,07;1588;2796;9;56579;
14,1579;1,18683;-2,06115;303;69;2296;0;-0,116391;0,0643208;0,516544;-0,035467;0,0358212;0,0926734;0,0672486;0,0803255;0,0611478;0,0300787;0,0195548;-0,676279;0;0;0;0;0;0;0,066672;0,0800113;0,066;0,03;0,02;-0,678;-0,323099;0,176998;0,662959;-0,0863119;0,0838756;-0,159735;0,0571971;-0,0690775;0,0683195;0,0578318;-0,154741;-0;0,230531;0,118314;4,29826;0,0354302;0,0214675;0;-2,26781;-0,766761;-1080;1080;-500;1700;-10;10;-0;-0;0;-0;250;-1,2;0,2;177;-1,2;-1;2555;0,07;1588;2796;9;56579;
14,1683;1,18683;-2,0606;304;70;2286;0;-0,118156;0,0649866;0,536154;-0,0367027;0,0365009;0,0982805;0,0672624;0,080335;0,0605974;0,0312049;0,0176669;-0,696179;0;0;0;0;0;0;0,066672;0,0800113;0,066;0,03;0,02;-0,698;-0,324242;0,17878;0,688556;-0,0869513;0,0826535;-0,160025;0,057209;-0,0690862;0,0683278;0,057844;-0,154724;-0;0,222831;0,129849;4,29853;0,0368264;0,0235619;0;-2,26786;-0,766734;-1080;1080;-500;1700;-10;10;-0;-0;0;-0;250;-1,2;0,2;177;-1,2;-1;2555;0,07;1588;2796;9;56579;
14,1778;1,18683;-2,06035;306;71;2278;0;-0,119728;0,0655543;0,553879;-0,0378425;0,037125;0,103553;0,0672635;0,0803361;0,0603488;0,0320984;0,0159183;-0,714139;0;0;0;0;0;0;0,066672;0,0800113;0,066;0,03;0,02;-0,716;-0,328191;0,180699;0,709033;-0,0876299;0,0814726;-0,16026;0,0572132;-0,0690911;0,0683326;0,0578483;-0,154717;-0;0,217094;0,139828;4,32206;0,0376991;0,0254818;0;-2,26786;-0,766733;-1080;1080;-500;1700;-10;10;-0;-0;0;-0;250;-1,2;0,2;177;-1,2;-1;2555;0,07;1588;2796;9;56579;
14,188;1,18682;-2,06008;306;71;2278;0;-0,119536;0,0656097;0,553799;-0,0390528;0,0377893;0,109161;0,0672729;0,0803427;0,0600805;0,031901;0,0158722;-0,714051;0;0;0;0;0;0;0,066672;0,0800113;0,066;0,03;0,02;-0,716;-0,328191;0,180699;0,709033;-0,0876351;0,0814819;-0,160252;0,0572195;-0,0690949;0,0683362;0,0578548;-0,154709;-0;0,216253;0,139286;4,34332;0,0376991;0,0254818;0;-2,26788;-0,766715;-1080;1080;-500;1700;-10;10;-0;-0;0;-0;250;-1,2;0,2;177;-1,2;-1;2555;0,07;1588;2796;9;56579;
14,1979;1,18683;-2,06069;309;71;2273;0;-0,122067;0,0656028;0,563558;-0,0402627;0,0384395;0,114747;0,0672419;0,0803224;0,0606851;0,0339101;0,0146127;-0,724163;0;0;0;0;0;0;0,066672;0,0800113;0,066;0,03;0,02;-0,726;-0,335077;0,180302;0,721832;-0,0881572;0,0802156;-0,160604;0,0572028;-0,0690886;0,0683304;0,0578375;-0,154727;-0;0,203862;0,147872;4,34323;0,039968;0,0270526;0;-2,26778;-0,76678;-1080;1080;-500;1700;-10;10;-0;-0;0;-0;250;-1,2;0,2;177;-1,2;-1;2555;0,07;1588;2796;9;56579;
14,2079;1,18683;-2,06027;308;71;2273;0;-0,121803;0,0657198;0,563473;-0,0414785;0,0390955;0,120371;0,0672571;0,0803329;0,0602728;0,0336377;0,0145104;-0,724066;0;0;0;0;0;0;0,066672;0,0800113;0,066;0,03;0,02;-0,726;-0,332542;0,180302;0,721832;-0,0881651;0,0802302;-0,160593;0,0572127;-0,0690942;0,0683357;0,0578477;-0,154715;-0;0,203425;0,147556;4,35494;0,039968;0,0270526;0;-2,26783;-0,76675;-1080;1080;-500;1700;-10;10;-0;-0;0;-0;250;-1,2;0,2;177;-1,2;-1;2555;0,07;1588;2796;9;56579;
14,2178;1,18683;-2,0604;311;71;2270;0;-0,12388;0,065642;0,569145;-0,0427049;0,0397453;0,126005;0,0672478;0,0803271;0,0603963;0,0353271;0,0135359;-0,730046;0;0;0;0;0;0;0,066672;0,0800113;0,066;0,03;0,02;-0,732;-0,3397;0,180064;0,729511;-0,0885528;0,0791779;-0,160901;0,0572086;-0,0690935;0,0683352;0,0578434;-0,154718;-0;0,19106;0,154221;4,35483;0,042237;0,0282743;0;-2,2678;-0,766771;-1080;1080;-500;1700;-10;10;-0;-0;0;-0;250;-1,2;0,2;177;-1,2;-1;2555;0,07;1588;2796;9;56579;
14,2278;1,18683;-2,06033;313;71;2268;0;-0,125817;0,0656068;0,572755;-0,0439697;0,0404049;0,131763;0,067247;0,0803269;0,0603339;0,0367089;0,0122612;-0,733988;0;0;0;0;0;0;0,066672;0,0800113;0,066;0,03;0,02;-0,736;-0,34446;0,179905;0,73463;-0,0891085;0,077868;-0,161234;0,0572093;-0,069095;0,0683367;0,0578441;-0,154716;-0;0,178467;0,162583;4,36164;0,0445059;0,0298451;0;-2,26779;-0,766774;-1080;1080;-500;1700;-10;10;-0;-0;0;-0;250;-1,2;0,2;177;-1,2;-1;2555;0,07;1588;2796;9;56579;
14,2378;1,18683;-2,06042;313;71;2268;0;-0,125814;0,0656285;0,572768;-0,0452289;0,0410617;0,137495;0,0672418;0,0803237;0,0604215;0,0367067;0,0122355;-0,734004;0;0;0;0;0;0;0,066672;0,0800113;0,066;0,03;0,02;-0,736;-0,34446;0,179905;0,73463;-0,0891075;0,077864;-0,161236;0,0572066;-0,0690944;0,0683362;0,0578413;-0,154719;-0;0,178325;0,162454;4,36597;0,0445059;0,0298451;0;-2,26777;-0,766786;-1080;1080;-500;1700;-10;10;-0;-0;0;-0;250;-1,2;0,2;177;-1,2;-1;2555;0,07;1588;2796;9;56579;
14,2477;1,18683;-2,06031;315;71;2267;0;-0,127462;0,0656707;0,575404;-0,0464874;0,0417101;0,143177;0,0672435;0,0803252;0,0603068;0,0378681;0,0110109;-0,736937;0;0;0;0;0;0;0,066672;0,0800113;0,066;0,03;0,02;-0,739;-0,349366;0,179826;0,73719;-0,0895935;0,0766816;-0,161533;0,0572087;-0,0690965;0,0683382;0,0578435;-0,154715;-0;0,167878;0,171001;4,36599;0,0464258;0,0314159;0;-2,26778;-0,766784;-1080;1080;-500;1700;-10;10;-0;-0;0;-0;250;-1,2;0,2;177;-1,2;-1;2555;0,07;1588;2796;9;56579;
14,2585;1,18139;-2,06336;265;21;2264;0;-0,0752702;0,0168635;0,581029;-0,0473021;0,0418926;0,149466;0,0670391;0,104958;0,0633636;-0,0241802;0,0449835;-0,743154;0;0;0;0;0;0;0,066672;0,103827;0,069;0,01;0,09;-0,741;-0,222569;0,0531253;0,744869;-0,0994503;0,061847;-0,162125;0,0477552;-0,0759443;0,0747664;0,0485075;-0,154948;-0;0,154492;0,179443;4,36915;0,0488692;0,0329867;0;-2,1392;-0,842759;-1080;1080;-500;1700;-10;10;-0;-0;0;-0;250;-1,2;0,2;177;-1,2;-1;2555;0,07;1590;2800;9;56579;
14,2678;1,18139;-2,06349;260;18;2263;0;-0,0771425;0,0168882;0,58221;-0,0480162;0,042049;0,154856;0,067036;0,10494;0,0634907;-0,0223;0,0449624;-0,744339;0;0;0;0;0;0;0,066672;0,103827;0,069;0,01;0,09;-0,741;-0,209836;0,0455161;0,747429;-0,0994425;0,0618506;-0,162129;0,0477577;-0,0759387;0,0747612;0,0485099;-0,154952;-0;0,1543;0,179221;4,3759;0,0488692;0,0329867;0;-2,13926;-0,842729;-1080;1080;-500;1700;-10;10;-0;-0;0;-0;250;-1,2;0,2;177;-1,2;-1;2555;0,07;1590;2800;9;56579;
14,2791;1,18137;-2,06281;261;19;2263;0;-0,0781997;0,0172199;0,583118;-0,0489019;0,042244;0,161459;0,0670435;0,105019;0,0628057;-0,0216441;0,0433755;-0,745474;0;0;0;0;0;0;0,066672;0,103827;0,069;0,01;0,09;-0,742;-0,212363;0,0480447;0,747429;-0,0998439;0,0605954;-0,162356;0,0477446;-0,0759683;0,074789;0,0484975;-0,154932;-0;0,144782;0,185807;4,37732;0,0506145;0,0342085;0;-2,13897;-0,842887;-1080;1080;-500;1700;-10;10;-0;-0;0;-0;250;-1,2;0,2;177;-1,2;-1;2555;0,07;1590;2800;9;56579;
14,2878;1,18141;-2,064;263;19;2263;0;-0,0792636;0,0172178;0,583004;-0,0495931;0,0423941;0,166544;0,0670261;0,104873;0,0639971;-0,0208731;0,0422172;-0,745608;0;0;0;0;0;0;0,066672;0,103827;0,069;0,01;0,09;-0,742;-0,217417;0,0480447;0,747429;-0,100137;0,0594349;-0,162604;0,0477679;-0,0759165;0,0747405;0,0485195;-0,154967;-0;0,136223;0,191455;4,37841;0,0521853;0,0352557;0;-2,13948;-0,842609;-1080;1080;-500;1700;-10;10;-0;-0;0;-0;250;-1,2;0,2;177;-1,2;-1;2555;0,07;1590;2800;9;56579;
14,298;1,18136;-2,06249;262;19;2263;0;-0,0789355;0,0174601;0,582957;-0,050399;0,0425724;0,172495;0,0670448;0,105053;0,062491;-0,0212934;0,0419311;-0,74552;0;0;0;0;0;0;0,066672;0,103827;0,069;0,01;0,09;-0,742;-0,21489;0,0480447;0,747429;-0,100229;0,0593911;-0,162563;0,0477385;-0,075982;0,0748019;0,0484916;-0,154923;-0;0,136227;0,19146;4,37827;0,0521853;0,0352557;0;-2,13883;-0,84296;-1080;1080;-500;1700;-10;10;-0;-0;0;-0;250;-1,2;0,2;177;-1,2;-1;2555;0,07;1590;2800;9;56579;
14,3077;1,18143;-2,06448;264;18;2265;0;-0,0804443;0,0166117;0,579857;-0,0511787;0,0427334;0,178116;0,0670171;0,104813;0,0644777;-0,0199077;0,0418035;-0,742698;0;0;0;0;0;0;0,066672;0,103827;0,069;0,01;0,09;-0,739;-0,220138;0,0455563;0,742309;-0,100352;0,0584152;-0,162841;0,0477765;-0,0758961;0,0747215;0,0485276;-0,154981;-0;0,123908;0,191462;4,37821;0,0544543;0,0352557;0;-2,13968;-0,842503;-1080;1080;-500;1700;-10;10;-0;-0;0;-0;250;-1,2;0,2;177;-1,2;-1;2555;0,07;1590;2800;9;56579;
14,3177;1,18139;-2,06343;265;17;2266;0;-0,0815267;0,0161303;0,576663;-0,0519938;0,0428947;0,183881;0,0670302;0,104942;0,0634318;-0,0190892;0,0412023;-0,739725;0;0;0;0;0;0;0,066672;0,103827;0,069;0,01;0,09;-0,736;-0,222765;0,0430444;0,73975;-0,100616;0,0573326;-0,163063;0,0477549;-0,0759424;0,0747648;0,048507;-0,15495;-0;0,109766;0,190645;4,37449;0,0570723;0,0350811;0;-2,13921;-0,842755;-1080;1080;-500;1700;-10;10;-0;-0;0;-0;250;-1,2;0,2;177;-1,2;-1;2555;0,07;1590;2800;9;56579;
14,3278;1,18141;-2,06384;265;17;2266;0;-0,0815995;0,0161121;0,576695;-0,0528119;0,0430562;0,189663;0,0670233;0,10489;0,0638385;-0,0189917;0,041233;-0,739769;0;0;0;0;0;0;0,066672;0,103827;0,069;0,01;0,09;-0,736;-0,222765;0,0430444;0,73975;-0,100591;0,0573451;-0,163073;0,0477629;-0,0759246;0,0747482;0,0485146;-0,154962;-0;0,109843;0,190779;4,37066;0,0570723;0,0350811;0;-2,13939;-0,84266;-1080;1080;-500;1700;-10;10;-0;-0;0;-0;250;-1,2;0,2;177;-1,2;-1;2555;0,07;1590;2800;9;56579;
14,3377;1,1814;-2,06366;266;16;2267;0;-0,0826053;0,015129;0,574553;-0,0536355;0,0432071;0,195391;0,0670246;0,104913;0,0636598;-0,0182265;0,0413467;-0,737781;0;0;0;0;0;0;0,066672;0,103827;0,069;0,01;0,09;-0,734;-0,225395;0,0405303;0,73719;-0,100832;0,0564757;-0,163228;0,0477587;-0,0759329;0,074756;0,0485106;-0,154957;-0;0,0984522;0,186034;4,3707;0,0591667;0,0342085;0;-2,1393;-0,842707;-1080;1080;-500;1700;-10;10;-0;-0;0;-0;250;-1,2;0,2;177;-1,2;-1;2555;0,07;1590;2800;9;56579;
14,3478;1,1814;-2,06369;266;14;2268;0;-0,0827379;0,0132364;0,572589;-0,0544669;0,0433401;0,201145;0,0670231;0,10491;0,0636861;-0,0185977;0,042575;-0,735734;0;0;0;0;0;0;0,066672;0,103827;0,069;0,01;0,09;-0,732;-0,225494;0,0354797;0,73463;-0,101336;0,0558114;-0,163145;0,0477586;-0,0759321;0,0747553;0,0485104;-0,154957;-0;0,0956498;0,172832;4,36813;0,0596903;0,031765;0;-2,1393;-0,842705;-1080;1080;-500;1700;-10;10;-0;-0;0;-0;250;-1,2;0,2;177;-1,2;-1;2555;0,07;1590;2800;9;56579;
14,3578;1,18141;-2,06375;266;14;2268;0;-0,0827839;0,0132665;0,572636;-0,055299;0,0434734;0,206901;0,0670208;0,104899;0,0637536;-0,0185476;0,0425471;-0,735782;0;0;0;0;0;0;0,066672;0,103827;0,069;0,01;0,09;-0,732;-0,225494;0,0354797;0,73463;-0,101332;0,0558136;-0,163146;0,04776;-0,0759292;0,0747526;0,0485117;-0,154959;-0;0,0956912;0,172907;4,36577;0,0596903;0,031765;0;-2,13933;-0,842689;-1080;1080;-500;1700;-10;10;-0;-0;0;-0;250;-1,2;0,2;177;-1,2;-1;2555;0,07;1590;2800;9;56579;
14,3678;1,1814;-2,06373;266;12;2269;0;-0,0826709;0,0112599;0,571685;-0,0561238;0,0435857;0,212605;0,0670199;0,104901;0,0637329;-0,0191472;0,0441162;-0,734678;0;0;0;0;0;0;0,066672;0,103827;0,069;0,01;0,09;-0,731;-0,225594;0,0304247;0,73207;-0,101818;0,0553761;-0,162993;0,0477592;-0,0759303;0,0747537;0,0485109;-0,154959;-0;0,0956902;0,157709;4,36583;0,0596903;0,0289725;0;-2,13932;-0,842697;-1080;1080;-500;1700;-10;10;-0;-0;0;-0;250;-1,2;0,2;177;-1,2;-1;2555;0,07;1590;2800;9;56579;
14,3778;1,18141;-2,06376;266;12;2269;0;-0,0827093;0,0112969;0,571732;-0,0569519;0,0436989;0,218329;0,0670182;0,104896;0,0637565;-0,0191074;0,04408;-0,734725;0;0;0;0;0;0;0,066672;0,103827;0,069;0,01;0,09;-0,731;-0,225594;0,0304247;0,73207;-0,101817;0,0553769;-0,162993;0,0477597;-0,0759293;0,0747528;0,0485114;-0,154959;-0;0,0957103;0,157742;4,36469;0,0596903;0,0289725;0;-2,13933;-0,842691;-1080;1080;-500;1700;-10;10;-0;-0;0;-0;250;-1,2;0,2;177;-1,2;-1;2555;0,07;1590;2800;9;56579;
14,3878;1,18141;-2,06385;266;10;2269;0;-0,0827022;0,00928319;0,570762;-0,0577807;0,0437919;0,224049;0,0670157;0,104884;0,0638474;-0,0196722;0,045412;-0,733636;0;0;0;0;0;0;0,066672;0,103827;0,069;0,01;0,09;-0,73;-0,225594;0,0253539;0,73207;-0,102374;0,0546952;-0,162874;0,0477612;-0,0759255;0,0747493;0,0485128;-0,154962;-0;0,0947591;0,14349;4,36474;0,0598648;0,0263545;0;-2,13937;-0,842672;-1080;1080;-500;1700;-10;10;-0;-0;0;-0;250;-1,2;0,2;177;-1,2;-1;2555;0,07;1590;2800;9;56579;
14,3979;1,18141;-2,06386;266;8;2270;0;-0,0827274;0,00759776;0,569829;-0,0586111;0,0438681;0,229768;0,0670143;0,104882;0,0638577;-0,0201076;0,0465267;-0,732603;0;0;0;0;0;0;0,066672;0,103827;0,069;0,01;0,09;-0,729;-0,225693;0,0202921;0,729511;-0,102835;0,0541245;-0,162774;0,0477611;-0,0759253;0,0747491;0,0485126;-0,154962;-0;0,0938289;0,131167;4,36358;0,0600393;0,0240855;0;-2,13937;-0,842672;-1080;1080;-500;1700;-10;10;-0;-0;0;-0;250;-1,2;0,2;177;-1,2;-1;2555;0,07;1590;2800;9;56579;
14,4078;1,18141;-2,06388;266;8;2270;0;-0,0827657;0,00763464;0,569876;-0,0594342;0,0439441;0,235436;0,0670127;0,104877;0,0638762;-0,0200682;0,0464905;-0,732651;0;0;0;0;0;0;0,066672;0,103827;0,069;0,01;0,09;-0,729;-0,225693;0,0202921;0,729511;-0,102834;0,0541252;-0,162775;0,0477615;-0,0759244;0,0747484;0,048513;-0,154963;-0;0,0938482;0,131194;4,36246;0,0600393;0,0240855;0;-2,13937;-0,842668;-1080;1080;-500;1700;-10;10;-0;-0;0;-0;250;-1,2;0,2;177;-1,2;-1;2555;0,07;1590;2800;9;56579;
14,4178;1,18141;-2,06391;266;6;2271;0;-0,0826826;0,00575378;0,567894;-0,0602559;0,0440013;0,241079;0,0670111;0,104873;0,063911;-0,0206527;0,0477267;-0,730565;0;0;0;0;0;0;0,066672;0,103827;0,069;0,01;0,09;-0,727;-0,225793;0,0152258;0,726951;-0,103335;0,0534805;-0,16267;0,0477615;-0,0759234;0,0747474;0,0485129;-0,154964;-0;0,0928966;0,117886;4,36252;0,0602139;0,0216421;0;-2,13938;-0,842664;-1080;1080;-500;1700;-10;10;-0;-0;0;-0;250;-1,2;0,2;177;-1,2;-1;2555;0,07;1590;2800;9;56579;
14,4278;1,16491;-1,98262;225;-44;2269;0;-0,0439118;-0,0441769;0,571364;-0,0606964;0,0435581;0,246811;0,0781758;0,152099;-0,0173797;-0,0673463;0,0862716;-0,732143;0;0;0;0;0;0;0,077784;0,150238;-0,012;0,01;0,15;-0,725;-0,12169;-0,111551;0,73207;-0,111258;0,0420947;-0,160778;0,0410607;-0,0822946;0,0798879;0,0422977;-0,152874;-0;0,091035;0,109378;4,36014;0,0605629;0,0200713;0;-2,04556;-0,889399;-1080;1080;-500;1700;-10;10;-0;-0;0;-0;250;-1,2;0,2;177;-1,2;-1;2555;0,07;1592;2805;8;56579;
14,4378;1,16491;-1,98265;226;-47;2268;0;-0,0456145;-0,0441578;0,572522;-0,0611544;0,0431147;0,25256;0,0781738;0,152089;-0,0173479;-0,0656417;0,0862544;-0,733301;0;0;0;0;0;0;0,077784;0,150238;-0,012;0,01;0,15;-0,725;-0,12417;-0,119103;0,73463;-0,111256;0,0420966;-0,160779;0,0410618;-0,0822931;0,0798867;0,0422987;-0,152875;-0;0,0909655;0,109295;4,3643;0,0605629;0,0200713;0;-2,04558;-0,889391;-1080;1080;-500;1700;-10;10;-0;-0;0;-0;250;-1,2;0,2;177;-1,2;-1;2555;0,07;1592;2805;8;56579;
14,4478;1,16491;-1,98267;226;-48;2271;0;-0,0450134;-0,0454765;0,566537;-0,0616041;0,0426604;0,25822;0,0781727;0,152093;-0,0173283;-0,0665771;0,0868509;-0,727272;0;0;0;0;0;0;0,077784;0,150238;-0,012;0,01;0,15;-0,719;-0,124335;-0,121798;0,726951;-0,111591;0,0413745;-0,160735;0,0410601;-0,0822934;0,0798869;0,042297;-0,152876;-0;0,0890421;0,0978664;4,36569;0,060912;0,0179769;0;-2,04556;-0,889399;-1080;1080;-500;1700;-10;10;-0;-0;0;-0;250;-1,2;0,2;177;-1,2;-1;2555;0,07;1592;2805;8;56579;
14,4578;1,16491;-1,98276;225;-50;2275;0;-0,0443155;-0,0469401;0,559486;-0,0620445;0,0421938;0,263781;0,0781709;0,152086;-0,0172392;-0,0675963;0,08762;-0,720175;0;0;0;0;0;0;0,077784;0,150238;-0,012;0,01;0,15;-0,712;-0,122012;-0,127095;0,716712;-0,111912;0,0406799;-0,160689;0,04106;-0,0822907;0,0798845;0,0422968;-0,152878;-0;0,0872569;0,0856283;4,35851;0,0612611;0,015708;0;-2,04557;-0,889394;-1080;1080;-500;1700;-10;10;-0;-0;0;-0;250;-1,2;0,2;177;-1,2;-1;2555;0,07;1592;2805;8;56579;
14,4677;1,16492;-1,98282;225;-50;2275;0;-0,0443695;-0,0469303;0,559527;-0,0624866;0,0417262;0,269356;0,0781684;0,152069;-0,017176;-0,0675386;0,0876138;-0,720218;0;0;0;0;0;0;0,077784;0,150238;-0,012;0,01;0,15;-0,712;-0,122012;-0,127095;0,716712;-0,111908;0,0406835;-0,16069;0,041062;-0,0822877;0,079882;0,0422986;-0,15288;-0;0,0873923;0,0857611;4,35005;0,0612611;0,015708;0;-2,04561;-0,889379;-1080;1080;-500;1700;-10;10;-0;-0;0;-0;250;-1,2;0,2;177;-1,2;-1;2555;0,07;1592;2805;8;56579;
14,4778;1,16492;-1,98299;224;-51;2280;0;-0,0431668;-0,0484259;0,549467;-0,0629206;0,0412394;0,274879;0,078166;0,152052;-0,0170145;-0,0691336;0,0884143;-0,710058;0;0;0;0;0;0;0,077784;0,150238;-0,012;0,01;0,15;-0,702;-0,119733;-0,129922;0,703914;-0,1123;0,0399884;-0,160591;0,0410628;-0,0822823;0,0798773;0,0422992;-0,152885;-0;0,0883443;0,0733736;4,3501;0,0610865;0,013439;0;-2,04564;-0,889364;-1080;1080;-500;1700;-10;10;-0;-0;0;-0;250;-1,2;0,2;177;-1,2;-1;2555;0,07;1592;2805;8;56579;
14,4878;1,16493;-1,9831;222;-53;2285;0;-0,0416319;-0,0499573;0,538457;-0,0633381;0,0407384;0,28028;0,0781644;0,152047;-0,0168975;-0,0711229;0,0894012;-0,698864;0;0;0;0;0;0;0,077784;0,150238;-0,012;0,01;0,15;-0,691;-0,11489;-0,135312;0,691115;-0,112755;0,0394439;-0,160407;0,0410619;-0,0822792;0,0798744;0,0422982;-0,152889;-0;0,0933142;0,0601662;4,33803;0,0602139;0,0109956;0;-2,04565;-0,889362;-1080;1080;-500;1700;-10;10;-0;-0;0;-0;250;-1,2;0,2;177;-1,2;-1;2555;0,07;1592;2805;8;56579;
14,4979;1,16493;-1,98307;222;-53;2285;0;-0,041713;-0,0499489;0,538519;-0,0637597;0,0402335;0,285722;0,0781633;0,152051;-0,0169337;-0,0710438;0,0893911;-0,698925;0;0;0;0;0;0;0,077784;0,150238;-0,012;0,01;0,15;-0,691;-0,11489;-0,135312;0,691115;-0,112757;0,0394423;-0,160406;0,041061;-0,0822808;0,0798758;0,0422973;-0,152888;-0;0,0935394;0,0603115;4,32482;0,0602139;0,0109956;0;-2,04563;-0,889369;-1080;1080;-500;1700;-10;10;-0;-0;0;-0;250;-1,2;0,2;177;-1,2;-1;2555;0,07;1592;2805;8;56579;
14,5078;1,16493;-1,98322;220;-55;2291;0;-0,0401161;-0,0518045;0,527436;-0,064158;0,0397192;0,290959;0,0781612;0,152038;-0,0167834;-0,073114;0,0907273;-0,687636;0;0;0;0;0;0;0,077784;0,150238;-0,012;0,01;0,15;-0,68;-0,110073;-0,140786;0,675757;-0,11323;0,0389228;-0,1602;0,0410611;-0,0822762;0,0798717;0,0422972;-0,152892;-0;0,0983241;0,0430795;4,32489;0,0593412;0,00785398;0;-2,04565;-0,889359;-1080;1080;-500;1700;-10;10;-0;-0;0;-0;250;-1,2;0,2;177;-1,2;-1;2555;0,07;1592;2805;8;56579;
14,5178;1,16493;-1,98331;219;-57;2297;0;-0,0383431;-0,053937;0,515392;-0,064539;0,0391833;0,29608;0,0781601;0,152041;-0,0166903;-0,0754048;0,092552;-0,6753;0;0;0;0;0;0;0,077784;0,150238;-0,012;0,01;0,15;-0,668;-0,107795;-0,146286;0,660399;-0,113748;0,038615;-0,159907;0,041059;-0,0822745;0,07987;0,042295;-0,152895;-0;0,106238;0,0220719;4,3116;0,0579449;0,00401426;0;-2,04564;-0,889365;-1080;1080;-500;1700;-10;10;-0;-0;0;-0;250;-1,2;0,2;177;-1,2;-1;2555;0,07;1592;2805;8;56579;
14,5278;1,16494;-1,98345;219;-57;2297;0;-0,0383852;-0,0539449;0,515415;-0,0649229;0,0386438;0,301234;0,0781564;0,152005;-0,0165475;-0,0753544;0,0925685;-0,675326;0;0;0;0;0;0;0,077784;0,150238;-0,012;0,01;0,15;-0,668;-0,107795;-0,146286;0,660399;-0,11374;0,0386236;-0,159911;0,0410637;-0,0822676;0,0798642;0,0422995;-0,1529;-0;0,106518;0,02213;4,29715;0,0579449;0,00401426;0;-2,04572;-0,88933;-1080;1080;-500;1700;-10;10;-0;-0;0;-0;250;-1,2;0,2;177;-1,2;-1;2555;0,07;1592;2805;8;56579;
14,5378;1,16495;-1,98357;216;-60;2302;0;-0,0363433;-0,0559828;0,505319;-0,0652864;0,0380838;0,306289;0,0781547;0,151998;-0,0164315;-0,0780033;0,0943406;-0,664861;0;0;0;0;0;0;0,077784;0,150238;-0,012;0,01;0,15;-0,658;-0,100314;-0,154319;0,647601;-0,114347;0,0383578;-0,159542;0,0410633;-0,0822642;0,0798612;0,0422989;-0,152903;-0;0,118061;0,00096217;4,29717;0,0558505;0,000174533;0;-2,04573;-0,889325;-1080;1080;-500;1700;-10;10;-0;-0;0;-0;250;-1,2;0,2;177;-1,2;-1;2555;0,07;1592;2805;8;56579;
14,5477;1,16495;-1,98355;217;-60;2302;0;-0,0364616;-0,055986;0,505403;-0,0656492;0,0375267;0,311318;0,0781534;0,151998;-0,0164508;-0,077886;0,0943431;-0,664944;0;0;0;0;0;0;0,077784;0,150238;-0,012;0,01;0,15;-0,658;-0,102886;-0,154319;0,647601;-0,114348;0,0383571;-0,159541;0,0410629;-0,0822651;0,079862;0,0422985;-0,152903;-0;0,11832;0,000964284;4,28506;0,0558505;0,000174533;0;-2,04572;-0,889329;-1080;1080;-500;1700;-10;10;-0;-0;0;-0;250;-1,2;0,2;177;-1,2;-1;2555;0,07;1592;2805;8;56579;
14,5578;1,16495;-1,98369;214;-61;2308;0;-0,0341646;-0,0575738;0,493348;-0,0659943;0,0369452;0,316301;0,0781516;0,15199;-0,0163105;-0,0808378;0,0955497;-0,652509;0;0;0;0;0;0;0,077784;0,150238;-0,012;0,01;0,15;-0,646;-0,0954181;-0,157299;0,632243;-0,115002;0,0379759;-0,159161;0,0410623;-0,0822611;0,0798583;0,0422977;-0,152907;-0;0,131814;-0,0163925;4,28516;0,0534071;-0,00296706;0;-2,04573;-0,889323;-1080;1080;-500;1700;-10;10;-0;-0;0;-0;250;-1,2;0,2;177;-1,2;-1;2555;0,07;1592;2805;8;56579;
14,5678;1,16496;-1,98386;212;-63;2314;0;-0,031909;-0,0592408;0,481291;-0,0663139;0,0363518;0,321122;0,0781493;0,151973;-0,0161354;-0,0837735;0,0968398;-0,640048;0;0;0;0;0;0;0,077784;0,150238;-0,012;0,01;0,15;-0,634;-0,0904954;-0,162878;0,616885;-0,115683;0,0375991;-0,158757;0,0410629;-0,0822554;0,0798532;0,0422982;-0,152912;-0;0,146657;-0,0348043;4,2707;0,0507891;-0,00628319;0;-2,04576;-0,889308;-1080;1080;-500;1700;-10;10;-0;-0;0;-0;250;-1,2;0,2;177;-1,2;-1;2555;0,07;1592;2805;8;56579;
14,5777;1,16495;-1,98379;212;-63;2314;0;-0,032003;-0,0592283;0,481369;-0,0666304;0,0357661;0,325883;0,0781489;0,151987;-0,0162103;-0,0836837;0,0968231;-0,640124;0;0;0;0;0;0;0,077784;0,150238;-0,012;0,01;0,15;-0,634;-0,0904954;-0,162878;0,616885;-0,115687;0,0375948;-0,158755;0,0410606;-0,0822589;0,0798563;0,0422959;-0,15291;-0;0,14704;-0,0348951;4,25623;0,0507891;-0,00628319;0;-2,04572;-0,889326;-1080;1080;-500;1700;-10;10;-0;-0;0;-0;250;-1,2;0,2;177;-1,2;-1;2555;0,07;1592;2805;8;56579;
14,5878;1,16496;-1,98398;210;-64;2320;0;-0,0301654;-0,0603615;0,469293;-0,0669345;0,0351575;0,330614;0,0781463;0,151966;-0,0160157;-0,086042;0,0974825;-0,627779;0;0;0;0;0;0;0,077784;0,150238;-0,012;0,01;0,15;-0,622;-0,0855459;-0,165891;0,601526;-0,116207;0,037121;-0,158486;0,0410619;-0,0822522;0,0798504;0,042297;-0,152916;-0;0,156727;-0,0484644;4,25632;0,0490438;-0,00872665;0;-2,04577;-0,889306;-1080;1080;-500;1700;-10;10;-0;-0;0;-0;250;-1,2;0,2;177;-1,2;-1;2555;0,07;1592;2805;8;56579;
14,5978;1,16497;-1,98415;209;-66;2323;0;-0,0291697;-0,0615138;0,462192;-0,067227;0,0345408;0,335248;0,0781432;0,151938;-0,015847;-0,0873681;0,0982268;-0,620531;0;0;0;0;0;0;0,077784;0,150238;-0,012;0,01;0,15;-0,615;-0,083061;-0,171295;0,593847;-0,116538;0,0367131;-0,158338;0,0410648;-0,0822455;0,0798446;0,0422996;-0,152921;-0;0,161021;-0,0621957;4,24183;0,0483456;-0,0111701;0;-2,04583;-0,889279;-1080;1080;-500;1700;-10;10;-0;-0;0;-0;250;-1,2;0,2;177;-1,2;-1;2555;0,07;1592;2805;8;56579;
14,6078;1,16496;-1,98405;209;-66;2323;0;-0,0292556;-0,0614791;0,462278;-0,0675194;0,0339262;0,339869;0,0781433;0,151959;-0,0159463;-0,0872878;0,098186;-0,620614;0;0;0;0;0;0;0,077784;0,150238;-0,012;0,01;0,15;-0,615;-0,083061;-0,171295;0,593847;-0,116543;0,0367069;-0,158336;0,0410615;-0,0822503;0,0798488;0,0422965;-0,152918;-0;0,161268;-0,0622909;4,23331;0,0483456;-0,0111701;0;-2,04577;-0,889304;-1080;1080;-500;1700;-10;10;-0;-0;0;-0;250;-1,2;0,2;177;-1,2;-1;2555;0,07;1592;2805;8;56579;
14,6178;1,16497;-1,98423;208;-67;2329;0;-0,0282299;-0,0624938;0,450148;-0,0678012;0,0333025;0,344361;0,0781409;0,151941;-0,0157718;-0,0885503;0,0988099;-0,6084;0;0;0;0;0;0;0,077784;0,150238;-0,012;0,01;0,15;-0,603;-0,0806733;-0,174339;0,578489;-0,11678;0,0363162;-0,158251;0,0410623;-0,0822446;0,0798437;0,042297;-0,152924;-0;0,162237;-0,0759149;4,23342;0,0481711;-0,0136136;0;-2,04581;-0,889289;-1080;1080;-500;1700;-10;10;-0;-0;0;-0;250;-1,2;0,2;177;-1,2;-1;2555;0,07;1592;2805;8;56579;
14,6277;1,16497;-1,98437;207;-67;2334;0;-0,027301;-0,0632458;0,440085;-0,0680719;0,0326753;0,348726;0,0781389;0,151928;-0,0156349;-0,0897231;0,0991509;-0,59825;0;0;0;0;0;0;0,077784;0,150238;-0,012;0,01;0,15;-0,593;-0,0782387;-0,174713;0,565691;-0,117024;0,0359051;-0,158165;0,0410627;-0,0822402;0,0798398;0,0422972;-0,152928;-0;0,164612;-0,0868461;4,21886;0,047822;-0,0155334;0;-2,04583;-0,889278;-1080;1080;-500;1700;-10;10;-0;-0;0;-0;250;-1,2;0,2;177;-1,2;-1;2555;0,07;1592;2805;8;56579;
14,6378;1,16498;-1,98439;207;-68;2334;0;-0,0273144;-0,0632642;0,440084;-0,0683469;0,0320384;0,353156;0,0781369;0,151918;-0,0156073;-0,0897081;0,0991717;-0,598249;0;0;0;0;0;0;0,077784;0,150238;-0,012;0,01;0,15;-0,593;-0,0782387;-0,17732;0,565691;-0,117023;0,0359075;-0,158166;0,041064;-0,0822386;0,0798386;0,0422984;-0,152929;-0;0,164967;-0,0870336;4,20679;0,047822;-0,0155334;0;-2,04585;-0,889269;-1080;1080;-500;1700;-10;10;-0;-0;0;-0;250;-1,2;0,2;177;-1,2;-1;2555;0,07;1592;2805;8;56579;
14,6479;1,16499;-1,98453;206;-68;2338;0;-0,026239;-0,0639222;0,432031;-0,0686111;0,0313948;0,357506;0,0781346;0,1519;-0,0154727;-0,0911062;0,0993903;-0,590057;0;0;0;0;0;0;0,077784;0,150238;-0,012;0,01;0,15;-0,585;-0,0757605;-0,177624;0,555452;-0,117345;0,0354681;-0,158026;0,0410653;-0,0822338;0,0798343;0,0422996;-0,152933;-0;0,169855;-0,0968118;4,20679;0,0469494;-0,0172788;0;-2,04588;-0,889253;-1080;1080;-500;1700;-10;10;-0;-0;0;-0;250;-1,2;0,2;177;-1,2;-1;2555;0,07;1592;2805;8;56579;
14,6578;1,13856;-1,93025;156;-118;2341;0;0,0306164;-0,184534;0,427359;-0,0683059;0,0295554;0,361766;0,0899062;0,207645;-0,0697544;-0,151662;0,210075;-0,584508;0;0;0;0;0;0;0,088896;0,204589;-0,066;0,07;0,26;-0,579;0,0549322;-0,308534;0,547773;-0,121045;0,0255412;-0,157149;0,0355921;-0,0866384;0,0822026;0,0375127;-0,151864;-0;0,175043;-0,106773;4,19712;0,0460767;-0,0190241;0;-1,97941;-0,917674;-1080;1080;-500;1700;-10;10;-0;-0;0;-0;250;-1,2;0,2;177;-1,2;-1;2555;0,07;1598;2814;8;56579;
14,6678;1,13857;-1,93026;146;-168;2340;0;0,0287354;-0,184939;0,428584;-0,0680197;0,0277136;0,366034;0,0899013;0,20763;-0,0697366;-0,14978;0,210482;-0,585733;0;0;0;0;0;0;0,088896;0,204589;-0,066;0,07;0,26;-0,579;0,0810544;-0,438882;0,550333;-0,121044;0,0255424;-0,157149;0,0355926;-0,0866376;0,0822024;0,037513;-0,151864;-0;0,175218;-0,10688;4,19152;0,0460767;-0,0190241;0;-1,97941;-0,917671;-1080;1080;-500;1700;-10;10;-0;-0;0;-0;250;-1,2;0,2;177;-1,2;-1;2555;0,07;1598;2814;8;56579;
14,6778;1,13859;-1,9304;146;-199;2343;0;0,0291271;-0,185077;0,423407;-0,0677277;0,0258578;0,37028;0,0898892;0,207589;-0,0695997;-0,150447;0,210306;-0,580394;0;0;0;0;0;0;0,088896;0,204589;-0,066;0,07;0,26;-0,573;0,0811583;-0,520345;0,542654;-0,12132;0,0252287;-0,156987;0,0355937;-0,0866328;0,0821995;0,0375133;-0,151868;-0;0,181052;-0,119594;4,19299;0,0450295;-0,021293;0;-1,97944;-0,917662;-1080;1080;-500;1700;-10;10;-0;-0;0;-0;250;-1,2;0,2;177;-1,2;-1;2555;0,07;1598;2814;8;56579;
14,6878;1,1386;-1,93048;145;-199;2346;0;0,0297328;-0,185032;0,417901;-0,06743;0,0240054;0,374463;0,0898836;0,207572;-0,0695169;-0,151234;0,20993;-0,574801;0;0;0;0;0;0;0,088896;0,204589;-0,066;0,07;0,26;-0,567;0,0838834;-0,521011;0,534975;-0,121501;0,0248978;-0,1569;0,0355937;-0,0866302;0,0821978;0,037513;-0,15187;-0;0,184195;-0,129538;4,18678;0,0445059;-0,0230383;0;-1,97944;-0,917659;-1080;1080;-500;1700;-10;10;-0;-0;0;-0;250;-1,2;0,2;177;-1,2;-1;2555;0,07;1598;2814;8;56579;
14,6979;1,1386;-1,93046;145;-199;2346;0;0,0296769;-0,185039;0,417941;-0,0671314;0,0221436;0,378669;0,0898834;0,207574;-0,0695378;-0,151179;0,209936;-0,574841;0;0;0;0;0;0;0,088896;0,204589;-0,066;0,07;0,26;-0,567;0,0838834;-0,521011;0,534975;-0,121502;0,0248971;-0,156899;0,0355934;-0,086631;0,0821984;0,0375128;-0,15187;-0;0,184411;-0,129691;4,18017;0,0445059;-0,0230383;0;-1,97944;-0,917661;-1080;1080;-500;1700;-10;10;-0;-0;0;-0;250;-1,2;0,2;177;-1,2;-1;2555;0,07;1598;2814;8;56579;
14,7078;1,13861;-1,93052;144;-199;2347;0;0,0307004;-0,185202;0,414768;-0,0668262;0,0203025;0,382792;0,0898774;0,207555;-0,069481;-0,152343;0,209726;-0,571618;0;0;0;0;0;0;0,088896;0,204589;-0,066;0,07;0,26;-0,564;0,0865415;-0,521233;0,532415;-0,121643;0,0245242;-0,156849;0,0355938;-0,086629;0,0821973;0,0375129;-0,151871;-0;0,186374;-0,135583;4,18022;0,0441568;-0,0240855;0;-1,97945;-0,917658;-1080;1080;-500;1700;-10;10;-0;-0;0;-0;250;-1,2;0,2;177;-1,2;-1;2555;0,07;1598;2814;8;56579;
14,7178;1,13861;-1,93051;144;-199;2347;0;0,0306578;-0,185213;0,414795;-0,0665213;0,0184604;0,386917;0,089876;0,207554;-0,0694922;-0,152301;0,209737;-0,571644;0;0;0;0;0;0;0,088896;0,204589;-0,066;0,07;0,26;-0,564;0,0865415;-0,521233;0,532415;-0,121643;0,0245239;-0,156849;0,0355937;-0,0866294;0,0821978;0,0375127;-0,151871;-0;0,1865;-0,135675;4,17641;0,0441568;-0,0240855;0;-1,97945;-0,917659;-1080;1080;-500;1700;-10;10;-0;-0;0;-0;250;-1,2;0,2;177;-1,2;-1;2555;0,07;1598;2814;8;56579;
14,7278;1,13864;-1,93063;142;-199;2349;0;0,0321903;-0,185181;0,410617;-0,0661985;0,0166034;0,391035;0,0898627;0,207507;-0,0693669;-0,154093;0,209187;-0,567344;0;0;0;0;0;0;0,088896;0,204589;-0,066;0,07;0,26;-0,56;0,0918642;-0,521677;0,527295;-0,121903;0,0240069;-0,156727;0,0355953;-0,0866247;0,0821952;0,0375135;-0,151874;-0;0,192395;-0,139606;4,17644;0,0431096;-0,0247837;0;-1,97947;-0,917648;-1080;1080;-500;1700;-10;10;-0;-0;0;-0;250;-1,2;0,2;177;-1,2;-1;2555;0,07;1598;2814;8;56579;
14,7378;1,13865;-1,93068;141;-200;2351;0;0,0338708;-0,185344;0,407406;-0,0658592;0,014747;0,395116;0,0898582;0,207494;-0,0693231;-0,156163;0,208927;-0,563894;0;0;0;0;0;0;0,088896;0,204589;-0,066;0,07;0,26;-0,557;0,0945691;-0,524738;0,522176;-0,122293;0,0235825;-0,156488;0,0355954;-0,0866233;0,0821944;0,0375134;-0,151876;-0;0,203384;-0,145633;4,17143;0,0411898;-0,0258309;0;-1,97948;-0,917646;-1080;1080;-500;1700;-10;10;-0;-0;0;-0;250;-1,2;0,2;177;-1,2;-1;2555;0,07;1598;2814;8;56579;
14,7478;1,13864;-1,93065;141;-200;2351;0;0,0337859;-0,185338;0,407477;-0,0655218;0,0128958;0,399186;0,0898591;0,207501;-0,0693521;-0,15608;0,20892;-0,563964;0;0;0;0;0;0;0,088896;0,204589;-0,066;0,07;0,26;-0,557;0,0945691;-0,524738;0,522176;-0,122294;0,0235814;-0,156487;0,035595;-0,0866244;0,0821952;0,0375131;-0,151875;-0;0,203523;-0,145732;4,16758;0,0411898;-0,0258309;0;-1,97947;-0,917649;-1080;1080;-500;1700;-10;10;-0;-0;0;-0;250;-1,2;0,2;177;-1,2;-1;2555;0,07;1598;2814;8;56579;
14,7577;1,13865;-1,9307;139;-200;2352;0;0,035516;-0,185981;0,404005;-0,0651696;0,0110518;0,403191;0,0898535;0,207483;-0,0692986;-0,158238;0,209417;-0,560179;0;0;0;0;0;0;0,088896;0,204589;-0,066;0,07;0,26;-0,554;0,099865;-0,524962;0,519616;-0,122722;0,0234361;-0,156173;0,0355953;-0,0866226;0,0821942;0,0375131;-0,151876;-0;0,216313;-0,158528;4,16766;0,0389208;-0,0280998;0;-1,97948;-0,917646;-1080;1080;-500;1700;-10;10;-0;-0;0;-0;250;-1,2;0,2;177;-1,2;-1;2555;0,07;1598;2814;8;56579;
14,7678;1,13866;-1,93075;137;-202;2354;0;0,0372752;-0,187305;0,401219;-0,0647946;0,00916714;0,407228;0,0898467;0,207461;-0,0692466;-0,160453;0,210816;-0,557022;0;0;0;0;0;0;0,088896;0,204589;-0,066;0,07;0,26;-0,552;0,10521;-0,530649;0,514497;-0,123178;0,0235113;-0,155803;0,035596;-0,0866206;0,0821932;0,0375134;-0,151878;-0;0,230259;-0,180316;4,1635;0,0364774;-0,0319395;0;-1,97949;-0,917642;-1080;1080;-500;1700;-10;10;-0;-0;0;-0;250;-1,2;0,2;177;-1,2;-1;2555;0,07;1598;2814;8;56579;
14,7778;1,13868;-1,93081;137;-202;2354;0;0,0372375;-0,187332;0,401234;-0,0644213;0,00728914;0,411251;0,0898369;0,207428;-0,0691902;-0,160413;0,210846;-0,557037;0;0;0;0;0;0;0,088896;0,204589;-0,066;0,07;0,26;-0,552;0,10521;-0,530649;0,514497;-0,123176;0,0235146;-0,155804;0,0355974;-0,0866182;0,0821922;0,0375142;-0,151879;-0;0,230396;-0,180423;4,16015;0,0364774;-0,0319395;0;-1,97951;-0,917634;-1080;1080;-500;1700;-10;10;-0;-0;0;-0;250;-1,2;0,2;177;-1,2;-1;2555;0,07;1598;2814;8;56579;
14,7877;1,13867;-1,93076;136;-203;2355;0;0,0383341;-0,188595;0,398573;-0,0640412;0,00541941;0,415202;0,0898425;0,207452;-0,0692352;-0,161767;0,21225;-0,554152;0;0;0;0;0;0;0,088896;0,204589;-0,066;0,07;0,26;-0,55;0,107886;-0,533495;0,511937;-0,123432;0,0236548;-0,155579;0,0355959;-0,0866203;0,0821933;0,0375131;-0,151878;-0;0,237292;-0,202104;4,16017;0,0352557;-0,0357792;0;-1,97949;-0,917642;-1080;1080;-500;1700;-10;10;-0;-0;0;-0;250;-1,2;0,2;177;-1,2;-1;2555;0,07;1598;2814;8;56579;
14,7979;1,13868;-1,93081;134;-205;2356;0;0,0396239;-0,189971;0,396789;-0,0636404;0,00349766;0,419216;0,0898351;0,207428;-0,0691886;-0,163365;0,213773;-0,5521;0;0;0;0;0;0;0,088896;0,204589;-0,066;0,07;0,26;-0,549;0,113196;-0,538966;0,509378;-0,123741;0,0238017;-0,155311;0,0355968;-0,0866184;0,0821925;0,0375136;-0,151879;-0;0,246297;-0,224894;4,15698;0,0336849;-0,0397935;0;-1,9795;-0,917637;-1080;1080;-500;1700;-10;10;-0;-0;0;-0;250;-1,2;0,2;177;-1,2;-1;2555;0,07;1598;2814;8;56579;
14,8079;1,13871;-1,93089;134;-205;2356;0;0,0396104;-0,190004;0,396781;-0,0632443;0,00159781;0,423184;0,0898227;0,207385;-0,0691119;-0,163349;0,21381;-0,552093;0;0;0;0;0;0;0,088896;0,204589;-0,066;0,07;0,26;-0,549;0,113196;-0,538966;0,509378;-0,123739;0,023806;-0,155313;0,0355986;-0,0866151;0,0821911;0,0375147;-0,151881;-0;0,246391;-0,224979;4,15484;0,0336849;-0,0397935;0;-1,97952;-0,917627;-1080;1080;-500;1700;-10;10;-0;-0;0;-0;250;-1,2;0,2;177;-1,2;-1;2555;0,07;1598;2814;8;56579;
14,8178;1,13869;-1,9308;133;-206;2357;0;0,0407513;-0,191364;0,395079;-0,0628396;-0,000302631;0,427107;0,0898322;0,207424;-0,0691969;-0,164817;0,215397;-0,550095;0;0;0;0;0;0;0,088896;0,204589;-0,066;0,07;0,26;-0,548;0,115877;-0,541818;0,506818;-0,124066;0,024033;-0,155016;0,0355966;-0,0866187;0,082193;0,0375133;-0,151879;-0;0,256251;-0,247661;4,15483;0,0319395;-0,0438078;0;-1,9795;-0,917639;-1080;1080;-500;1700;-10;10;-0;-0;0;-0;250;-1,2;0,2;177;-1,2;-1;2555;0,07;1598;2814;8;56579;
14,8278;1,10566;-1,92789;117;-156;2357;0;0,0554075;-0,138256;0,394507;-0,0622855;-0,00168519;0,431052;0,100387;0,261801;-0,0721118;-0,179581;0,155036;-0,55039;0;0;0;0;0;0;0,100008;0,258939;-0,069;0,01;0,24;-0,546;0,158006;-0,410545;0,506818;-0,124173;0,0167806;-0,155883;0,0313462;-0,0887236;0,0817484;0,0340208;-0,152661;-0;0,265221;-0,268464;4,15279;0,0303687;-0,047473;0;-1,93695;-0,933711;-1080;1080;-500;1700;-10;10;-0;-0;0;-0;250;-1,2;0,2;177;-1,2;-1;2555;0,07;1602;2822;8;56579;
14,8378;1,10568;-1,92794;116;-150;2358;0;0,0563959;-0,139222;0,393148;-0,061722;-0,00307643;0,434981;0,100384;0,261771;-0,0720592;-0,180567;0,156007;-0,549031;0;0;0;0;0;0;0,100008;0,258939;-0,069;0,01;0,24;-0,546;0,160707;-0,394945;0,504258;-0,124171;0,0167856;-0,155884;0,0313486;-0,0887209;0,0817473;0,0340229;-0,152662;-0;0,265253;-0,268496;4,1521;0,0303687;-0,047473;0;-1,93698;-0,9337;-1080;1080;-500;1700;-10;10;-0;-0;0;-0;250;-1,2;0,2;177;-1,2;-1;2555;0,07;1602;2822;8;56579;
14,8479;1,10568;-1,92795;115;-151;2360;0;0,0575884;-0,140144;0,389527;-0,0611371;-0,00449987;0,438937;0,100383;0,261773;-0,0720516;-0,182057;0,157043;-0,545162;0;0;0;0;0;0;0,100008;0,258939;-0,069;0,01;0,24;-0,543;0,163479;-0,397912;0,499139;-0,124468;0,0168992;-0,155634;0,031348;-0,0887209;0,0817473;0,0340222;-0,152662;-0;0,275196;-0,285346;4,15047;0,0286234;-0,05044;0;-1,93698;-0,933702;-1080;1080;-500;1700;-10;10;-0;-0;0;-0;250;-1,2;0,2;177;-1,2;-1;2555;0,07;1602;2822;8;56579;
14,8578;1,10569;-1,92797;115;-151;2360;0;0,0575516;-0,140152;0,389552;-0,060568;-0,0058857;0,442789;0,100381;0,261757;-0,0720325;-0,182019;0,157054;-0,545187;0;0;0;0;0;0;0,100008;0,258939;-0,069;0,01;0,24;-0,543;0,163479;-0,397912;0,499139;-0,124468;0,0169015;-0,155635;0,0313491;-0,0887198;0,081747;0,0340231;-0,152663;-0;0,275407;-0,285565;4,14613;0,0286234;-0,05044;0;-1,93699;-0,933697;-1080;1080;-500;1700;-10;10;-0;-0;0;-0;250;-1,2;0,2;177;-1,2;-1;2555;0,07;1602;2822;8;56579;
14,8678;1,10567;-1,92792;114;-152;2361;0;0,0585917;-0,140917;0,386134;-0,0599814;-0,00729642;0,446655;0,100381;0,261782;-0,0720757;-0,183381;0,157943;-0,541497;0;0;0;0;0;0;0,100008;0,258939;-0,069;0,01;0,24;-0,54;0,166186;-0,400713;0,496579;-0,124789;0,0170262;-0,155363;0,0313465;-0,0887223;0,0817482;0,0340208;-0,152662;-0;0,286266;-0,301358;4,14616;0,0267035;-0,0532325;0;-1,93696;-0,933709;-1080;1080;-500;1700;-10;10;-0;-0;0;-0;250;-1,2;0,2;177;-1,2;-1;2555;0,07;1602;2822;8;56579;
14,8778;1,10572;-1,92809;113;-153;2362;0;0,0594341;-0,141864;0,384577;-0,0593879;-0,00871308;0,450495;0,100376;0,261704;-0,0719054;-0,184426;0,159087;-0,539755;0;0;0;0;0;0;0,100008;0,258939;-0,069;0,01;0,24;-0,539;0,168895;-0,403516;0,49402;-0,124992;0,0172228;-0,155179;0,031353;-0,088714;0,0817443;0,0340263;-0,152666;-0;0,293389;-0,318369;4,14205;0,0254818;-0,0561996;0;-1,93704;-0,933678;-1080;1080;-500;1700;-10;10;-0;-0;0;-0;250;-1,2;0,2;177;-1,2;-1;2555;0,07;1602;2822;8;56579;
14,8878;1,10571;-1,92804;113;-153;2362;0;0,0593394;-0,141874;0,384652;-0,0587933;-0,0101348;0,45435;0,100376;0,261719;-0,0719571;-0,184333;0,159094;-0,53983;0;0;0;0;0;0;0,100008;0,258939;-0,069;0,01;0,24;-0,539;0,168895;-0,403516;0,49402;-0,124994;0,0172194;-0,155178;0,0313515;-0,0887163;0,0817457;0,0340249;-0,152664;-0;0,293486;-0,318474;4,14019;0,0254818;-0,0561996;0;-1,93702;-0,933686;-1080;1080;-500;1700;-10;10;-0;-0;0;-0;250;-1,2;0,2;177;-1,2;-1;2555;0,07;1602;2822;8;56579;
14,8977;1,10573;-1,9281;112;-154;2364;0;0,0600458;-0,142511;0,381249;-0,0581983;-0,0115468;0,458127;0,100374;0,261699;-0,0718989;-0,185215;0,159881;-0,536269;0;0;0;0;0;0;0,100008;0,258939;-0,069;0,01;0,24;-0,536;0,171678;-0,406493;0,4889;-0,125169;0,0173694;-0,155019;0,0313527;-0,0887139;0,0817445;0,0340259;-0,152666;-0;0,29941;-0,332299;4,14028;0,0244346;-0,0586431;0;-1,93704;-0,93368;-1080;1080;-500;1700;-10;10;-0;-0;0;-0;250;-1,2;0,2;177;-1,2;-1;2555;0,07;1602;2822;8;56579;
14,9078;1,10573;-1,92813;111;-154;2366;0;0,0607702;-0,143101;0,377899;-0,0575894;-0,0129807;0,461914;0,100372;0,261694;-0,0718731;-0,186167;0,160632;-0,532715;0;0;0;0;0;0;0,100008;0,258939;-0,069;0,01;0,24;-0,533;0,174466;-0,406837;0,483781;-0,125397;0,0175312;-0,154817;0,0313528;-0,0887131;0,081744;0,0340258;-0,152667;-0;0,307537;-0,345389;4,13619;0,0230383;-0,060912;0;-1,93704;-0,933679;-1080;1080;-500;1700;-10;10;-0;-0;0;-0;250;-1,2;0,2;177;-1,2;-1;2555;0,07;1602;2822;8;56579;
14,9178;1,10576;-1,9282;111;-154;2366;0;0,0608065;-0,14312;0,377854;-0,0569813;-0,014412;0,465693;0,100369;0,261653;-0,0717986;-0,186201;0,160658;-0,532672;0;0;0;0;0;0;0,100008;0,258939;-0,069;0,01;0,24;-0,533;0,174466;-0,406837;0,483781;-0,125395;0,0175381;-0,154818;0,0313561;-0,0887093;0,0817424;0,0340286;-0,152669;-0;0,307755;-0,345634;4,13217;0,0230383;-0,060912;0;-1,93708;-0,933664;-1080;1080;-500;1700;-10;10;-0;-0;0;-0;250;-1,2;0,2;177;-1,2;-1;2555;0,07;1602;2822;8;56579;
14,9277;1,10575;-1,92821;111;-154;2368;0;0,0615042;-0,143169;0,372669;-0,0563675;-0,0158407;0,469411;0,100369;0,261666;-0,0717942;-0,1871;0,160704;-0,527325;0;0;0;0;0;0;0,100008;0,258939;-0,069;0,01;0,24;-0,528;0,174613;-0,407181;0,478661;-0,125595;0,0175351;-0,154655;0,0313543;-0,0887099;0,0817424;0,0340269;-0,152669;-0;0,314684;-0,352561;4,13212;0,0218166;-0,0621337;0;-1,93706;-0,933671;-1080;1080;-500;1700;-10;10;-0;-0;0;-0;250;-1,2;0,2;177;-1,2;-1;2555;0,07;1602;2822;8;56579;
14,9377;1,10576;-1,92826;110;-154;2370;0;0,0620764;-0,143238;0,369487;-0,0557473;-0,0172719;0,473103;0,100367;0,261648;-0,0717402;-0,18784;0,160791;-0,524004;0;0;0;0;0;0;0,100008;0,258939;-0,069;0,01;0,24;-0,525;0,177408;-0,407525;0,473542;-0,125763;0,0175523;-0,154517;0,0313554;-0,0887078;0,0817412;0,0340277;-0,15267;-0;0,320972;-0,357898;4,1259;0,0207694;-0,0630064;0;-1,93708;-0,933665;-1080;1080;-500;1700;-10;10;-0;-0;0;-0;250;-1,2;0,2;177;-1,2;-1;2555;0,07;1602;2822;8;56579;
14,948;1,10577;-1,92829;110;-154;2370;0;0,0620701;-0,143259;0,369479;-0,0551099;-0,0187431;0,476898;0,100365;0,261629;-0,071715;-0,187832;0,160814;-0,523997;0;0;0;0;0;0;0,100008;0,258939;-0,069;0,01;0,24;-0,525;0,177408;-0,407525;0,473542;-0,125762;0,0175552;-0,154517;0,0313569;-0,0887063;0,0817408;0,0340289;-0,152671;-0;0,321187;-0,358138;4,12208;0,0207694;-0,0630064;0;-1,9371;-0,933659;-1080;1080;-500;1700;-10;10;-0;-0;0;-0;250;-1,2;0,2;177;-1,2;-1;2555;0,07;1602;2822;8;56579;
14,9578;1,10578;-1,92832;109;-154;2371;0;0,0626901;-0,143258;0,36632;-0,0544938;-0,020151;0,480498;0,100363;0,261619;-0,0716783;-0,188648;0,160801;-0,52068;0;0;0;0;0;0;0,100008;0,258939;-0,069;0,01;0,24;-0,522;0,180131;-0,407697;0,470982;-0,125957;0,0175424;-0,15436;0,0313573;-0,0887049;0,0817401;0,0340292;-0,152672;-0;0,328126;-0,362102;4,12207;0,0195477;-0,0637045;0;-1,9371;-0,933656;-1080;1080;-500;1700;-10;10;-0;-0;0;-0;250;-1,2;0,2;177;-1,2;-1;2555;0,07;1602;2822;8;56579;
14,9677;1,10575;-1,9282;109;-155;2372;0;0,0631264;-0,143539;0,365215;-0,0538698;-0,0215699;0,484108;0,100364;0,261672;-0,0717988;-0,189284;0,16111;-0,519408;0;0;0;0;0;0;0,100008;0,258939;-0,069;0,01;0,24;-0,521;0,180207;-0,410513;0,468423;-0,126158;0,0175715;-0,154193;0,0313525;-0,0887109;0,0817431;0,0340249;-0,152669;-0;0,335286;-0,368291;4,11828;0,018326;-0,0647517;0;-1,93704;-0,933679;-1080;1080;-500;1700;-10;10;-0;-0;0;-0;250;-1,2;0,2;177;-1,2;-1;2555;0,07;1602;2822;8;56579;
14,9778;1,10582;-1,92844;109;-155;2372;0;0,0633087;-0,143515;0,365061;-0,0532305;-0,0230191;0,487794;0,100358;0,261553;-0,0715553;-0,189458;0,161108;-0,519259;0;0;0;0;0;0;0,100008;0,258939;-0,069;0,01;0,24;-0,521;0,180207;-0,410513;0,468423;-0,126149;0,0175929;-0,154197;0,0313627;-0,0886987;0,0817375;0,0340337;-0,152675;-0;0,335364;-0,368377;4,11695;0,018326;-0,0647517;0;-1,93717;-0,933632;-1080;1080;-500;1700;-10;10;-0;-0;0;-0;250;-1,2;0,2;177;-1,2;-1;2555;0,07;1602;2822;8;56579;
