time 	e1	e2	ctrlpitch	ctrlroll	ctrlthrust	ctrlyaw	edx	edy	edz	cumulx	cumuly	cumulz	x_pred	y_pred	z_pred	dxr_pred	dyr_pred	dzr_pred	dxrT	dyrT	dzrT	dxrUn	dyrUn	dzrUn	x	y	z	dx	dy	dz	ux	uy	uz	dxd	dyd	dzd	Perpx	Tangx	Perpy	Tangy	Perpz	Tanz	ax	ay	az	pitch	roll	yaw	yawd	eyaw	kpvx	kpvy	kpvz	kpyaw	kivx	kivy	kivz	kdvx	kdvy	kdvz	kdyaw	ktg	veld	pitchoff	ke1	ke2	gravity	thr_vel	gps_accuracy	height_accuracy	gps_sat_num	gps_status
11.7605	1.1415	-2.36866	50	50	1450	0	0.00604157	0.15492	-0.265069	2.21484e-05	0.000567937	-0.000971745	0.208537	0.0725559	0.368665	-0.0177876	-0.0364553	0.104358	0	0	0	0	0	0	0.188904	0.0666077	0.332	-0.03	-0.02	0.106	0.205665	0.0810057	2.82845	-0.0117461	0.118465	-0.160711	0.0746028	-0.0272867	0.0259564	0.0784263	-0.163907	-0	0	-0	9.81	0.0335103	-0.031765	0	-2.80677	-0.328606	-1080	1080	-600	1700	-10	10	-10	-0	0	-0	250	-1.2	0.2	177	-1.2	-1	2555	0.07	2880	4292	8	56579	
11.7669	1.14168	-2.36973	100	100	1500	0	0.00610206	0.154901	-0.265088	6.09514e-05	0.00155295	-0.00265744	0.208237	0.0723559	0.369725	-0.0177876	-0.0364553	0.104358	0	0	0	0	0	0	0.188904	0.0666077	0.332	-0.03	-0.02	0.106	0.129036	0.167558	2.70047	-0.0116856	0.118446	-0.16073	0.0746012	-0.0272457	0.0259216	0.0784119	-0.163927	-0	0.284898	-0.206848	3.29707	0.0335103	-0.031765	0	-2.80717	-0.328219	-1080	1080	-600	1700	-10	10	-10	-0	0	-0	250	-1.2	0.2	177	-1.2	-1	2555	0.07	2880	4292	8	56579	
11.7768	1.14175	-2.37003	150	150	1550	0	0.0058868	0.154393	-0.260553	0.000119313	0.0030836	-0.00524056	0.208127	0.0722826	0.370032	-0.0175596	-0.0361171	0.099697	0	0	0	0	0	0	0.188904	0.0666077	0.332	-0.03	-0.02	0.1	0.0467625	0.259612	2.57249	-0.0116728	0.118276	-0.160856	0.0746024	-0.0272312	0.0259094	0.0784084	-0.163932	-0	0.286037	-0.200033	3.29701	0.0333358	-0.0307178	0	-2.80733	-0.328077	-1080	1080	-600	1700	-10	10	-10	-0	0	-0	250	-1.2	0.2	177	-1.2	-1	2555	0.07	2880	4292	8	56579	
11.7869	1.14187	-2.37057	170	166	1600	0	0.00582506	0.154037	-0.258026	0.000178094	0.00463799	-0.0078443	0.207937	0.0721554	0.370569	-0.0174403	-0.0358222	0.0971211	0	0	0	0	0	0	0.188904	0.0666077	0.332	-0.03	-0.02	0.095	0.012515	0.296524	2.4445	-0.0116153	0.118215	-0.160905	0.0746042	-0.0272062	0.0258882	0.0784024	-0.163942	-0	0.285753	-0.197565	3.30347	0.0333358	-0.0303687	0	-2.80759	-0.32783	-1080	1080	-600	1700	-10	10	-10	-0	0	-0	250	-1.2	0.2	177	-1.2	-1	2555	0.07	2880	4292	8	56579	
11.797	1.14205	-2.37152	170	166	1650	0	0.0060851	0.153782	-0.262441	0.000240028	0.00620318	-0.0105154	0.20764	0.0719574	0.371518	-0.0176408	-0.0355838	0.101521	0	0	0	0	0	0	0.188904	0.0666077	0.332	-0.03	-0.02	0.095	0.0129061	0.305791	2.31652	-0.0115557	0.118199	-0.160921	0.0746048	-0.0271662	0.0258543	0.0783904	-0.163959	-0	0.285596	-0.197456	3.30705	0.0333358	-0.0303687	0	-2.808	-0.327444	-1080	1080	-600	1700	-10	10	-10	-0	0	-0	250	-1.2	0.2	177	-1.2	-1	2555	0.07	2880	4292	8	56579	
11.8068	1.14223	-2.37226	170	165	1700	0	0.00635617	0.153036	-0.262556	0.000302388	0.00770462	-0.0130914	0.207338	0.0717568	0.372257	-0.017833	-0.034956	0.101542	0	0	0	0	0	0	0.188904	0.0666077	0.332	-0.03	-0.02	0.089	0.0132971	0.313162	2.18853	-0.0114769	0.11808	-0.161014	0.07461	-0.0271273	0.0258215	0.0783833	-0.163972	-0	0.285878	-0.193109	3.30063	0.0333358	-0.0296706	0	-2.80841	-0.327053	-1080	1080	-600	1700	-10	10	-10	-0	0	-0	250	-1.2	0.2	177	-1.2	-1	2555	0.07	2880	4292	8	56579	
11.8168	1.14242	-2.37296	169	164	1750	0	0.0067468	0.152358	-0.265032	0.000369566	0.00922165	-0.0157303	0.207035	0.0715563	0.372958	-0.0181937	-0.0342862	0.10401	0	0	0	0	0	0	0.188904	0.0666077	0.332	-0.03	-0.02	0.084	0.0156437	0.320422	2.06055	-0.0114469	0.118072	-0.161022	0.0746161	-0.027089	0.0257892	0.0783769	-0.163984	-0	0.287023	-0.193115	3.3004	0.0331613	-0.0296706	0	-2.80882	-0.326664	-1080	1080	-600	1700	-10	10	-10	-0	0	-0	250	-1.2	0.2	177	-1.2	-1	2555	0.07	2880	4292	8	56579	
11.8268	1.1426	-2.37387	168	163	1800	0	0.00749292	0.151681	-0.273637	0.00044475	0.0107436	-0.018476	0.206744	0.0713665	0.373866	-0.0188834	-0.0336239	0.1126	0	0	0	0	0	0	0.188904	0.0666077	0.332	-0.03	-0.02	0.084	0.018102	0.327571	1.93256	-0.0113905	0.118057	-0.161037	0.0746166	-0.0270512	0.0257571	0.0783653	-0.164	-0	0.287183	-0.193223	3.29677	0.0331613	-0.0296706	0	-2.80921	-0.3263	-1080	1080	-600	1700	-10	10	-10	-0	0	-0	250	-1.2	0.2	177	-1.2	-1	2555	0.07	2880	4292	8	56579	
11.8369	1.14277	-2.37449	168	162	1850	0	0.00809841	0.150697	-0.278463	0.000526536	0.0122655	-0.0212882	0.20645	0.0711791	0.374492	-0.0195235	-0.0326557	0.117417	0	0	0	0	0	0	0.188904	0.0666077	0.332	-0.03	-0.02	0.079	0.0186048	0.334608	1.80458	-0.011425	0.118041	-0.161046	0.0746227	-0.0270166	0.0257282	0.0783595	-0.16401	-0	0.28887	-0.193592	3.28432	0.0329867	-0.0296706	0	-2.80958	-0.325948	-1080	1080	-600	1700	-10	10	-10	-0	0	-0	250	-1.2	0.2	177	-1.2	-1	2555	0.07	2880	4292	8	56579	
11.8469	1.14295	-2.37494	167	161	1900	0	0.0087586	0.149335	-0.282443	0.000613544	0.013749	-0.0240939	0.206155	0.0709978	0.374938	-0.020242	-0.0313913	0.12133	0	0	0	0	0	0	0.188904	0.0666077	0.332	-0.03	-0.02	0.072	0.0212307	0.341534	1.67659	-0.0114834	0.117944	-0.161113	0.0746319	-0.0269854	0.0257025	0.0783571	-0.164017	-0	0.290319	-0.190382	3.2773	0.0328122	-0.029147	0	-2.80992	-0.325621	-1080	1080	-600	1700	-10	10	-10	-0	0	-0	250	-1.2	0.2	177	-1.2	-1	2555	0.07	2880	4292	8	56579	
11.8568	1.14313	-2.37597	166	160	1950	0	0.00994883	0.148119	-0.294301	0.000712067	0.0152158	-0.0270084	0.205861	0.0708258	0.375975	-0.021384	-0.0301955	0.13317	0	0	0	0	0	0	0.188904	0.0666077	0.332	-0.03	-0.02	0.072	0.0239683	0.348348	1.54861	-0.0114352	0.117923	-0.161132	0.0746275	-0.0269528	0.0256753	0.0783405	-0.164036	-0	0.290577	-0.190551	3.2715	0.0328122	-0.029147	0	-2.81023	-0.32533	-1080	1080	-600	1700	-10	10	-10	-0	0	-0	250	-1.2	0.2	177	-1.2	-1	2555	0.07	2880	4292	8	56579	
11.8668	1.14329	-2.37671	165	157	2000	0	0.0109587	0.146132	-0.303058	0.000822455	0.0166878	-0.0300611	0.205575	0.0706707	0.376713	-0.0224821	-0.0284899	0.141728	0	0	0	0	0	0	0.188904	0.0666077	0.332	-0.03	-0.02	0.068	0.0268177	0.350592	1.42063	-0.0115233	0.117643	-0.16133	0.0746275	-0.0269272	0.0256548	0.078329	-0.164049	-0	0.292482	-0.180757	3.25436	0.0326377	-0.0275762	0	-2.81048	-0.325097	-1080	1080	-600	1700	-10	10	-10	-0	0	-0	250	-1.2	0.2	177	-1.2	-1	2555	0.07	2880	4292	8	56579	
11.8769	1.14346	-2.37762	163	155	2050	0	0.0121851	0.14399	-0.313403	0.000944525	0.0181303	-0.0332008	0.205293	0.0705335	0.377617	-0.0237752	-0.026607	0.151889	0	0	0	0	0	0	0.188904	0.0666077	0.332	-0.03	-0.02	0.065	0.0320694	0.354786	1.29264	-0.0115901	0.117383	-0.161514	0.0746218	-0.0269061	0.0256382	0.0783119	-0.164066	-0	0.293048	-0.171939	3.24168	0.0326377	-0.0261799	0	-2.81065	-0.324932	-1080	1080	-600	1700	-10	10	-10	-0	0	-0	250	-1.2	0.2	177	-1.2	-1	2555	0.07	2880	4292	8	56579	
11.8868	1.14362	-2.379	162	153	2100	0	0.0137598	0.142117	-0.327208	0.00108061	0.0195358	-0.0364369	0.205009	0.0704155	0.379003	-0.0253251	-0.0247691	0.165665	0	0	0	0	0	0	0.188904	0.0666077	0.332	-0.03	-0.02	0.065	0.0351981	0.358757	1.16466	-0.0115653	0.117347	-0.161542	0.0746037	-0.0268879	0.0256245	0.0782819	-0.164093	-0	0.293716	-0.172331	3.22671	0.0326377	-0.0261799	0	-2.81074	-0.324847	-1080	1080	-600	1700	-10	10	-10	-0	0	-0	250	-1.2	0.2	177	-1.2	-1	2555	0.07	2880	4292	8	56579	
11.8969	1.14377	-2.38018	160	151	2150	0	0.0151159	0.139896	-0.338394	0.00123391	0.0209547	-0.0398689	0.204731	0.0703251	0.380185	-0.0268372	-0.0226288	0.176805	0	0	0	0	0	0	0.188904	0.0666077	0.332	-0.03	-0.02	0.062	0.0408409	0.362504	1.03667	-0.0117213	0.117267	-0.161589	0.0745865	-0.02688	0.0256204	0.0782535	-0.164117	-0	0.295757	-0.171701	3.20675	0.0324631	-0.0260054	0	-2.81072	-0.324868	-1080	1080	-600	1700	-10	10	-10	-0	0	-0	250	-1.2	0.2	177	-1.2	-1	2555	0.07	2880	4292	8	56579	
11.9069	1.12758	-2.42851	178	101	2200	0	-0.00105358	0.0882108	-0.352992	0.00122334	0.0218399	-0.0434115	0.232283	0.0799676	0.428507	-0.0114785	0.0267994	0.189849	0	0	0	0	0	0	0.211128	0.0721091	0.379	0.01	0.01	0.059	-0.0024583	0.248208	0.908689	-0.012532	0.11501	-0.163143	0.0726736	-0.0266261	0.0250192	0.0773412	-0.165535	-0	0.299945	-0.168657	3.19056	0.0319395	-0.0254818	0	-2.81003	-0.325518	-1080	1080	-600	1700	-10	10	-10	-0	0	-0	250	-1.2	0.2	177	-1.2	-1	2555	0.07	2867	4274	8	56579	
11.9168	1.12745	-2.43049	176	92	2250	0	0.000745628	0.0855857	-0.367694	0.00123072	0.0226865	-0.0470484	0.232418	0.0802499	0.430494	-0.0133723	0.0293423	0.204501	0	0	0	0	0	0	0.211128	0.0721091	0.379	0.01	0.01	0.059	0.00251417	0.231241	0.780705	-0.0126266	0.114928	-0.163193	0.0726031	-0.0266817	0.0250686	0.077275	-0.165581	-0	0.300901	-0.169195	3.16946	0.0319395	-0.0254818	0	-2.80913	-0.326375	-1080	1080	-600	1700	-10	10	-10	-0	0	-0	250	-1.2	0.2	177	-1.2	-1	2555	0.07	2867	4274	8	56579	
11.9268	1.12731	-2.43226	175	89	2300	0	0.00167717	0.0826319	-0.379451	0.00124746	0.0235113	-0.050836	0.232559	0.0805747	0.432257	-0.0149193	0.0318879	0.21602	0	0	0	0	0	0	0.211128	0.0721091	0.379	0.01	0.01	0.056	0.00514008	0.228676	0.65272	-0.0132421	0.11452	-0.163432	0.0725327	-0.0267509	0.0251304	0.0772097	-0.165622	-0	0.311156	-0.158113	3.14821	0.0305433	-0.0237365	0	-2.80807	-0.327377	-1080	1080	-600	1700	-10	10	-10	-0	0	-0	250	-1.2	0.2	177	-1.2	-1	2555	0.07	2867	4274	8	56579	
11.9368	1.12716	-2.43474	173	87	2350	0	0.00338631	0.0803354	-0.393801	0.00128144	0.0243175	-0.0547882	0.232704	0.0809436	0.434742	-0.0167555	0.0340799	0.230307	0	0	0	0	0	0	0.211128	0.0721091	0.379	0.01	0.01	0.056	0.0105036	0.228399	0.524736	-0.0133692	0.114415	-0.163494	0.0724428	-0.0268269	0.0251984	0.0771244	-0.165678	-0	0.311951	-0.158517	3.13119	0.0305433	-0.0237365	0	-2.80684	-0.328532	-1080	1080	-600	1700	-10	10	-10	-0	0	-0	250	-1.2	0.2	177	-1.2	-1	2555	0.07	2867	4274	8	56579	
11.9469	1.12699	-2.43738	172	82	2400	0	0.00395385	0.0765606	-0.407261	0.00132126	0.0250886	-0.0588898	0.232856	0.0813668	0.43738	-0.0182142	0.0371642	0.24336	0	0	0	0	0	0	0.211128	0.0721091	0.379	0.01	0.01	0.055	0.0134089	0.219859	0.396751	-0.0142604	0.113725	-0.1639	0.072344	-0.0269168	0.0252791	0.0770307	-0.165738	-0	0.328104	-0.137967	3.11043	0.0282743	-0.0205949	0	-2.80543	-0.32987	-1080	1080	-600	1700	-10	10	-10	-0	0	-0	250	-1.2	0.2	177	-1.2	-1	2555	0.07	2867	4274	8	56579	
11.9567	1.1268	-2.44073	171	78	2450	0	0.0046979	0.0722621	-0.422451	0.00136744	0.0257989	-0.0630424	0.233017	0.0818501	0.440734	-0.0198297	0.0406236	0.25805	0	0	0	0	0	0	0.211128	0.0721091	0.379	0.01	0.01	0.056	0.0164259	0.213496	0.268767	-0.0151318	0.112886	-0.164402	0.0722242	-0.0270176	0.0253697	0.0769158	-0.165813	-0	0.341941	-0.112573	3.09095	0.0263545	-0.0167552	0	-2.80379	-0.331411	-1080	1080	-600	1700	-10	10	-10	-0	0	-0	250	-1.2	0.2	177	-1.2	-1	2555	0.07	2867	4274	8	56579	
11.9668	1.1266	-2.44428	170	75	2500	0	0.00643522	0.0694183	-0.435879	0.00143197	0.026495	-0.067413	0.233186	0.0823996	0.444285	-0.0217597	0.043314	0.271391	0	0	0	0	0	0	0.211128	0.0721091	0.379	0.01	0.01	0.056	0.0195546	0.209477	0.140783	-0.0153245	0.112732	-0.164489	0.0720935	-0.027135	0.0254752	0.0767904	-0.165893	-0	0.343059	-0.112942	3.06898	0.0263545	-0.0167552	0	-2.80192	-0.333175	-1080	1080	-600	1700	-10	10	-10	-0	0	-0	250	-1.2	0.2	177	-1.2	-1	2555	0.07	2867	4274	8	56579	
11.9769	1.12638	-2.44985	168	69	2550	0	0.00740292	0.0645596	-0.456762	0.00150664	0.0271462	-0.0720204	0.233361	0.0830117	0.449847	-0.0236344	0.0471523	0.291665	0	0	0	0	0	0	0.211128	0.0721091	0.379	0.01	0.01	0.064	0.0256445	0.196578	0.0127984	-0.0162315	0.111712	-0.165097	0.0719153	-0.0272539	0.0255819	0.0766156	-0.166015	-0	0.354654	-0.0837723	3.04954	0.0247837	-0.0123918	0	-2.79983	-0.33515	-1080	1080	-600	1700	-10	10	-10	-0	0	-0	250	-1.2	0.2	177	-1.2	-1	2555	0.07	2867	4274	8	56579	
11.9869	1.12614	-2.45713	167	64	2600	0	0.00856056	0.0593609	-0.4821	0.00159229	0.0277401	-0.0768438	0.233547	0.0837079	0.457125	-0.0256709	0.051268	0.316364	0	0	0	0	0	0	0.211128	0.0721091	0.379	0.01	0.01	0.077	0.0290525	0.185913	-0.115186	-0.0171104	0.110629	-0.165736	0.0716938	-0.0273819	0.0256965	0.0763961	-0.166173	-0	0.365705	-0.0545181	3.01936	0.0233874	-0.00802851	0	-2.79744	-0.337402	-1080	1080	-600	1700	-10	10	-10	-0	0	-0	250	-1.2	0.2	177	-1.2	-1	2555	0.07	2867	4274	8	56579	
11.9968	1.12587	-2.46212	165	60	2650	0	0.0101916	0.0560435	-0.493283	0.00169387	0.0282987	-0.0817603	0.233745	0.0844914	0.462123	-0.0275756	0.0543651	0.327428	0	0	0	0	0	0	0.211128	0.0721091	0.379	0.01	0.01	0.077	0.0355334	0.177648	-0.24317	-0.017384	0.110409	-0.165855	0.0715091	-0.0275502	0.0258482	0.0762175	-0.166283	-0	0.367676	-0.054812	2.98277	0.0233874	-0.00802851	0	-2.79474	-0.339941	-1080	1080	-600	1700	-10	10	-10	-0	0	-0	250	-1.2	0.2	177	-1.2	-1	2555	0.07	2867	4274	8	56579	
12.0069	1.12557	-2.4721	165	54	2700	0	0.0105586	0.0505648	-0.522703	0.00179979	0.028806	-0.0870041	0.233954	0.0853621	0.472101	-0.0291382	0.0587055	0.356226	0	0	0	0	0	0	0.211128	0.0721091	0.379	0.01	0.01	0.096	0.0362039	0.162903	-0.371155	-0.0185796	0.10927	-0.166478	0.0712155	-0.0277024	0.0259842	0.0759245	-0.166497	-0	0.387631	-0.0274713	2.96655	0.0205949	-0.00401426	0	-2.79173	-0.342764	-1080	1080	-600	1700	-10	10	-10	-0	0	-0	250	-1.2	0.2	177	-1.2	-1	2555	0.07	2867	4274	8	56579	
12.0168	1.12525	-2.4839	165	48	2750	0	0.010505	0.0449122	-0.554935	0.00190372	0.0292503	-0.0924941	0.234174	0.0863278	0.4839	-0.0303689	0.0632115	0.387858	0	0	0	0	0	0	0.211128	0.0721091	0.379	0.01	0.01	0.119	0.0368743	0.147487	-0.499139	-0.0198639	0.108124	-0.167077	0.0708765	-0.0278641	0.0261285	0.0755846	-0.166746	-0	0.412833	-0.00240365	2.92406	0.0172788	-0.000349066	0	-2.7884	-0.345893	-1080	1080	-600	1700	-10	10	-10	-0	0	-0	250	-1.2	0.2	177	-1.2	-1	2555	0.07	2867	4274	8	56579	
12.0268	1.1249	-2.49067	164	44	2800	0	0.0118663	0.041289	-0.562649	0.00202337	0.0296666	-0.0981672	0.23441	0.0874011	0.490672	-0.0320982	0.0665308	0.39542	0	0	0	0	0	0	0.211128	0.0721091	0.379	0.01	0.01	0.119	0.0406735	0.137656	-0.627123	-0.0202318	0.10782	-0.167229	0.0706262	-0.0280915	0.0263334	0.0753416	-0.166892	-0	0.415623	-0.00241989	2.87752	0.0172788	-0.000349066	0	-2.7847	-0.349361	-1080	1080	-600	1700	-10	10	-10	-0	0	-0	250	-1.2	0.2	177	-1.2	-1	2555	0.07	2867	4274	8	56579	
12.0368	1.12451	-2.50514	165	37	2850	0	0.0104288	0.034781	-0.596196	0.00212741	0.0300136	-0.104115	0.234658	0.0885755	0.50514	-0.032383	0.0716174	0.428275	0	0	0	0	0	0	0.211128	0.0721091	0.379	0.01	0.01	0.146	0.0382152	0.117826	-0.755108	-0.0219542	0.106398	-0.167921	0.070214	-0.0282826	0.0265034	0.0749278	-0.167193	-0	0.451374	0.0290857	2.86628	0.0122173	0.00418879	0	-2.78066	-0.353145	-1080	1080	-600	1700	-10	10	-10	-0	0	-0	250	-1.2	0.2	177	-1.2	-1	2555	0.07	2867	4274	8	56579	
12.0468	1.12407	-2.52217	167	29	2900	0	0.00833224	0.0273409	-0.633437	0.00221098	0.0302878	-0.110468	0.234939	0.0898767	0.522171	-0.0321352	0.0774175	0.464739	0	0	0	0	0	0	0.211128	0.0721091	0.379	0.01	0.01	0.178	0.0324048	0.0939716	-0.883092	-0.023803	0.104758	-0.168698	0.0697404	-0.0284815	0.0266794	0.0744513	-0.167542	-0	0.493485	0.0658986	2.81783	0.00663225	0.00942478	0	-2.77622	-0.3573	-1080	1080	-600	1700	-10	10	-10	-0	0	-0	250	-1.2	0.2	177	-1.2	-1	2555	0.07	2867	4274	8	56579	
12.0569	1.12323	-2.5312	168	23	2938	0	0.00818487	0.0218432	-0.637315	0.00229352	0.0305081	-0.116896	0.235796	0.0915135	0.531197	-0.0324699	0.0824899	0.468422	0	0	0	0	0	0	0.211128	0.0721091	0.379	0.01	0.01	0.178	0.0295465	0.0755065	-0.98036	-0.0242851	0.104333	-0.168893	0.0693915	-0.0287718	0.0269312	0.0741341	-0.167737	-0	0.49728	0.0664054	2.76406	0.00663225	0.00942478	0	-2.77138	-0.361812	-1080	1080	-600	1700	-10	10	-10	-0	0	-0	250	-1.2	0.2	177	-1.2	-1	2555	0.07	2867	4274	8	56579	
12.0668	1.12345	-2.5394	170	21	2944	0	0.00637194	0.0192559	-0.646586	0.00235669	0.030699	-0.123306	0.235135	0.0922055	0.539397	-0.0325563	0.0838777	0.477241	0	0	0	0	0	0	0.211128	0.0721091	0.379	0.01	0.01	0.222	0.0230275	0.0690817	-0.995718	-0.0261844	0.103134	-0.169345	0.0691509	-0.0289643	0.0271167	0.0738626	-0.167894	-0	0.540644	0.0972262	2.75832	0.000523599	0.0137881	0	-2.76788	-0.365072	-1080	1080	-600	1700	-10	10	-10	-0	0	-0	250	-1.2	0.2	177	-1.2	-1	2555	0.07	2867	4274	8	56579	
12.0768	1.12343	-2.5387	168	21	2926	0	0.00810511	0.0192141	-0.616782	0.00243745	0.0308904	-0.129451	0.234758	0.0932663	0.538701	-0.0347652	0.083821	0.447451	0	0	0	0	0	0	0.211128	0.0721091	0.379	0.01	0.01	0.222	0.0294258	0.0686594	-0.949644	-0.02666	0.103035	-0.169331	0.0690415	-0.0292988	0.0274293	0.0737473	-0.16788	-0	0.541679	0.0974123	2.74482	0.000523599	0.0137881	0	-2.76343	-0.369216	-1080	1080	-600	1700	-10	10	-10	-0	0	-0	250	-1.2	0.2	177	-1.2	-1	2555	0.07	2867	4274	8	56579	
12.0868	1.12339	-2.54782	172	19	2931	0	0.00428536	0.0180242	-0.624457	0.00248045	0.0310713	-0.135718	0.234668	0.0936672	0.547818	-0.0325469	0.084119	0.454845	0	0	0	0	0	0	0.211128	0.0721091	0.379	0.01	0.01	0.262	0.0163756	0.0622267	-0.962442	-0.0282616	0.102143	-0.169611	0.068821	-0.0293431	0.0274697	0.0735144	-0.168059	-0	0.578719	0.115205	2.78759	-0.00523599	0.0164061	0	-2.76182	-0.370708	-1080	1080	-600	1700	-10	10	-10	-0	0	-0	250	-1.2	0.2	177	-1.2	-1	2555	0.07	2867	4274	8	56579	
12.097	1.12339	-2.55443	177	19	2934	0	-0.000514133	0.0180229	-0.629828	0.00247525	0.0312538	-0.142096	0.234719	0.0935363	0.55443	-0.0291037	0.0834051	0.460019	0	0	0	0	0	0	0.211128	0.0721091	0.379	0.01	0.01	0.301	0	0.0622904	-0.970121	-0.0296179	0.101428	-0.169809	0.0687104	-0.0292486	0.0273813	0.0733961	-0.168186	-0	0.616336	0.131345	2.77639	-0.010472	0.018675	0	-2.76238	-0.370192	-1080	1080	-600	1700	-10	10	-10	-0	0	-0	250	-1.2	0.2	177	-1.2	-1	2555	0.07	2867	4274	8	56579	
12.1068	1.1234	-2.5493	178	22	2914	0	-0.00156225	0.0206991	-0.597017	0.00245982	0.0314583	-0.147993	0.234771	0.0933417	0.549301	-0.0280108	0.080902	0.427303	0	0	0	0	0	0	0.211128	0.0721091	0.379	0.01	0.01	0.301	-0.00325613	0.0716338	-0.918928	-0.029573	0.101601	-0.169713	0.0688305	-0.029232	0.0273661	0.0735235	-0.168087	-0	0.617027	0.131493	2.7685	-0.010472	0.018675	0	-2.76317	-0.369457	-1080	1080	-600	1700	-10	10	-10	-0	0	-0	250	-1.2	0.2	177	-1.2	-1	2555	0.07	2867	4274	8	56579	
12.1168	1.12343	-2.55981	184	23	2927	0	-0.00661397	0.0213412	-0.617704	0.00239411	0.0316703	-0.15413	0.234828	0.0931024	0.559813	-0.0243724	0.0795996	0.447849	0	0	0	0	0	0	0.211128	0.0721091	0.379	0.01	0.01	0.353	-0.0228946	0.0752238	-0.952204	-0.0309863	0.100941	-0.169855	0.0686579	-0.0290762	0.0272208	0.0733377	-0.168289	-0	0.651804	0.139157	2.8156	-0.016057	0.0198968	0	-2.76413	-0.36856	-1080	1080	-600	1700	-10	10	-10	-0	0	-0	250	-1.2	0.2	177	-1.2	-1	2555	0.07	2867	4274	8	56579	
12.1269	1.12346	-2.57255	190	23	2944	0	-0.0123316	0.0211012	-0.64723	0.00226958	0.0318834	-0.160665	0.234882	0.0928281	0.572548	-0.0200694	0.078985	0.477133	0	0	0	0	0	0	0.211128	0.0721091	0.379	0.01	0.01	0.412	-0.0427652	0.0756607	-0.995718	-0.0324009	0.100086	-0.170097	0.0684478	-0.0288945	0.0270514	0.0731113	-0.168532	-0	0.697304	0.154461	2.78567	-0.0221657	0.0219911	0	-2.76522	-0.367549	-1080	1080	-600	1700	-10	10	-10	-0	0	-0	250	-1.2	0.2	177	-1.2	-1	2555	0.07	2867	4274	8	56579	
12.1369	1.12351	-2.5676	190	26	2927	0	-0.0127523	0.024123	-0.618398	0.00214233	0.0321241	-0.166836	0.23492	0.092501	0.5676	-0.0195527	0.0761454	0.44839	0	0	0	0	0	0	0.211128	0.0721091	0.379	0.01	0.01	0.412	-0.0425183	0.0850352	-0.952204	-0.032305	0.100268	-0.170008	0.0685782	-0.0288415	0.027003	0.0732472	-0.168437	-0	0.701539	0.155399	2.743	-0.0221657	0.0219911	0	-2.76648	-0.366376	-1080	1080	-600	1700	-10	10	-10	-0	0	-0	250	-1.2	0.2	177	-1.2	-1	2555	0.07	2867	4274	8	56579	
12.1469	1.10676	-2.58713	195	-24	2941	0	-0.0173325	-0.0232032	-0.641014	0.00196824	0.031891	-0.173275	0.252131	0.118869	0.587127	-0.0239261	0.119314	0.470543	0	0	0	0	0	0	0.22224	0.0867674	0.388	0.03	0.05	0.463	-0.0591528	-0.0788698	-0.988039	-0.0412586	0.0961112	-0.170471	0.0654492	-0.0334562	0.0308566	0.070963	-0.169143	-0	0.741344	0.174103	2.78436	-0.0284489	0.0247837	0	-2.70104	-0.426442	-1080	1080	-600	1700	-10	10	-10	-0	0	-0	250	-1.2	0.2	177	-1.2	-1	2555	0.07	2855	4257	8	56579	
12.1568	1.10681	-2.60033	201	-26	2961	0	-0.0225778	-0.0244589	-0.674852	0.00174388	0.031648	-0.179981	0.252211	0.118512	0.600325	-0.0200721	0.119348	0.504039	0	0	0	0	0	0	0.22224	0.0867674	0.388	0.03	0.05	0.523	-0.0794061	-0.086023	-1.03923	-0.0426499	0.0948888	-0.170813	0.0652532	-0.0332435	0.030662	0.0707471	-0.169386	-0	0.781537	0.200775	2.75164	-0.0336849	0.0284489	0	-2.70232	-0.425281	-1080	1080	-600	1700	-10	10	-10	-0	0	-0	250	-1.2	0.2	177	-1.2	-1	2555	0.07	2855	4257	8	56579	
12.1669	1.10688	-2.59576	202	-20	2946	0	-0.0235908	-0.0197252	-0.64949	0.00150628	0.0314493	-0.186522	0.252287	0.118125	0.59576	-0.0189634	0.114796	0.478754	0	0	0	0	0	0	0.22224	0.0867674	0.388	0.03	0.05	0.523	-0.0822955	-0.0658369	-1.00084	-0.0425542	0.0950705	-0.170736	0.0653809	-0.0331878	0.0306123	0.0708814	-0.1693	-0	0.78695	0.202166	2.70276	-0.0336849	0.0284489	0	-2.70369	-0.424037	-1080	1080	-600	1700	-10	10	-10	-0	0	-0	250	-1.2	0.2	177	-1.2	-1	2555	0.07	2855	4257	8	56579	
12.1769	1.10696	-2.60536	208	-20	2960	0	-0.0289068	-0.0194981	-0.671931	0.00121721	0.0312543	-0.193242	0.252352	0.117685	0.605364	-0.0149498	0.113316	0.500833	0	0	0	0	0	0	0.22224	0.0867674	0.388	0.03	0.05	0.57	-0.10253	-0.0661498	-1.03667	-0.0438565	0.0938181	-0.171099	0.0652589	-0.0329915	0.0304336	0.0707438	-0.169476	-0	0.813579	0.231969	2.73912	-0.0380482	0.0328122	0	-2.70522	-0.422651	-1080	1080	-600	1700	-10	10	-10	-0	0	-0	250	-1.2	0.2	177	-1.2	-1	2555	0.07	2855	4257	8	56579	
12.1869	1.10708	-2.61566	212	-20	2975	0	-0.0327344	-0.0189673	-0.698129	0.000890129	0.0310648	-0.200218	0.252385	0.117185	0.615664	-0.0120044	0.111687	0.52666	0	0	0	0	0	0	0.22224	0.0867674	0.388	0.03	0.05	0.619	-0.116346	-0.066485	-1.07507	-0.0447388	0.0927195	-0.171469	0.0651311	-0.0327791	0.030241	0.0705975	-0.169661	-0	0.830861	0.256576	2.70665	-0.039968	0.0361283	0	-2.7069	-0.421129	-1080	1080	-600	1700	-10	10	-10	-0	0	-0	250	-1.2	0.2	177	-1.2	-1	2555	0.07	2855	4257	8	56579	
12.197	1.10732	-2.61115	212	-14	2962	0	-0.0333255	-0.0138573	-0.676197	0.00055494	0.0309254	-0.207019	0.252267	0.116581	0.611151	-0.0112716	0.106782	0.504802	0	0	0	0	0	0	0.22224	0.0867674	0.388	0.03	0.05	0.619	-0.115837	-0.0463364	-1.04179	-0.0445972	0.0929245	-0.171395	0.0652786	-0.0326922	0.0301674	0.070742	-0.169574	-0	0.835292	0.257945	2.66876	-0.039968	0.0361283	0	-2.7087	-0.419503	-1080	1080	-600	1700	-10	10	-10	-0	0	-0	250	-1.2	0.2	177	-1.2	-1	2555	0.07	2855	4257	8	56579	
12.207	1.10777	-2.62662	217	-13	2989	0	-0.0372707	-0.0123733	-0.721155	0.000182569	0.0308018	-0.214224	0.25198	0.115592	0.626618	-0.00789178	0.104187	0.54931	0	0	0	0	0	0	0.22224	0.0867674	0.388	0.03	0.05	0.686	-0.133591	-0.0434189	-1.1109	-0.0451625	0.0918133	-0.171845	0.0651086	-0.0323541	0.0298675	0.0705291	-0.169846	-0	0.83778	0.27665	2.70018	-0.0408407	0.0389208	0	-2.7115	-0.416955	-1080	1080	-600	1700	-10	10	-10	-0	0	-0	250	-1.2	0.2	177	-1.2	-1	2555	0.07	2855	4257	8	56579	
12.2167	1.10792	-2.634	219	-13	3001	0	-0.0391715	-0.0127089	-0.740641	-0.000200725	0.0306775	-0.221471	0.251936	0.115153	0.633995	-0.00673745	0.103432	0.568415	0	0	0	0	0	0	0.22224	0.0867674	0.388	0.03	0.05	0.725	-0.140833	-0.0435932	-1.14162	-0.045909	0.0907228	-0.172226	0.0650254	-0.0321915	0.0297214	0.0704295	-0.169976	-0	0.845427	0.302949	2.63527	-0.0408407	0.042237	0	-2.71287	-0.415708	-1080	1080	-600	1700	-10	10	-10	-0	0	-0	250	-1.2	0.2	177	-1.2	-1	2555	0.07	2855	4257	8	56579	
12.2268	1.10807	-2.6299	219	-9	2990	0	-0.0390808	-0.0087617	-0.721782	-0.000593447	0.0305894	-0.228724	0.251859	0.114778	0.629902	-0.00675466	0.099648	0.549623	0	0	0	0	0	0	0.22224	0.0867674	0.388	0.03	0.05	0.725	-0.140316	-0.0300694	-1.11346	-0.0458354	0.0908863	-0.172159	0.0651393	-0.0321484	0.0296856	0.0705434	-0.169899	-0	0.848754	0.304141	2.60704	-0.0408407	0.042237	0	-2.71399	-0.414692	-1080	1080	-600	1700	-10	10	-10	-0	0	-0	250	-1.2	0.2	177	-1.2	-1	2555	0.07	2855	4257	8	56579	
12.2368	1.10824	-2.64844	221	-11	3024	0	-0.0413418	-0.0104998	-0.779225	-0.00100939	0.0304838	-0.236564	0.251767	0.114383	0.648442	-0.00499574	0.100155	0.606555	0	0	0	0	0	0	0.22224	0.0867674	0.388	0.03	0.05	0.8	-0.148669	-0.0371693	-1.20049	-0.0463375	0.0896548	-0.17267	0.0648519	-0.0319032	0.0294636	0.0702218	-0.170227	-0	0.839356	0.319268	2.63402	-0.039968	0.0445059	0	-2.71515	-0.413633	-1080	1080	-600	1700	-10	10	-10	-0	0	-0	250	-1.2	0.2	177	-1.2	-1	2555	0.07	2855	4257	8	56579	
12.2468	1.10843	-2.64475	221	-6	3015	0	-0.0411933	-0.00662068	-0.762796	-0.00141922	0.0304179	-0.244153	0.251643	0.113951	0.644753	-0.00505465	0.0964345	0.590185	0	0	0	0	0	0	0.22224	0.0867674	0.388	0.03	0.05	0.8	-0.148226	-0.0202139	-1.17746	-0.046248	0.0898138	-0.172611	0.0649638	-0.0318476	0.0294174	0.0703307	-0.170158	-0	0.849052	0.322956	2.55113	-0.039968	0.0445059	0	-2.71639	-0.412505	-1080	1080	-600	1700	-10	10	-10	-0	0	-0	250	-1.2	0.2	177	-1.2	-1	2555	0.07	2855	4257	8	56579	
12.2568	1.10864	-2.65773	223	-6	3038	0	-0.0425841	-0.0065658	-0.802025	-0.00184336	0.0303525	-0.252141	0.251493	0.113517	0.657729	-0.0042087	0.0955131	0.629112	0	0	0	0	0	0	0.22224	0.0867674	0.388	0.03	0.05	0.855	-0.156145	-0.0203681	-1.23633	-0.0467928	0.0889473	-0.172913	0.0647798	-0.0316494	0.0292398	0.0701182	-0.170383	-0	0.840036	0.329481	2.5746	-0.0390954	0.0455531	0	-2.7176	-0.411404	-1080	1080	-600	1700	-10	10	-10	-0	0	-0	250	-1.2	0.2	177	-1.2	-1	2555	0.07	2855	4257	8	56579	
12.2669	1.10887	-2.67169	224	-6	3065	0	-0.0435383	-0.00673108	-0.845931	-0.00228357	0.0302845	-0.260694	0.251312	0.113067	0.671689	-0.00379123	0.0948003	0.672715	0	0	0	0	0	0	0.22224	0.0867674	0.388	0.03	0.05	0.913	-0.160957	-0.0205491	-1.30544	-0.0473295	0.0880692	-0.173216	0.0645808	-0.0314432	0.0290554	0.0698883	-0.170623	-0	0.836502	0.337147	2.51792	-0.0376991	0.0462512	0	-2.71882	-0.410294	-1080	1080	-600	1700	-10	10	-10	-0	0	-0	250	-1.2	0.2	177	-1.2	-1	2555	0.07	2855	4257	8	56579	
12.2769	1.10911	-2.6686	223	-2	3056	0	-0.0432485	-0.00300123	-0.832027	-0.00271835	0.0302543	-0.269059	0.251122	0.112597	0.668599	-0.00398346	0.0912173	0.658859	0	0	0	0	0	0	0.22224	0.0867674	0.388	0.03	0.05	0.913	-0.15707	-0.0068296	-1.2824	-0.047232	0.088216	-0.173168	0.0646845	-0.0313797	0.029003	0.0699853	-0.170564	-0	0.843777	0.340079	2.4545	-0.0376991	0.0462512	0	-2.72009	-0.409132	-1080	1080	-600	1700	-10	10	-10	-0	0	-0	250	-1.2	0.2	177	-1.2	-1	2555	0.07	2855	4257	8	56579	
12.2869	1.10938	-2.68159	223	-2	3080	0	-0.0430395	-0.00233243	-0.872019	-0.00314819	0.030231	-0.277768	0.250887	0.11214	0.681593	-0.00453709	0.089833	0.698583	0	0	0	0	0	0	0.22224	0.0867674	0.388	0.03	0.05	0.966	-0.158304	-0.00688324	-1.34384	-0.0475766	0.0875006	-0.173436	0.0645033	-0.0311865	0.0288313	0.0697725	-0.170784	-0	0.824967	0.339163	2.47432	-0.0354302	0.0462512	0	-2.72126	-0.408066	-1080	1080	-600	1700	-10	10	-10	-0	0	-0	250	-1.2	0.2	177	-1.2	-1	2555	0.07	2855	4257	8	56579	
12.2969	1.10966	-2.69499	222	-1	3106	0	-0.0421776	-0.00138493	-0.914666	-0.00357093	0.0302171	-0.286935	0.250627	0.111685	0.694995	-0.00567734	0.0882603	0.740992	0	0	0	0	0	0	0.22224	0.0867674	0.388	0.03	0.05	1.02	-0.15617	-0.00347067	-1.41039	-0.0478549	0.0868753	-0.173674	0.0643154	-0.030994	0.0286605	0.0695518	-0.171009	-0	0.810948	0.336679	2.41653	-0.0326377	0.0455531	0	-2.72238	-0.407039	-1080	1080	-600	1700	-10	10	-10	-0	0	-0	250	-1.2	0.2	177	-1.2	-1	2555	0.07	2855	4257	8	56579	
12.3068	1.10997	-2.69238	222	2	3100	0	-0.0416664	0.00202497	-0.90363	-0.0039811	0.0302371	-0.295831	0.250312	0.111213	0.692382	-0.0061026	0.0849814	0.729998	0	0	0	0	0	0	0.22224	0.0867674	0.388	0.03	0.05	1.02	-0.155869	0.00692793	-1.39503	-0.047769	0.0870064	-0.173632	0.0644087	-0.0309379	0.0286168	0.0696329	-0.170958	-0	0.817707	0.339485	2.35491	-0.0326377	0.0455531	0	-2.72349	-0.406028	-1080	1080	-600	1700	-10	10	-10	-0	0	-0	250	-1.2	0.2	177	-1.2	-1	2555	0.07	2855	4257	8	56579	
12.3167	0.953362	-2.55822	272	-48	3115	0	-0.187443	-0.285427	-0.929532	-0.00585046	0.0273905	-0.305101	0.418179	0.175093	0.558222	0.134592	0.368789	0.755585	0	0	0	0	0	0	0.300024	0.11793	0.241	0.33	0.16	1.073	-0.330574	-0.167063	-1.43342	-0.0528502	0.0833624	-0.173947	0.0589763	-0.0310818	0.0246935	0.0742337	-0.171567	-0	0.795335	0.330989	2.37058	-0.0298451	0.0445059	0	-2.74507	-0.386214	-1080	1080	-600	1700	-10	10	-10	-0	0	-0	250	-1.2	0.2	177	-1.2	-1	2555	0.07	2847	4241	8	56579	
12.3268	0.953507	-2.57287	322	-98	3146	0	-0.182151	-0.286528	-0.980868	-0.00767543	0.0245198	-0.314928	0.418157	0.1748	0.572867	0.129027	0.36913	0.806641	0	0	0	0	0	0	0.300024	0.11793	0.241	0.33	0.16	1.132	-0.509388	-0.344401	-1.51277	-0.0531236	0.0826019	-0.174226	0.0587509	-0.0309082	0.0245594	0.0739387	-0.171822	-0	0.774689	0.324836	2.33307	-0.026529	0.0434587	0	-2.74564	-0.385683	-1080	1080	-600	1700	-10	10	-10	-0	0	-0	250	-1.2	0.2	177	-1.2	-1	2555	0.07	2847	4241	8	56579	
12.3369	0.953604	-2.57021	372	-148	3141	0	-0.181484	-0.281134	-0.972718	-0.0095204	0.0216618	-0.324817	0.418172	0.174534	0.570208	0.128378	0.363838	0.798535	0	0	0	0	0	0	0.300024	0.11793	0.241	0.33	0.16	1.132	-0.683581	-0.519086	-1.49998	-0.0531062	0.0827046	-0.174183	0.0588147	-0.0308904	0.0245477	0.0740115	-0.171774	-0	0.782372	0.328057	2.25892	-0.026529	0.0434587	0	-2.7462	-0.38517	-1080	1080	-600	1700	-10	10	-10	-0	0	-0	250	-1.2	0.2	177	-1.2	-1	2555	0.07	2847	4241	8	56579	
12.3468	0.953799	-2.58266	366	-198	3168	0	-0.175425	-0.276507	-1.01642	-0.0112597	0.0189202	-0.334895	0.418097	0.17425	0.582655	0.122256	0.35858	0.841961	0	0	0	0	0	0	0.300024	0.11793	0.241	0.33	0.16	1.182	-0.668292	-0.700038	-1.56909	-0.0531696	0.0820733	-0.174462	0.0586286	-0.0307418	0.0244346	0.0737622	-0.171988	-0	0.752381	0.319669	2.27041	-0.0226893	0.0424115	0	-2.74671	-0.384696	-1080	1080	-600	1700	-10	10	-10	-0	0	-0	250	-1.2	0.2	177	-1.2	-1	2555	0.07	2847	4241	8	56579	
12.357	0.953906	-2.59921	359	-248	3202	0	-0.169	-0.270588	-1.07335	-0.0129683	0.0161845	-0.345746	0.418076	0.174043	0.599208	0.115838	0.35184	0.898507	0	0	0	0	0	0	0.300024	0.11793	0.241	0.33	0.16	1.244	-0.650501	-0.885598	-1.65612	-0.0531615	0.0812523	-0.174848	0.0583675	-0.0305667	0.0242981	0.0734255	-0.172271	-0	0.728311	0.317045	2.20724	-0.018675	0.0417134	0	-2.74712	-0.384323	-1080	1080	-600	1700	-10	10	-10	-0	0	-0	250	-1.2	0.2	177	-1.2	-1	2555	0.07	2847	4241	8	56579	
12.3668	0.954194	-2.59713	360	-280	3199	0	-0.1695	-0.259775	-1.06792	-0.0146428	0.0136182	-0.356296	0.417887	0.173808	0.597131	0.116346	0.341112	0.893113	0	0	0	0	0	0	0.300024	0.11793	0.241	0.33	0.16	1.244	-0.653455	-0.998395	-1.64844	-0.0531534	0.0813373	-0.174811	0.0584258	-0.0305604	0.0243005	0.0734766	-0.17223	-0	0.736189	0.320474	2.12501	-0.018675	0.0417134	0	-2.74744	-0.384028	-1080	1080	-600	1700	-10	10	-10	-0	0	-0	250	-1.2	0.2	177	-1.2	-1	2555	0.07	2847	4241	8	56579	
12.3768	0.95446	-2.61435	356	-271	3234	0	-0.165706	-0.251476	-1.12687	-0.0163014	0.0111012	-0.367575	0.417728	0.173552	0.614348	0.112496	0.332038	0.951714	0	0	0	0	0	0	0.300024	0.11793	0.241	0.33	0.16	1.308	-0.646194	-0.97703	-1.73803	-0.0532098	0.0805626	-0.175152	0.0581637	-0.0303816	0.024165	0.0731266	-0.172518	-0	0.706115	0.310786	2.13258	-0.0148353	0.0404916	0	-2.74783	-0.38367	-1080	1080	-600	1700	-10	10	-10	-0	0	-0	250	-1.2	0.2	177	-1.2	-1	2555	0.07	2847	4241	8	56579	
12.3868	0.954936	-2.63065	352	-261	3268	0	-0.162716	-0.241772	-1.18339	-0.017929	0.00868277	-0.379412	0.417409	0.173175	0.630653	0.109514	0.321644	1.00792	0	0	0	0	0	0	0.300024	0.11793	0.241	0.33	0.16	1.37	-0.638425	-0.951031	-1.82506	-0.0532021	0.0798724	-0.175471	0.0579328	-0.0302034	0.0240353	0.0728	-0.172783	-0	0.68561	0.304757	2.04744	-0.0111701	0.0392699	0	-2.74832	-0.38321	-1080	1080	-600	1700	-10	10	-10	-0	0	-0	250	-1.2	0.2	177	-1.2	-1	2555	0.07	2847	4241	8	56579	
12.3969	0.955451	-2.62845	355	-247	3264	0	-0.165473	-0.229274	-1.17598	-0.0195942	0.00637559	-0.391246	0.417074	0.172743	0.628455	0.112307	0.309259	1.00055	0	0	0	0	0	0	0.300024	0.11793	0.241	0.33	0.16	1.37	-0.648553	-0.899119	-1.81482	-0.0531667	0.0799859	-0.17543	0.0580116	-0.030177	0.0240272	0.0728597	-0.172737	-0	0.692823	0.307963	1.96578	-0.0111701	0.0392699	0	-2.74892	-0.382656	-1080	1080	-600	1700	-10	10	-10	-0	0	-0	250	-1.2	0.2	177	-1.2	-1	2555	0.07	2847	4241	8	56579	
12.4069	0.956007	-2.64529	353	-236	3298	0	-0.162859	-0.218749	-1.23325	-0.0212239	0.00418657	-0.403588	0.416734	0.172223	0.645291	0.109611	0.298269	1.05763	0	0	0	0	0	0	0.300024	0.11793	0.241	0.33	0.16	1.434	-0.64796	-0.868173	-1.90185	-0.0532485	0.0795202	-0.175616	0.0577843	-0.0299753	0.0238805	0.0725321	-0.173007	-0	0.667389	0.287061	1.97615	-0.00802851	0.0366519	0	-2.7497	-0.381938	-1080	1080	-600	1700	-10	10	-10	-0	0	-0	250	-1.2	0.2	177	-1.2	-1	2555	0.07	2847	4241	8	56579	
12.4168	0.956733	-2.64258	355	-223	3294	0	-0.165304	-0.206846	-1.22476	-0.0228525	0.00214872	-0.415654	0.416283	0.171555	0.642577	0.112121	0.286524	1.0492	0	0	0	0	0	0	0.300024	0.11793	0.241	0.33	0.16	1.434	-0.654514	-0.81951	-1.89161	-0.0531824	0.0796776	-0.175565	0.057892	-0.0299243	0.023858	0.0726121	-0.172949	-0	0.674438	0.290094	1.8934	-0.00802851	0.0366519	0	-2.75069	-0.381024	-1080	1080	-600	1700	-10	10	-10	-0	0	-0	250	-1.2	0.2	177	-1.2	-1	2555	0.07	2847	4241	8	56579	
12.4268	0.957446	-2.66321	351	-209	3335	0	-0.160926	-0.194342	-1.29429	-0.0244648	0.000201616	-0.428621	0.41588	0.170799	0.663208	0.107996	0.273855	1.11858	0	0	0	0	0	0	0.300024	0.11793	0.241	0.33	0.16	1.511	-0.647798	-0.777771	-1.99656	-0.0529301	0.0795135	-0.175716	0.0576231	-0.0296608	0.0236655	0.072221	-0.173274	-0	0.640425	0.253807	1.90534	-0.00383972	0.0321141	0	-2.7519	-0.379903	-1080	1080	-600	1700	-10	10	-10	-0	0	-0	250	-1.2	0.2	177	-1.2	-1	2555	0.07	2847	4241	8	56579	
12.4367	0.958345	-2.67875	345	-193	3368	0	-0.15542	-0.178913	-1.34891	-0.0260128	-0.00158036	-0.442057	0.415383	0.169813	0.678748	0.102869	0.258765	1.17324	0	0	0	0	0	0	0.300024	0.11793	0.241	0.33	0.16	1.572	-0.63169	-0.725484	-2.08103	-0.0525513	0.0798522	-0.175676	0.0574583	-0.0294126	0.0234895	0.0719469	-0.173509	-0	0.610955	0.206755	1.80491	0.000872665	0.0258309	0	-2.75351	-0.37841	-1080	1080	-600	1700	-10	10	-10	-0	0	-0	250	-1.2	0.2	177	-1.2	-1	2555	0.07	2847	4241	8	56579	
12.4469	0.959599	-2.67521	348	-180	3361	0	-0.158753	-0.166876	-1.33717	-0.0276284	-0.00327865	-0.455665	0.414777	0.16821	0.675206	0.10642	0.247027	1.16157	0	0	0	0	0	0	0.300024	0.11793	0.241	0.33	0.16	1.572	-0.641613	-0.675315	-2.06311	-0.0523333	0.0801515	-0.175605	0.0576492	-0.0292364	0.0233793	0.0720917	-0.17343	-0	0.616982	0.208795	1.72594	0.000872665	0.0258309	0	-2.75632	-0.375816	-1080	1080	-600	1700	-10	10	-10	-0	0	-0	250	-1.2	0.2	177	-1.2	-1	2555	0.07	2847	4241	8	56579	
12.4569	0.960509	-2.69351	340	-163	3399	0	-0.151444	-0.151332	-1.39951	-0.0291321	-0.00478123	-0.469561	0.414164	0.167461	0.693508	0.0994891	0.231914	1.22399	0	0	0	0	0	0	0.300024	0.11793	0.241	0.33	0.16	1.643	-0.618564	-0.618564	-2.16038	-0.0519546	0.0805819	-0.17552	0.0574273	-0.0290095	0.0232199	0.071746	-0.173706	-0	0.577804	0.149244	1.74253	0.00558505	0.0185005	0	-2.75735	-0.374853	-1080	1080	-600	1700	-10	10	-10	-0	0	-0	250	-1.2	0.2	177	-1.2	-1	2555	0.07	2847	4241	8	56579	
12.4669	0.961305	-2.71419	332	-144	3441	0	-0.143877	-0.133461	-1.46955	-0.0305802	-0.00612451	-0.484352	0.413644	0.166767	0.714185	0.0922224	0.214673	1.29423	0	0	0	0	0	0	0.300024	0.11793	0.241	0.33	0.16	1.721	-0.595521	-0.553316	-2.26788	-0.0516543	0.0812116	-0.175318	0.0571623	-0.0287682	0.0230459	0.0713559	-0.174017	-0	0.550168	0.0783058	1.65244	0.00977384	0.00959931	0	-2.75836	-0.37392	-1080	1080	-600	1700	-10	10	-10	-0	0	-0	250	-1.2	0.2	177	-1.2	-1	2555	0.07	2847	4241	8	56579	
12.4767	0.962309	-2.71095	333	-135	3434	0	-0.144498	-0.125333	-1.45798	-0.0319963	-0.00735277	-0.49864	0.412988	0.165882	0.710952	0.0929278	0.206742	1.28273	0	0	0	0	0	0	0.300024	0.11793	0.241	0.33	0.16	1.721	-0.598138	-0.51772	-2.24996	-0.05157	0.0814089	-0.175252	0.0572978	-0.028699	0.0230144	0.0714504	-0.17395	-0	0.556994	0.0792773	1.55123	0.00977384	0.00959931	0	-2.75965	-0.372721	-1080	1080	-600	1700	-10	10	-10	-0	0	-0	250	-1.2	0.2	177	-1.2	-1	2555	0.07	2847	4241	8	56579	
12.4869	0.963307	-2.73503	324	-116	3483	0	-0.136436	-0.107363	-1.53864	-0.0333788	-0.00844069	-0.514231	0.412356	0.164946	0.735031	0.0852651	0.189381	1.36355	0	0	0	0	0	0	0.300024	0.11793	0.241	0.33	0.16	1.812	-0.571722	-0.451272	-2.37539	-0.0511705	0.0820179	-0.175085	0.057001	-0.0284033	0.0228009	0.0710067	-0.174305	-0	0.522877	0.00575431	1.56755	0.0137881	0.000698132	0	-2.76108	-0.371397	-1080	1080	-600	1700	-10	10	-10	-0	0	-0	250	-1.2	0.2	177	-1.2	-1	2555	0.07	2847	4241	8	56579	
12.497	0.964316	-2.74559	318	-98	3505	0	-0.130589	-0.0912298	-1.57559	-0.0347001	-0.00936375	-0.530173	0.41171	0.164008	0.745594	0.0795094	0.17393	1.4008	0	0	0	0	0	0	0.300024	0.11793	0.241	0.33	0.16	1.859	-0.55188	-0.383702	-2.4317	-0.05108	0.0827003	-0.17479	0.0569205	-0.0282166	0.0226748	0.0708322	-0.174449	-0	0.50697	-0.0539794	1.45104	0.0165806	-0.00645772	0	-2.7625	-0.370076	-1080	1080	-600	1700	-10	10	-10	-0	0	-0	250	-1.2	0.2	177	-1.2	-1	2555	0.07	2847	4241	8	56579	
12.5068	0.965386	-2.74226	318	-91	3497	0	-0.130806	-0.0848039	-1.56196	-0.0359922	-0.0102014	-0.545602	0.411046	0.162951	0.742263	0.0798372	0.167725	1.38724	0	0	0	0	0	0	0.300024	0.11793	0.241	0.33	0.16	1.859	-0.550621	-0.355496	-2.41123	-0.0509686	0.0829213	-0.174718	0.0570681	-0.0281217	0.0226236	0.0709371	-0.17438	-0	0.51022	-0.0543255	1.39745	0.0165806	-0.00645772	0	-2.76417	-0.368529	-1080	1080	-600	1700	-10	10	-10	-0	0	-0	250	-1.2	0.2	177	-1.2	-1	2555	0.07	2847	4241	8	56579	
12.5168	0.966461	-2.76889	312	-73	3547	0	-0.124687	-0.0677399	-1.6498	-0.0372282	-0.0108729	-0.561956	0.410398	0.16183	0.768888	0.0738537	0.151076	1.47524	0	0	0	0	0	0	0.300024	0.11793	0.241	0.33	0.16	1.959	-0.534756	-0.289283	-2.53921	-0.0508338	0.0833361	-0.17456	0.0567475	-0.0277842	0.0223769	0.0704602	-0.174764	-0	0.492967	-0.120118	1.41671	0.0185005	-0.0143117	0	-2.76599	-0.366835	-1080	1080	-600	1700	-10	10	-10	-0	0	-0	250	-1.2	0.2	177	-1.2	-1	2555	0.07	2847	4241	8	56579	
12.5268	0.967572	-2.78585	308	-56	3585	0	-0.121082	-0.0523479	-1.70703	-0.0384466	-0.0113997	-0.579132	0.409712	0.160704	0.785846	0.0701685	0.13617	1.53273	0	0	0	0	0	0	0.300024	0.11793	0.241	0.33	0.16	2.028	-0.524488	-0.224309	-2.63648	-0.0509139	0.0838223	-0.174303	0.0565824	-0.027525	0.0221936	0.0701745	-0.174997	-0	0.494481	-0.176946	1.28984	0.0191986	-0.0207694	0	-2.7678	-0.365151	-1080	1080	-600	1700	-10	10	-10	-0	0	-0	250	-1.2	0.2	177	-1.2	-1	2555	0.07	2847	4241	8	56579	
12.5368	0.968734	-2.78224	307	-51	3576	0	-0.120815	-0.0475096	-1.6923	-0.0396575	-0.0118759	-0.596094	0.409014	0.159467	0.782244	0.0700379	0.131581	1.51808	0	0	0	0	0	0	0.300024	0.11793	0.241	0.33	0.16	2.028	-0.519182	-0.203772	-2.61344	-0.0507774	0.0840718	-0.174223	0.0567454	-0.0274056	0.0221239	0.0702923	-0.174924	-0	0.499287	-0.178666	1.20703	0.0191986	-0.0207694	0	-2.76984	-0.363249	-1080	1080	-600	1700	-10	10	-10	-0	0	-0	250	-1.2	0.2	177	-1.2	-1	2555	0.07	2847	4241	8	56579	
12.5469	0.805107	-2.5893	357	-101	3622	0	-0.297855	-0.100702	-1.76895	-0.0426378	-0.0128835	-0.613794	0.559815	0.12524	0.589303	0.251213	0.189172	1.59575	0	0	0	0	0	0	0.400032	0.114902	0.027	0.5	0.06	2.114	-0.727757	-0.40864	-2.73119	-0.0466426	0.0884702	-0.173198	0.0529929	-0.0176704	0.0118554	0.0789852	-0.174643	-0	0.505556	-0.232142	1.22783	0.018326	-0.0270526	0	-2.9215	-0.218321	-1080	1080	-600	1700	-10	10	-10	-0	0	-0	250	-1.2	0.2	177	-1.2	-1	2555	0.07	2840	4226	8	56579	
12.5568	0.805892	-2.58414	407	-104	3613	0	-0.297104	-0.0967266	-1.75443	-0.0455801	-0.0138414	-0.631169	0.559522	0.123932	0.584144	0.250588	0.185469	1.58134	0	0	0	0	0	0	0.400032	0.114902	0.027	0.5	0.06	2.114	-0.926996	-0.419724	-2.70815	-0.0465162	0.0887421	-0.173093	0.0531465	-0.0175286	0.0117718	0.0791369	-0.174548	-0	0.512082	-0.235138	1.11704	0.018326	-0.0270526	0	-2.92362	-0.216255	-1080	1080	-600	1700	-10	10	-10	-0	0	-0	250	-1.2	0.2	177	-1.2	-1	2555	0.07	2840	4226	8	56579	
12.5669	0.806636	-2.61189	457	-86	3663	0	-0.29787	-0.0799325	-1.84834	-0.0485954	-0.0146505	-0.649879	0.55926	0.122603	0.611892	0.25099	0.168756	1.67539	0	0	0	0	0	0	0.400032	0.114902	0.027	0.5	0.06	2.223	-1.14321	-0.351921	-2.83613	-0.046881	0.0888239	-0.172952	0.0527851	-0.0172148	0.0115717	0.0785263	-0.174977	-0	0.532028	-0.281486	1.13753	0.0158825	-0.0324631	0	-2.92578	-0.214138	-1080	1080	-600	1700	-10	10	-10	-0	0	-0	250	-1.2	0.2	177	-1.2	-1	2555	0.07	2840	4226	8	56579	
12.5769	0.807452	-2.63286	501	-67	3713	0	-0.30043	-0.0619693	-1.92088	-0.0516168	-0.0152737	-0.669198	0.558939	0.121285	0.632865	0.252913	0.150994	1.74821	0	0	0	0	0	0	0.400032	0.114902	0.027	0.5	0.06	2.31	-1.33978	-0.277939	-2.96412	-0.0475172	0.0890246	-0.172675	0.052536	-0.016942	0.0113999	0.0780767	-0.175291	-0	0.571035	-0.330444	1.00187	0.0123918	-0.0375246	0	-2.92791	-0.212057	-1080	1080	-600	1700	-10	10	-10	-0	0	-0	250	-1.2	0.2	177	-1.2	-1	2555	0.07	2840	4226	8	56579	
12.5867	0.808401	-2.62755	498	-56	3704	0	-0.297253	-0.0523138	-1.90481	-0.0545317	-0.0157867	-0.687876	0.558543	0.119846	0.627547	0.24988	0.141628	1.73225	0	0	0	0	0	0	0.400032	0.114902	0.027	0.5	0.06	2.31	-1.32424	-0.231754	-2.94108	-0.0473731	0.0893141	-0.172565	0.0527013	-0.0167858	0.011308	0.0782305	-0.175194	-0	0.577837	-0.33438	0.896956	0.0123918	-0.0375246	0	-2.93023	-0.209793	-1080	1080	-600	1700	-10	10	-10	-0	0	-0	250	-1.2	0.2	177	-1.2	-1	2555	0.07	2840	4226	8	56579	
12.5969	0.809466	-2.64716	499	-34	3744	0	-0.29813	-0.0320667	-1.97044	-0.0575538	-0.0161118	-0.707851	0.558059	0.118385	0.647161	0.250074	0.121574	1.79817	0	0	0	0	0	0	0.400032	0.114902	0.027	0.5	0.06	2.393	-1.34268	-0.142236	-3.04347	-0.0480558	0.0895068	-0.172276	0.052491	-0.0165075	0.0111352	0.0778158	-0.175479	-0	0.611974	-0.37384	0.919649	0.00837758	-0.0420624	0	-2.93256	-0.207518	-1080	1080	-600	1700	-10	10	-10	-0	0	-0	250	-1.2	0.2	177	-1.2	-1	2555	0.07	2840	4226	8	56579	
12.6067	0.811994	-2.66683	500	-10	3784	0	-0.299207	-0.00998059	-2.03631	-0.0605025	-0.0162102	-0.727918	0.556544	0.116606	0.666834	0.250486	0.0998919	1.86443	0	0	0	0	0	0	0.400032	0.114902	0.027	0.5	0.06	2.475	-1.36121	-0.0422826	-3.14586	-0.0487202	0.0899113	-0.171879	0.0523712	-0.016216	0.0109727	0.0773964	-0.175738	-0	0.654491	-0.4264	0.82467	0.00436332	-0.047473	0	-2.93506	-0.205066	-1080	1080	-600	1700	-10	10	-10	-0	0	-0	250	-1.2	0.2	177	-1.2	-1	2555	0.07	2840	4226	8	56579	
12.6167	0.815376	-2.66168	494	2	3772	0	-0.293472	0.00254543	-2.01708	-0.0634399	-0.0161847	-0.748107	0.554505	0.114212	0.661683	0.245064	0.087827	1.84535	0	0	0	0	0	0	0.400032	0.114902	0.027	0.5	0.06	2.475	-1.33185	0.00842973	-3.11514	-0.0484077	0.0903724	-0.171725	0.0526893	-0.0159718	0.0108525	0.0775435	-0.175607	-0	0.661433	-0.430923	0.729358	0.00436332	-0.047473	0	-2.93846	-0.201737	-1080	1080	-600	1700	-10	10	-10	-0	0	-0	250	-1.2	0.2	177	-1.2	-1	2555	0.07	2840	4226	8	56579	
12.6268	0.818151	-2.68327	494	28	3814	0	-0.293642	0.0266699	-2.08666	-0.0663783	-0.0159178	-0.768989	0.552806	0.11231	0.683274	0.244659	0.064231	1.91538	0	0	0	0	0	0	0.400032	0.114902	0.027	0.5	0.06	2.565	-1.34668	0.119327	-3.22265	-0.0489831	0.0909009	-0.171282	0.0525559	-0.0156608	0.0106774	0.0770849	-0.175888	-0	0.695693	-0.484866	0.756558	0.000349066	-0.0535816	0	-2.94116	-0.199096	-1080	1080	-600	1700	-10	10	-10	-0	0	-0	250	-1.2	0.2	177	-1.2	-1	2555	0.07	2840	4226	8	56579	
12.6369	0.82019	-2.69982	493	53	3847	0	-0.292112	0.0500849	-2.14045	-0.0693509	-0.0154081	-0.79077	0.551544	0.110939	0.699824	0.242563	0.0415757	1.96974	0	0	0	0	0	0	0.400032	0.114902	0.027	0.5	0.06	2.638	-1.35408	0.227809	-3.30712	-0.049549	0.0916606	-0.170714	0.0524478	-0.0154348	0.0105495	0.0767351	-0.176101	-0	0.7321	-0.555657	0.655875	-0.00279253	-0.0607375	0	-2.9431	-0.197194	-1080	1080	-600	1700	-10	10	-10	-0	0	-0	250	-1.2	0.2	177	-1.2	-1	2555	0.07	2840	4226	8	56579	
12.6469	0.820816	-2.69408	484	55	3835	0	-0.284508	0.051714	-2.12124	-0.0721871	-0.0148926	-0.811917	0.551239	0.1101	0.694078	0.235008	0.0401739	1.95063	0	0	0	0	0	0	0.400032	0.114902	0.027	0.5	0.06	2.638	-1.31164	0.235667	-3.2764	-0.0494998	0.0918878	-0.170606	0.052586	-0.0153551	0.0105031	0.0768786	-0.176007	-0	0.738336	-0.56039	0.577898	-0.00279253	-0.0607375	0	-2.94445	-0.195863	-1080	1080	-600	1700	-10	10	-10	-0	0	-0	250	-1.2	0.2	177	-1.2	-1	2555	0.07	2840	4226	8	56579	
12.6569	0.821416	-2.7154	477	73	3878	0	-0.277348	0.0681931	-2.19145	-0.0749534	-0.0142124	-0.833774	0.550839	0.109834	0.715402	0.227365	0.0239696	2.02113	0	0	0	0	0	0	0.400032	0.114902	0.027	0.5	0.06	2.728	-1.29628	0.316278	-3.38647	-0.0499831	0.0921627	-0.170317	0.0523042	-0.0152359	0.0104291	0.0764108	-0.176309	-0	0.750576	-0.614856	0.605057	-0.00436332	-0.0668461	0	-2.94478	-0.195545	-1080	1080	-600	1700	-10	10	-10	-0	0	-0	250	-1.2	0.2	177	-1.2	-1	2555	0.07	2840	4226	8	56579	
12.6668	0.822014	-2.73403	461	85	3916	0	-0.262897	0.0790105	-2.25425	-0.0775535	-0.013431	-0.856069	0.550272	0.110405	0.734027	0.212747	0.0130937	2.08395	0	0	0	0	0	0	0.400032	0.114902	0.027	0.5	0.06	2.808	-1.23954	0.371855	-3.48373	-0.0501491	0.0921042	-0.170299	0.0520494	-0.0152451	0.0104431	0.0759833	-0.176567	-0	0.750766	-0.658914	0.503447	-0.00349066	-0.0708604	0	-2.94358	-0.196717	-1080	1080	-600	1700	-10	10	-10	-0	0	-0	250	-1.2	0.2	177	-1.2	-1	2555	0.07	2840	4226	8	56579	
12.6768	0.822491	-2.72836	446	81	3906	0	-0.248555	0.0752291	-2.23761	-0.0800596	-0.0126725	-0.87863	0.549622	0.111831	0.728361	0.198123	0.0168877	2.0674	0	0	0	0	0	0	0.400032	0.114902	0.027	0.5	0.06	2.808	-1.17138	0.353459	-3.45814	-0.0504318	0.0921168	-0.170209	0.0521331	-0.0154761	0.0106075	0.0760613	-0.176479	-0	0.758104	-0.665354	0.412482	-0.00349066	-0.0708604	0	-2.94086	-0.199384	-1080	1080	-600	1700	-10	10	-10	-0	0	-0	250	-1.2	0.2	177	-1.2	-1	2555	0.07	2840	4226	8	56579	
12.6869	0.822995	-2.74112	425	85	3932	0	-0.229163	0.0792805	-2.2811	-0.0823756	-0.0118713	-0.901683	0.548934	0.113323	0.741123	0.178513	0.0125656	2.11081	0	0	0	0	0	0	0.400032	0.114902	0.027	0.5	0.06	2.868	-1.0875	0.373375	-3.52469	-0.05065	0.0918461	-0.170291	0.051943	-0.0156353	0.0107232	0.0757376	-0.176653	-0	0.738275	-0.688174	0.435904	-0.0015708	-0.0734784	0	-2.93801	-0.202178	-1080	1080	-600	1700	-10	10	-10	-0	0	-0	250	-1.2	0.2	177	-1.2	-1	2555	0.07	2840	4226	8	56579	
12.697	0.823606	-2.7595	405	90	3970	0	-0.210707	0.0837408	-2.34374	-0.0844898	-0.011031	-0.9252	0.548132	0.114946	0.759497	0.159876	0.00763425	2.17325	0	0	0	0	0	0	0.400032	0.114902	0.027	0.5	0.06	2.946	-1.00976	0.399148	-3.62196	-0.0508309	0.0913751	-0.17049	0.0516747	-0.0157887	0.0108364	0.0752903	-0.176902	-0	0.728472	-0.712522	0.372723	0	-0.0755728	0	-2.93488	-0.20524	-1080	1080	-600	1700	-10	10	-10	-0	0	-0	250	-1.2	0.2	177	-1.2	-1	2555	0.07	2840	4226	8	56579	
12.7069	0.824209	-2.7543	391	85	3960	0	-0.197735	0.0788045	-2.32692	-0.0864462	-0.0102513	-0.948223	0.547347	0.11649	0.7543	0.146613	0.0125591	2.15652	0	0	0	0	0	0	0.400032	0.114902	0.027	0.5	0.06	2.946	-0.94556	0.376034	-3.59636	-0.0511226	0.0913636	-0.170409	0.0517534	-0.0160365	0.0110145	0.07535	-0.17682	-0	0.735478	-0.719374	0.28197	0	-0.0755728	0	-2.93189	-0.208165	-1080	1080	-600	1700	-10	10	-10	-0	0	-0	250	-1.2	0.2	177	-1.2	-1	2555	0.07	2840	4226	8	56579	
12.7168	0.578714	-2.43024	441	35	4003	0	-0.286507	-0.0624411	-2.39753	-0.0892752	-0.0108679	-0.971896	0.709148	0.12185	0.430236	0.224932	0.149458	2.2283	0	0	0	0	0	0	0.511152	0.118593	-0.313	0.67	0.06	3.023	-1.17826	0.156548	-3.70643	-0.0615758	0.0870172	-0.169223	0.0411593	-0.0146647	0.00707223	0.0853464	-0.175376	-0	0.722073	-0.735781	0.305635	0.00122173	-0.0774926	0	-2.97143	-0.169344	-1080	1080	-600	1700	-10	10	-10	-0	0	-0	250	-1.2	0.2	177	-1.2	-1	2555	0.07	2836	4213	8	56579	
12.7268	0.578825	-2.42257	474	-15	3993	0	-0.275038	-0.0683246	-2.38147	-0.0920396	-0.0115546	-0.995832	0.708798	0.123492	0.422573	0.213143	0.155373	2.21238	0	0	0	0	0	0	0.511152	0.118593	-0.313	0.67	0.06	3.023	-1.32145	-0.0669267	-3.68083	-0.0618943	0.0870481	-0.169091	0.0412503	-0.0148997	0.00718694	0.0855185	-0.175247	-0	0.72984	-0.743695	0.20341	0.00122173	-0.0774926	0	-2.9691	-0.171642	-1080	1080	-600	1700	-10	10	-10	-0	0	-0	250	-1.2	0.2	177	-1.2	-1	2555	0.07	2836	4213	8	56579	
12.7368	0.57885	-2.43431	460	-65	4022	0	-0.261261	-0.0656294	-2.42831	-0.0946464	-0.0122095	-1.02006	0.708491	0.125163	0.434305	0.199134	0.152101	2.259	0	0	0	0	0	0	0.511152	0.118593	-0.313	0.67	0.06	3.086	-1.26863	-0.292085	-3.75506	-0.0621271	0.0864719	-0.169301	0.041082	-0.0150456	0.00725761	0.0851661	-0.175442	-0	0.723123	-0.750288	0.225957	0.00174533	-0.0783653	0	-2.96674	-0.173968	-1080	1080	-600	1700	-10	10	-10	-0	0	-0	250	-1.2	0.2	177	-1.2	-1	2555	0.07	2836	4213	8	56579	
12.7469	0.579172	-2.44934	446	-66	4057	0	-0.248376	-0.061574	-2.48689	-0.0971682	-0.0128346	-1.04531	0.708015	0.126773	0.449339	0.186038	0.147189	2.31723	0	0	0	0	0	0	0.511152	0.118593	-0.313	0.67	0.06	3.16	-1.21666	-0.299158	-3.84465	-0.0623383	0.0856145	-0.169659	0.0408924	-0.0151706	0.00732197	0.084726	-0.175686	-0	0.723215	-0.753933	0.15794	0.00226893	-0.0781908	0	-2.96442	-0.176252	-1080	1080	-600	1700	-10	10	-10	-0	0	-0	250	-1.2	0.2	177	-1.2	-1	2555	0.07	2836	4213	8	56579	
12.7568	0.579416	-2.44184	439	-65	4047	0	-0.241711	-0.0601885	-2.47018	-0.0995648	-0.0134314	-1.0698	0.707591	0.128328	0.441844	0.179071	0.145838	2.30065	0	0	0	0	0	0	0.511152	0.118593	-0.313	0.67	0.06	3.16	-1.18222	-0.293901	-3.81905	-0.0626401	0.0856495	-0.16953	0.0409892	-0.0153957	0.00743374	0.0848908	-0.17556	-0	0.729581	-0.760569	0.0729826	0.00226893	-0.0781908	0	-2.96218	-0.178447	-1080	1080	-600	1700	-10	10	-10	-0	0	-0	250	-1.2	0.2	177	-1.2	-1	2555	0.07	2836	4213	8	56579	
12.7668	0.579929	-2.45	431	-63	4069	0	-0.234536	-0.058284	-2.50587	-0.101894	-0.0140103	-1.09469	0.707023	0.129785	0.450002	0.171565	0.143221	2.33611	0	0	0	0	0	0	0.511152	0.118593	-0.313	0.67	0.06	3.212	-1.15251	-0.286408	-3.87537	-0.0629708	0.0849369	-0.169766	0.0409026	-0.0155364	0.00750833	0.0846365	-0.175687	-0	0.729513	-0.750285	0.0964489	0.0020944	-0.0773181	0	-2.96005	-0.180549	-1080	1080	-600	1700	-10	10	-10	-0	0	-0	250	-1.2	0.2	177	-1.2	-1	2555	0.07	2836	4213	8	56579	
12.7769	0.580839	-2.46412	428	-60	4103	0	-0.231877	-0.0560607	-2.56216	-0.10423	-0.0145749	-1.1205	0.706262	0.131004	0.464119	0.168454	0.140074	2.3921	0	0	0	0	0	0	0.511152	0.118593	-0.313	0.67	0.06	3.284	-1.14847	-0.275052	-3.9624	-0.0634226	0.0840136	-0.170057	0.0407686	-0.0156232	0.00756216	0.084227	-0.175905	-0	0.750412	-0.739006	0.0444663	0.000349066	-0.0757473	0	-2.95819	-0.182379	-1080	1080	-600	1700	-10	10	-10	-0	0	-0	250	-1.2	0.2	177	-1.2	-1	2555	0.07	2836	4213	8	56579	
12.7868	0.581759	-2.45617	423	-58	4094	0	-0.226847	-0.0544172	-2.54667	-0.106489	-0.015117	-1.14586	0.705488	0.132239	0.456173	0.163161	0.138533	2.37676	0	0	0	0	0	0	0.511152	0.118593	-0.313	0.67	0.06	3.284	-1.12321	-0.265303	-3.93936	-0.0636861	0.0841157	-0.169908	0.040918	-0.0158205	0.00766978	0.0844021	-0.175764	-0	0.756688	-0.745186	-0.0372	0.000349066	-0.0757473	0	-2.9563	-0.184234	-1080	1080	-600	1700	-10	10	-10	-0	0	-0	250	-1.2	0.2	177	-1.2	-1	2555	0.07	2836	4213	8	56579	
12.7967	0.582699	-2.47046	422	-56	4126	0	-0.226405	-0.0524705	-2.59992	-0.108738	-0.015638	-1.17168	0.70473	0.133317	0.470459	0.162258	0.135696	2.42974	0	0	0	0	0	0	0.511152	0.118593	-0.313	0.67	0.06	3.354	-1.1274	-0.258158	-4.02127	-0.064147	0.0832258	-0.170172	0.0407851	-0.0158892	0.0077155	0.0839921	-0.175983	-0	0.777246	-0.726443	-0.0155051	-0.00191986	-0.074002	0	-2.95463	-0.185878	-1080	1080	-600	1700	-10	10	-10	-0	0	-0	250	-1.2	0.2	177	-1.2	-1	2555	0.07	2836	4213	8	56579	
12.8069	0.584307	-2.47828	423	-60	4149	0	-0.227269	-0.0554596	-2.63778	-0.111048	-0.0162018	-1.1985	0.703629	0.134101	0.47828	0.162588	0.137735	2.46734	0	0	0	0	0	0	0.511152	0.118593	-0.313	0.67	0.06	3.407	-1.1383	-0.278136	-4.08014	-0.0646805	0.082275	-0.170433	0.0407822	-0.0159624	0.00777247	0.0837551	-0.176087	-0	0.805756	-0.699404	-0.0927876	-0.00418879	-0.0706858	0	-2.95327	-0.187215	-1080	1080	-600	1700	-10	10	-10	-0	0	-0	250	-1.2	0.2	177	-1.2	-1	2555	0.07	2836	4213	8	56579	
12.8168	0.585926	-2.46998	419	-57	4140	0	-0.223135	-0.0526609	-2.62257	-0.113261	-0.016724	-1.22451	0.702512	0.134929	0.46998	0.158238	0.135114	2.45231	0	0	0	0	0	0	0.511152	0.118593	-0.313	0.67	0.06	3.407	-1.11743	-0.263659	-4.0571	-0.0648964	0.082453	-0.170264	0.0409855	-0.016122	0.00787192	0.08394	-0.175933	-0	0.810244	-0.7033	-0.147944	-0.00418879	-0.0706858	0	-2.95184	-0.188618	-1080	1080	-600	1700	-10	10	-10	-0	0	-0	250	-1.2	0.2	177	-1.2	-1	2555	0.07	2836	4213	8	56579	
12.8267	0.587493	-2.48382	421	-56	4172	0	-0.225342	-0.0520286	-2.67498	-0.115496	-0.0172402	-1.25104	0.701454	0.135592	0.483823	0.159995	0.133542	2.50444	0	0	0	0	0	0	0.511152	0.118593	-0.313	0.67	0.06	3.476	-1.13534	-0.261036	-4.13901	-0.065347	0.0815136	-0.170544	0.0409034	-0.01615	0.00790668	0.0835484	-0.176134	-0	0.834438	-0.675846	-0.126677	-0.00680678	-0.0680678	0	-2.95065	-0.189788	-1080	1080	-600	1700	-10	10	-10	-0	0	-0	250	-1.2	0.2	177	-1.2	-1	2555	0.07	2836	4213	8	56579	
12.8367	0.590727	-2.4919	427	-54	4193	0	-0.230703	-0.0504912	-2.70886	-0.117802	-0.0177449	-1.27812	0.699431	0.136101	0.491896	0.16474	0.131421	2.53827	0	0	0	0	0	0	0.511152	0.118593	-0.313	0.67	0.06	3.525	-1.169	-0.252983	-4.19277	-0.0659633	0.0809295	-0.170585	0.0410055	-0.0162089	0.00797919	0.0832984	-0.17622	-0	0.87391	-0.661842	-0.202778	-0.0101229	-0.066148	0	-2.94941	-0.191006	-1080	1080	-600	1700	-10	10	-10	-0	0	-0	250	-1.2	0.2	177	-1.2	-1	2555	0.07	2836	4213	8	56579	
12.8468	0.595426	-2.48405	424	-46	4182	0	-0.228499	-0.0429692	-2.69133	-0.12011	-0.0181789	-1.3053	0.696667	0.135894	0.484051	0.16249	0.124313	2.52096	0	0	0	0	0	0	0.511152	0.118593	-0.313	0.67	0.06	3.525	-1.152	-0.214944	-4.16461	-0.0660084	0.0813435	-0.170371	0.0414147	-0.016281	0.00807846	0.0834657	-0.176034	-0	0.878224	-0.665109	-0.252202	-0.0101229	-0.066148	0	-2.94895	-0.191454	-1080	1080	-600	1700	-10	10	-10	-0	0	-0	250	-1.2	0.2	177	-1.2	-1	2555	0.07	2836	4213	8	56579	
12.8569	0.598708	-2.49961	428	-43	4218	0	-0.231761	-0.0404748	-2.75083	-0.122436	-0.018585	-1.33291	0.694514	0.136847	0.499612	0.165312	0.121053	2.58026	0	0	0	0	0	0	0.511152	0.118593	-0.313	0.67	0.06	3.6	-1.18066	-0.202657	-4.25676	-0.066449	0.0805783	-0.170563	0.0414162	-0.0163565	0.00816064	0.0830111	-0.176238	-0	0.905743	-0.644254	-0.227614	-0.01309	-0.0642281	0	-2.94704	-0.193323	-1080	1080	-600	1700	-10	10	-10	-0	0	-0	250	-1.2	0.2	177	-1.2	-1	2555	0.07	2836	4213	8	56579	
12.8668	0.601008	-2.51302	428	-46	4250	0	-0.231811	-0.0428879	-2.80315	-0.124746	-0.0190125	-1.36085	0.692886	0.13809	0.513018	0.165032	0.122546	2.63229	0	0	0	0	0	0	0.511152	0.118593	-0.313	0.67	0.06	3.667	-1.18961	-0.218439	-4.33867	-0.0667787	0.0796585	-0.170866	0.0413779	-0.0164653	0.00824648	0.082617	-0.176418	-0	0.931129	-0.623343	-0.313942	-0.0148353	-0.0616101	0	-2.94487	-0.195453	-1080	1080	-600	1700	-10	10	-10	-0	0	-0	250	-1.2	0.2	177	-1.2	-1	2555	0.07	2836	4213	8	56579	
12.8769	0.602231	-2.5067	425	-46	4242	0	-0.228609	-0.0427025	-2.78912	-0.127051	-0.0194431	-1.38897	0.691931	0.139185	0.506696	0.161618	0.122448	2.61837	0	0	0	0	0	0	0.511152	0.118593	-0.313	0.67	0.06	3.667	-1.17324	-0.218028	-4.31819	-0.0669904	0.0797457	-0.170742	0.0415248	-0.0166439	0.00835291	0.0827419	-0.176303	-0	0.938119	-0.628023	-0.38995	-0.0148353	-0.0616101	0	-2.94309	-0.197204	-1080	1080	-600	1700	-10	10	-10	-0	0	-0	250	-1.2	0.2	177	-1.2	-1	2555	0.07	2836	4213	8	56579	
12.8869	0.601728	-2.51794	431	-52	4271	0	-0.23416	-0.0481148	-2.83713	-0.129383	-0.0199222	-1.41722	0.692071	0.139989	0.517938	0.166797	0.12704	2.66615	0	0	0	0	0	0	0.511152	0.118593	-0.313	0.67	0.06	3.728	-1.20972	-0.248146	-4.39242	-0.0673627	0.0789249	-0.170977	0.0413385	-0.0166755	0.00836179	0.0824395	-0.176485	-0	0.955783	-0.607311	-0.370417	-0.0167552	-0.0596903	0	-2.94201	-0.198261	-1080	1080	-600	1700	-10	10	-10	-0	0	-0	250	-1.2	0.2	177	-1.2	-1	2555	0.07	2836	4213	8	56579	
12.897	0.601325	-2.52621	438	-55	4293	0	-0.240935	-0.050836	-2.87375	-0.131821	-0.0204366	-1.4463	0.692147	0.140812	0.526207	0.173039	0.12917	2.70271	0	0	0	0	0	0	0.511152	0.118593	-0.313	0.67	0.06	3.778	-1.24932	-0.263812	-4.44874	-0.0678961	0.0783343	-0.171038	0.0411973	-0.0167256	0.00838127	0.0822129	-0.176618	-0	0.98727	-0.602546	-0.440223	-0.0191986	-0.0588176	0	-2.94089	-0.199359	-1080	1080	-600	1700	-10	10	-10	-0	0	-0	250	-1.2	0.2	177	-1.2	-1	2555	0.07	2836	4213	8	56579	
12.9067	0.600795	-2.52004	439	-56	4286	0	-0.241434	-0.0523475	-2.86067	-0.13417	-0.0209459	-1.47413	0.692341	0.141429	0.520042	0.173347	0.130722	2.68973	0	0	0	0	0	0	0.511152	0.118593	-0.313	0.67	0.06	3.778	-1.25204	-0.268169	-4.43082	-0.0680871	0.0783747	-0.170943	0.0412343	-0.0168241	0.00842318	0.0823594	-0.176529	-0	0.992416	-0.605687	-0.493654	-0.0191986	-0.0588176	0	-2.94009	-0.200143	-1080	1080	-600	1700	-10	10	-10	-0	0	-0	250	-1.2	0.2	177	-1.2	-1	2555	0.07	2836	4213	8	56579	
12.9168	0.600147	-2.53551	451	-59	4322	0	-0.252728	-0.0544493	-2.92156	-0.136708	-0.0214928	-1.50348	0.692695	0.141599	0.535515	0.184254	0.132051	2.75042	0	0	0	0	0	0	0.511152	0.118593	-0.313	0.67	0.06	3.852	-1.32011	-0.284906	-4.52297	-0.0684735	0.0776017	-0.171141	0.0409944	-0.0167558	0.00837995	0.0819687	-0.176776	-0	1.02104	-0.58849	-0.47549	-0.0221657	-0.0572468	0	-2.93995	-0.200275	-1080	1080	-600	1700	-10	10	-10	-0	0	-0	250	-1.2	0.2	177	-1.2	-1	2555	0.07	2836	4213	8	56579	
12.9267	0.59988	-2.52835	453	-59	4316	0	-0.254458	-0.0548252	-2.90983	-0.139243	-0.0220389	-1.53246	0.692821	0.141772	0.528348	0.185823	0.132541	2.73881	0	0	0	0	0	0	0.511152	0.118593	-0.313	0.67	0.06	3.852	-1.32786	-0.28451	-4.50761	-0.0686355	0.0777154	-0.171025	0.0410659	-0.01681	0.00840334	0.0821482	-0.176669	-0	1.02981	-0.593546	-0.563864	-0.0221657	-0.0572468	0	-2.93975	-0.200476	-1080	1080	-600	1700	-10	10	-10	-0	0	-0	250	-1.2	0.2	177	-1.2	-1	2555	0.07	2836	4213	8	56579	
12.9368	0.599522	-2.54164	463	-59	4348	0	-0.264273	-0.0551408	-2.96314	-0.141909	-0.0225951	-1.56235	0.69307	0.141606	0.541641	0.195381	0.132218	2.79193	0	0	0	0	0	0	0.511152	0.118593	-0.313	0.67	0.06	3.918	-1.38592	-0.286619	-4.58952	-0.0688926	0.0770768	-0.17121	0.0408772	-0.0167171	0.0083519	0.0818195	-0.176877	-0	1.05159	-0.578181	-0.54767	-0.0244346	-0.0558505	0	-2.94005	-0.200181	-1080	1080	-600	1700	-10	10	-10	-0	0	-0	250	-1.2	0.2	177	-1.2	-1	2555	0.07	2836	4213	8	56579	
12.947	0.369077	-2.08672	513	-46	4365	0	-0.361533	-0.0429901	-2.99042	-0.145581	-0.0230318	-1.59273	0.825307	0.106319	0.0867181	0.279164	0.119684	2.82509	0	0	0	0	0	0	0.633384	0.10519	-0.773	0.7	-0.01	3.966	-1.63297	-0.224349	-4.63303	-0.0823688	0.0766939	-0.165328	0.0300624	-0.0125916	0.00387273	0.0977434	-0.171374	-0	1.07213	-0.57705	-0.625141	-0.0256563	-0.0553269	0	-3.01348	-0.127767	-1080	1080	-600	1700	-10	10	-10	-0	0	-0	250	-1.2	0.2	177	-1.2	-1	2555	0.07	2832	4202	8	56579	
12.957	0.367696	-2.07718	563	-44	4358	0	-0.364991	-0.0407745	-2.97801	-0.14925	-0.0234416	-1.62266	0.8261	0.105572	0.0771816	0.28238	0.117665	2.81289	0	0	0	0	0	0	0.633384	0.10519	-0.773	0.7	-0.01	3.966	-1.87081	-0.214252	-4.61512	-0.0826104	0.0768902	-0.165116	0.0300572	-0.0125359	0.00384117	0.0980935	-0.171179	-0	1.07624	-0.579262	-0.66515	-0.0256563	-0.0553269	0	-3.01449	-0.126765	-1080	1080	-600	1700	-10	10	-10	-0	0	-0	250	-1.2	0.2	177	-1.2	-1	2555	0.07	2832	4202	8	56579	
12.9668	0.366065	-2.0878	585	-34	4388	0	-0.376613	-0.03216	-3.02822	-0.152931	-0.023756	-1.65226	0.827063	0.104458	0.0878014	0.293712	0.108722	2.8631	0	0	0	0	0	0	0.633384	0.10519	-0.773	0.7	-0.01	4.03	-1.98994	-0.166702	-4.69191	-0.0829011	0.0765618	-0.165123	0.0298207	-0.0123465	0.00376635	0.0977554	-0.171429	-0	1.10353	-0.583781	-0.647995	-0.0284489	-0.0558505	0	-3.01596	-0.125304	-1080	1080	-600	1700	-10	10	-10	-0	0	-0	250	-1.2	0.2	177	-1.2	-1	2555	0.07	2832	4202	8	56579	
12.9769	0.364938	-2.09798	598	-19	4419	0	-0.389266	-0.0182554	-3.07891	-0.156863	-0.0239404	-1.68336	0.827826	0.102905	0.0979794	0.306066	0.0947015	2.91389	0	0	0	0	0	0	0.633384	0.10519	-0.773	0.7	-0.01	4.094	-2.06714	-0.0938177	-4.77126	-0.0832006	0.0764461	-0.165026	0.029632	-0.0121122	0.00368349	0.0974369	-0.171662	-0	1.14412	-0.600702	-0.721001	-0.0315905	-0.0570723	0	-3.01792	-0.123358	-1080	1080	-600	1700	-10	10	-10	-0	0	-0	250	-1.2	0.2	177	-1.2	-1	2555	0.07	2832	4202	8	56579	
